[
 {
   "Title": "德來機車行有限公司",
   "Tel": "04-7227555",
   "Address": "彰化縣彰化市永福里中山路2段555號",
   "Brand": "山葉",
   "Lat": 24.079402,
   "Lon": 120.544981
 },
 {
   "Title": "鴻安車業有限公司",
   "Tel": "04-7257565",
   "Address": "彰化縣彰化市復興里中山路3段290號",
   "Brand": "三陽",
   "Lat": 24.086523,
   "Lon": 120.560644
 },
 {
   "Title": "實用車業有限公司",
   "Tel": "04-7222062",
   "Address": "彰化縣彰化市信義里中正路1段396號",
   "Brand": "山葉",
   "Lat": 24.082935,
   "Lon": 120.543419
 },
 {
   "Title": "銘松車行",
   "Tel": "04-7245629",
   "Address": "彰化縣彰化市阿夷里福成街149號",
   "Brand": "台鈴",
   "Lat": 24.095968,
   "Lon": 120.5531978
 },
 {
   "Title": "全陽機車行",
   "Tel": "04-7222030",
   "Address": "彰化縣彰化市永福里光復路33號",
   "Brand": "三陽",
   "Lat": 24.080827,
   "Lon": 120.544952
 },
 {
   "Title": "朝生機車行",
   "Tel": "04-7381872",
   "Address": "彰化縣彰化市牛埔里彰南路3段146號",
   "Brand": "山葉",
   "Lat": 24.0820489,
   "Lon": 120.5961367
 },
 {
   "Title": "銘隆車業有限公司",
   "Tel": "04-7525029",
   "Address": "彰化縣彰化市磚磘里彰草路417號",
   "Brand": "光陽",
   "Lat": 24.0776118,
   "Lon": 120.5222116
 },
 {
   "Title": "二水永興有限公司",
   "Tel": "04-8792451",
   "Address": "彰化縣二水鄉聖化村員集路3段594號",
   "Brand": "光陽",
   "Lat": 23.8086532,
   "Lon": 120.6170592
 },
 {
   "Title": "正全機車有限公司",
   "Tel": "04-8961539",
   "Address": "彰化縣二林鎮南光里大成路1段372號",
   "Brand": "山葉",
   "Lat": 23.8969114,
   "Lon": 120.3670246
 },
 {
   "Title": "宏隆機車行",
   "Tel": "04-8960611",
   "Address": "彰化縣二林鎮北平里新生路94號",
   "Brand": "光陽",
   "Lat": 23.9015521,
   "Lon": 120.3682333
 },
 {
   "Title": "原昌車業有限公司",
   "Tel": "04-8356089",
   "Address": "彰化縣大村鄉美港村中山路1段9號",
   "Brand": "光陽",
   "Lat": 23.9742489,
   "Lon": 120.571399
 },
 {
   "Title": "良英車業行",
   "Tel": "04-8882524",
   "Address": "彰化縣北斗鎮大道里中山路2段233號",
   "Brand": "光陽",
   "Lat": 23.8774701,
   "Lon": 120.5200149
 },
 {
   "Title": "瑞榮車業有限公司",
   "Tel": "04-7697242",
   "Address": "彰化縣秀水鄉鶴鳴村民主街215號",
   "Brand": "山葉",
   "Lat": 24.05796,
   "Lon": 120.495752
 },
 {
   "Title": "耀祥輪業有限公司",
   "Tel": "04-7558669",
   "Address": "彰化縣和美鎮和西里道周路713號、715號",
   "Brand": "山葉",
   "Lat": 24.1134261,
   "Lon": 120.4915454
 },
 {
   "Title": "銓湧機車有限公司",
   "Tel": "04-7553145",
   "Address": "彰化縣和美鎮和北里彰美路5段296號1樓",
   "Brand": "光陽",
   "Lat": 24.1106461,
   "Lon": 120.4998712
 },
 {
   "Title": "東陽機車行",
   "Tel": "04-8732927",
   "Address": "彰化縣社頭鄉社頭村員集路2段305號",
   "Brand": "三陽",
   "Lat": 23.9002407,
   "Lon": 120.5871424
 },
 {
   "Title": "順進機車行",
   "Tel": "04-8731277",
   "Address": "彰化縣社頭鄉社頭村員集路2段604號",
   "Brand": "光陽",
   "Lat": 23.9047644,
   "Lon": 120.5839529
 },
 {
   "Title": "祺淵車業有限公司",
   "Tel": "04-8736727",
   "Address": "彰化縣社頭鄉舊社村社斗路1段50號",
   "Brand": "山葉",
   "Lat": 23.8982702,
   "Lon": 120.590828
 },
 {
   "Title": "明德機車行",
   "Tel": "04-8984143",
   "Address": "彰化縣芳苑鄉仁愛村斗苑路芳苑段160號",
   "Brand": "山葉",
   "Lat": 23.9231745,
   "Lon": 120.3217268
 },
 {
   "Title": "鋐展車業股份有限公司",
   "Tel": "04-7688860",
   "Address": "彰化縣秀水鄉番花路428號",
   "Brand": "光陽",
   "Lat": 24.0132629,
   "Lon": 120.5097069
 },
 {
   "Title": "安詮車業有限公司",
   "Tel": "04-7863948",
   "Address": "彰化縣花壇鄉花壇村花壇街2號1、2樓",
   "Brand": "光陽",
   "Lat": 24.0204039,
   "Lon": 120.540575
 },
 {
   "Title": "良美機車企業行",
   "Tel": "049-2522810",
   "Address": "彰化縣芬園鄉芬園村芬草路2段159號",
   "Brand": "三陽",
   "Lat": 24.0135726,
   "Lon": 120.6321672
 },
 {
   "Title": "山陽輪業有限公司",
   "Tel": "04-8323501",
   "Address": "彰化縣員林市三義里中山路1段519號",
   "Brand": "三陽",
   "Lat": 23.953574,
   "Lon": 120.567533
 },
 {
   "Title": "冠緯車業有限公司",
   "Tel": "04-8323040",
   "Address": "彰化縣員林市三信里大同路2段345號",
   "Brand": "三陽",
   "Lat": 23.968912,
   "Lon": 120.571686
 },
 {
   "Title": "和平機車行",
   "Tel": "04-8322357",
   "Address": "彰化縣員林市和平里中山路2段21號",
   "Brand": "山葉",
   "Lat": 23.960057,
   "Lon": 120.570518
 },
 {
   "Title": "大益機車行",
   "Tel": "04-8333173",
   "Address": "彰化縣員林市三多里中山路2段558號",
   "Brand": "光陽",
   "Lat": 23.9729036,
   "Lon": 120.5717212
 },
 {
   "Title": "建新機車行",
   "Tel": "04-8224826",
   "Address": "彰化縣永靖鄉瑚璉村中山路2段125號",
   "Brand": "台鈴",
   "Lat": 23.921388,
   "Lon": 120.5497671
 },
 {
   "Title": "吉茂車業有限公司",
   "Tel": "04-8323991",
   "Address": "彰化縣員林市黎明里中正路67號",
   "Brand": "三陽",
   "Lat": 23.9509255,
   "Lon": 120.5756214
 },
 {
   "Title": "新勝輪機車行",
   "Tel": "04-8323602",
   "Address": "彰化縣埔心鄉太平村中山路60號",
   "Brand": "光陽",
   "Lat": 23.9387174,
   "Lon": 120.5591465
 },
 {
   "Title": "泰安機車行",
   "Tel": "04-7775291",
   "Address": "彰化縣鹿港鎮永安里民權路27號",
   "Brand": "三陽",
   "Lat": 24.0584981,
   "Lon": 120.4384485
 },
 {
   "Title": "泉興機車股份有限公司",
   "Tel": "04-7772363",
   "Address": "彰化縣鹿港鎮泰興里彰鹿路8段20號",
   "Brand": "三陽",
   "Lat": 24.049657,
   "Lon": 120.439082
 },
 {
   "Title": "連陞車業有限公司",
   "Tel": "04-7773429",
   "Address": "彰化縣鹿港鎮景福里民族路30號",
   "Brand": "光陽",
   "Lat": 24.056625,
   "Lon": 120.4370699
 },
 {
   "Title": "昌盛車業有限公司",
   "Tel": "04-8895286",
   "Address": "彰化縣溪州鄉瓦厝村溪林路40號",
   "Brand": "光陽",
   "Lat": 23.8536566,
   "Lon": 120.4901387
 },
 {
   "Title": "富勝輪業有限公司",
   "Tel": "04-8887711",
   "Address": "彰化縣北斗鎮西德里斗苑路1段318號",
   "Brand": "山葉",
   "Lat": 23.8722042,
   "Lon": 120.5204252
 },
 {
   "Title": "春興機車行",
   "Tel": "04-8884783",
   "Address": "彰化縣北斗鎮居仁里地政路328號",
   "Brand": "三陽",
   "Lat": 23.8744427,
   "Lon": 120.5269204
 },
 {
   "Title": "裕興機車行",
   "Tel": "04-8222168",
   "Address": "彰化縣永靖鄉同安村永福路1段578號",
   "Brand": "三陽",
   "Lat": 23.9247259,
   "Lon": 120.5304443
 },
 {
   "Title": "信源車業有限公司",
   "Tel": "04-8741658",
   "Address": "彰化縣田中鎮南路里員集路1段915號",
   "Brand": "三陽",
   "Lat": 23.8517799,
   "Lon": 120.5896323
 },
 {
   "Title": "隆盛機車行",
   "Tel": "04-8742093",
   "Address": "彰化縣田中鎮中潭里員集路3段225號",
   "Brand": "山葉",
   "Lat": 23.8702866,
   "Lon": 120.5871902
 },
 {
   "Title": "千暉機車行有限公司",
   "Tel": "04-7563769",
   "Address": "彰化縣和美鎮嘉寶里彰新路5段105號1樓",
   "Brand": "山葉",
   "Lat": 24.129202,
   "Lon": 120.512276
 },
 {
   "Title": "正一車業有限公司",
   "Tel": "04-7861038",
   "Address": "彰化縣花壇鄉花壇村中山路1段411號1樓",
   "Brand": "光陽",
   "Lat": 24.0245999,
   "Lon": 120.540229
 },
 {
   "Title": "越發車業有限公司",
   "Tel": "04-8235492",
   "Address": "彰化縣永靖鄉五汴村中山路3段350號",
   "Brand": "光陽",
   "Lat": 23.9356884,
   "Lon": 120.5563391
 },
 {
   "Title": "全友輪業有限公司",
   "Tel": "04-8399899",
   "Address": "彰化縣員林市和平里中山路2段85之10號",
   "Brand": "山葉",
   "Lat": 23.9619389,
   "Lon": 120.5706058
 },
 {
   "Title": "采和車業有限公司",
   "Tel": "04-8321017",
   "Address": "彰化縣員林市和平里中山路2段36號",
   "Brand": "光陽",
   "Lat": 23.9604382,
   "Lon": 120.570703
 },
 {
   "Title": "信倡機車行",
   "Tel": "04-8355967",
   "Address": "彰化縣員林市惠來里民生路199號",
   "Brand": "三陽",
   "Lat": 23.9560049,
   "Lon": 120.571174
 },
 {
   "Title": "宏順機車行",
   "Tel": "04-8356570",
   "Address": "彰化縣員林市三義里員鹿路75號",
   "Brand": "三陽",
   "Lat": 23.9562673,
   "Lon": 120.5675252
 },
 {
   "Title": "昌益機車行",
   "Tel": "04-8922098",
   "Address": "彰化縣埤頭鄉合興村彰水路3段439號",
   "Brand": "三陽",
   "Lat": 23.8905809,
   "Lon": 120.4587772
 },
 {
   "Title": "大昇車行",
   "Tel": "04-7773239",
   "Address": "彰化縣鹿港鎮順興里鹿草路一段1號",
   "Brand": "三陽",
   "Lat": 24.0600059,
   "Lon": 120.432338
 },
 {
   "Title": "聖豐車業商行",
   "Tel": "04-8895132",
   "Address": "彰化縣溪洲鄉瓦厝村中山路三段391號",
   "Brand": "三陽",
   "Lat": 23.8529037,
   "Lon": 120.4955867
 },
 {
   "Title": "機動力車業",
   "Tel": "04-8815110",
   "Address": "彰化縣溪湖鎮西環路493號1樓",
   "Brand": "光陽",
   "Lat": 23.9635992,
   "Lon": 120.4783127
 },
 {
   "Title": "東隆機車有限公司",
   "Tel": "04-8810261",
   "Address": "彰化縣溪湖鎮湖東里員鹿路2段526號",
   "Brand": "光陽",
   "Lat": 23.9573874,
   "Lon": 120.4836513
 },
 {
   "Title": "穩發車業行",
   "Tel": "04-8855973",
   "Address": "彰化縣溪湖鎮光平里彰水路3段456、458號1樓",
   "Brand": "三陽",
   "Lat": 23.963302,
   "Lon": 120.4801234
 },
 {
   "Title": "信利機車行",
   "Tel": "04-7253657",
   "Address": "彰化縣彰化市中山路1段582號",
   "Brand": "光陽",
   "Lat": 23.913001,
   "Lon": 120.543972
 },
 {
   "Title": "瑞挺車業行",
   "Tel": "04-7241930",
   "Address": "彰化縣彰化市永生里中山路2段401號",
   "Brand": "光陽",
   "Lat": 24.075651,
   "Lon": 120.543899
 },
 {
   "Title": "光展車業有限公司",
   "Tel": "04-7220900",
   "Address": "彰化縣彰化市永福里中山路2段531號",
   "Brand": "光陽",
   "Lat": 24.0790524,
   "Lon": 120.5448291
 },
 {
   "Title": "金馬機車行",
   "Tel": "04-7223724",
   "Address": "彰化縣彰化市永福里中山路2段549號1、2樓",
   "Brand": "三陽",
   "Lat": 24.0793,
   "Lon": 120.544935
 },
 {
   "Title": "萬能發機車行",
   "Tel": "04-7227571",
   "Address": "彰化縣彰化市富貴里中正路2段309號1、2樓",
   "Brand": "光陽",
   "Lat": 24.0752719,
   "Lon": 120.536991
 },
 {
   "Title": "英輪車業行",
   "Tel": "04-7224315",
   "Address": "彰化縣彰化市永生里成功路2號1、2樓",
   "Brand": "三陽",
   "Lat": 24.074831,
   "Lon": 120.5413765
 },
 {
   "Title": "宏進機車行",
   "Tel": "04-7632227",
   "Address": "彰化縣彰化市莿桐里彰水路50-1號",
   "Brand": "三陽",
   "Lat": 24.0620813,
   "Lon": 120.5191294
 },
 {
   "Title": "六順輪業行",
   "Tel": "04-7240758",
   "Address": "彰化縣彰化市忠權里辭修路128巷32號1樓",
   "Brand": "三陽",
   "Lat": 24.086194,
   "Lon": 120.5366698
 },
 {
   "Title": "全美機車行",
   "Tel": "04-7787774",
   "Address": "彰化縣福興鄉橋頭村彰鹿路7段467之1號1、2樓",
   "Brand": "光陽",
   "Lat": 24.047655,
   "Lon": 120.4453042
 },
 {
   "Title": "財(金原) 機車行",
   "Tel": "04-7137766",
   "Address": "彰化縣彰化市延平里大埔路482號",
   "Brand": "山葉",
   "Lat": 24.064145,
   "Lon": 120.543029
 },
 {
   "Title": "進昌機車行",
   "Tel": "04-7115269",
   "Address": "彰化縣彰化市延平里大埔路586號",
   "Brand": "三陽",
   "Lat": 24.066304,
   "Lon": 120.542804
 },
 {
   "Title": "順達機車零件行",
   "Tel": "04-7224817",
   "Address": "彰化縣彰化市和調里中山路3段21-1號",
   "Brand": "山葉",
   "Lat": 24.084667,
   "Lon": 120.553433
 },
 {
   "Title": "富晟龍機車行",
   "Tel": "04-7243898",
   "Address": "彰化縣彰化市福安里中山路2段265號",
   "Brand": "公會",
   "Lat": 24.0724419,
   "Lon": 120.5428727
 },
 {
   "Title": "三民機車行",
   "Tel": "04-7232749",
   "Address": "彰化縣彰化市文化里中民街39號",
   "Brand": "光陽",
   "Lat": 24.0850913,
   "Lon": 120.5472068
 },
 {
   "Title": "聯全機車行",
   "Tel": "04-7230770",
   "Address": "彰化縣彰化市中央里中華路226號",
   "Brand": "三陽",
   "Lat": 24.0780313,
   "Lon": 120.5384645
 },
 {
   "Title": "鑫輝車業行",
   "Tel": "04-7238070",
   "Address": "彰化縣彰化市民生里民生路406號",
   "Brand": "三陽",
   "Lat": 24.0849839,
   "Lon": 120.542244
 },
 {
   "Title": "和益機車行",
   "Tel": "04-7247630",
   "Address": "彰化縣彰化市民生里永安街195號",
   "Brand": "山葉",
   "Lat": 24.0876469,
   "Lon": 120.5445522
 },
 {
   "Title": "和記機車行",
   "Tel": "04-7260339",
   "Address": "彰化縣彰化市中正路2段559號1、2樓",
   "Brand": "光陽",
   "Lat": 24.069989,
   "Lon": 120.536004
 },
 {
   "Title": "新輪機車材料行",
   "Tel": "04-7265977",
   "Address": "彰化縣彰化市忠權里自強南路148號",
   "Brand": "三陽",
   "Lat": 24.0852583,
   "Lon": 120.5349107
 },
 {
   "Title": "國斌機車行",
   "Tel": "04-7237200",
   "Address": "彰化縣彰化市下廍里茄苳路1段17號",
   "Brand": "三陽",
   "Lat": 24.088835,
   "Lon": 120.544351
 },
 {
   "Title": "順立機車行",
   "Tel": "04-7271703",
   "Address": "彰化縣彰化市泰和路2段390號1樓",
   "Brand": "光陽",
   "Lat": 24.0953936,
   "Lon": 120.5558972
 },
 {
   "Title": "明洲機車店",
   "Tel": "04-7524766",
   "Address": "彰化縣彰化市莿桐里彰水路118號1、2樓",
   "Brand": "光陽",
   "Lat": 24.0602437,
   "Lon": 120.517938
 },
 {
   "Title": "勝興機車行",
   "Tel": "04-7322888",
   "Address": "彰化縣彰化市福山里彰南路1段283、285號",
   "Brand": "三陽",
   "Lat": 24.0863119,
   "Lon": 120.5726731
 },
 {
   "Title": "旭發機車行",
   "Tel": "04-7384997",
   "Address": "彰化縣彰化市大竹里彰南路2段108號",
   "Brand": "三陽",
   "Lat": 24.0850459,
   "Lon": 120.579361
 },
 {
   "Title": "三永機車行",
   "Tel": "04-7385906",
   "Address": "彰化縣彰化市大竹里彰南路2段2號1樓",
   "Brand": "光陽",
   "Lat": 24.0853902,
   "Lon": 120.5768806
 },
 {
   "Title": "幃祥有限公司",
   "Tel": "04-7242209",
   "Address": "彰化縣彰化市忠孝里辭修路66號1樓",
   "Brand": "光陽",
   "Lat": 24.0877803,
   "Lon": 120.5385663
 },
 {
   "Title": "承益機車行",
   "Tel": "04-8961376",
   "Address": "彰化縣二林鎮東和里大成路1段154號",
   "Brand": "山葉",
   "Lat": 23.8986804,
   "Lon": 120.3719749
 },
 {
   "Title": "宏興機車行",
   "Tel": "04-8961546",
   "Address": "彰化縣二林鎮北平里二溪路1段93號",
   "Brand": "三陽",
   "Lat": 23.9017467,
   "Lon": 120.3712068
 },
 {
   "Title": "上揚機車行",
   "Tel": "04-8525584",
   "Address": "彰化縣大村鄉加錫村加錫一巷7號",
   "Brand": "光陽",
   "Lat": 23.9846744,
   "Lon": 120.5260935
 },
 {
   "Title": "進達車業有限公司",
   "Tel": "04-8239110",
   "Address": "彰化縣永靖鄉永西村瑚璉路365號1樓",
   "Brand": "光陽",
   "Lat": 23.9234888,
   "Lon": 120.5452658
 },
 {
   "Title": "新健興機車行",
   "Tel": "04-8235172",
   "Address": "彰化縣永靖鄉永北村瑚璉路455號",
   "Brand": "山葉",
   "Lat": 23.9226814,
   "Lon": 120.5433809
 },
 {
   "Title": "金興機車行",
   "Tel": "04-8224246",
   "Address": "彰化縣永靖鄉東寧村永興路2段169號",
   "Brand": "光陽",
   "Lat": 23.923833,
   "Lon": 120.561682
 },
 {
   "Title": "清敏機車行",
   "Tel": "04-8743183",
   "Address": "彰化縣田中鎮沙崙里中州路2段447號",
   "Brand": "光陽",
   "Lat": 23.8521663,
   "Lon": 120.5735114
 },
 {
   "Title": "佑祥機車行",
   "Tel": "04-8741200",
   "Address": "彰化縣田中鎮北路里復興路583號",
   "Brand": "光陽",
   "Lat": 23.8619882,
   "Lon": 120.5917317
 },
 {
   "Title": "聿泰機車行",
   "Tel": "04-8750322",
   "Address": "彰化縣田中鎮北路里復興路615號",
   "Brand": "台鈴",
   "Lat": 23.8618443,
   "Lon": 120.5911202
 },
 {
   "Title": "建成機車行",
   "Tel": "04-8743730",
   "Address": "彰化縣田中鎮碧峰里中南路2段571號",
   "Brand": "三陽",
   "Lat": 23.8529077,
   "Lon": 120.6023611
 },
 {
   "Title": "億興機車行",
   "Tel": "04-7681717",
   "Address": "彰化縣秀水鄉安東村中山路270號",
   "Brand": "光陽",
   "Lat": 24.035427,
   "Lon": 120.503839
 },
 {
   "Title": "廣福機車行",
   "Tel": "04-8833054",
   "Address": "彰化縣田尾鄉饒平村中山路1段368號",
   "Brand": "摩特",
   "Lat": 23.889701,
   "Lon": 120.526924
 },
 {
   "Title": "名峯機車行",
   "Tel": "04-8247568",
   "Address": "彰化縣田尾鄉溪畔村中山路2段430號",
   "Brand": "山葉",
   "Lat": 23.90213,
   "Lon": 120.5378479
 },
 {
   "Title": "伸益機車有限公司",
   "Tel": "04-7998662",
   "Address": "彰化縣伸港鄉新港村中山東路118號",
   "Brand": "三陽",
   "Lat": 24.1474139,
   "Lon": 120.4879881
 },
 {
   "Title": "海隆工業社",
   "Tel": "04-7692127",
   "Address": "彰化縣秀水鄉埔崙村彰水路2段381號",
   "Brand": "光陽",
   "Lat": 24.0271969,
   "Lon": 120.493578
 },
 {
   "Title": "政記車業股份有限公司",
   "Tel": "04-7693047",
   "Address": "彰化縣秀水鄉福安村彰水路2段635號",
   "Brand": "山葉",
   "Lat": 24.0315993,
   "Lon": 120.4973482
 },
 {
   "Title": "勝順機車行",
   "Tel": "04-7692507",
   "Address": "彰化縣秀水鄉鶴鳴村彰鹿路406號",
   "Brand": "三陽",
   "Lat": 24.0499042,
   "Lon": 120.4931847
 },
 {
   "Title": "和興機車行",
   "Tel": "04-7552788",
   "Address": "彰化縣和美鎮竹營里美寮路2段495號",
   "Brand": "山葉",
   "Lat": 24.1131419,
   "Lon": 120.503566
 },
 {
   "Title": "偉煌機車實業有限公司",
   "Tel": "04-7556056",
   "Address": "彰化縣和美鎮愛群路13號",
   "Brand": "三陽",
   "Lat": 24.1111237,
   "Lon": 120.4985513
 },
 {
   "Title": "紘尚車業有限公司",
   "Tel": "04-7553176",
   "Address": "彰化縣和美鎮和北里彰美路6段66號",
   "Brand": "三陽",
   "Lat": 24.113654,
   "Lon": 120.49741
 },
 {
   "Title": "裕木機車行",
   "Tel": "04-7526391",
   "Address": "彰化縣和美鎮鎮平里彰草路2段674號",
   "Brand": "三陽",
   "Lat": 24.08167,
   "Lon": 120.499733
 },
 {
   "Title": "富村機車行",
   "Tel": "04-7355185",
   "Address": "彰化縣和美鎮犁盛里彰新路2段313號1、2樓",
   "Brand": "光陽",
   "Lat": 24.1000674,
   "Lon": 120.5347095
 },
 {
   "Title": "昇佳機車行",
   "Tel": "04-8738551",
   "Address": "彰化縣社頭鄉舊社村忠義路764號",
   "Brand": "三陽",
   "Lat": 23.8994689,
   "Lon": 120.5923215
 },
 {
   "Title": "興龍機車行",
   "Tel": "04-8731662",
   "Address": "彰化縣社頭鄉仁雅村員集路1段889號",
   "Brand": "山葉",
   "Lat": 23.893747,
   "Lon": 120.5880259
 },
 {
   "Title": "正大機車行",
   "Tel": "04-8982242",
   "Address": "彰化縣芳苑鄉福榮村上林路路上段494號",
   "Brand": "光陽",
   "Lat": 23.8924381,
   "Lon": 120.3332038
 },
 {
   "Title": "新發順機車行",
   "Tel": "04-8932283",
   "Address": "彰化縣芳苑鄉王功村芳漢路王功段506號",
   "Brand": "三陽",
   "Lat": 23.964798,
   "Lon": 120.340459
 },
 {
   "Title": "如來發機車行",
   "Tel": "04-8932365",
   "Address": "彰化縣芳苑鄉王功村芳漢路王功段548號",
   "Brand": "三陽",
   "Lat": 23.965657,
   "Lon": 120.341066
 },
 {
   "Title": "新永順機車行",
   "Tel": "04-8862368",
   "Address": "彰化縣芳苑鄉建平村二溪路草2段612號",
   "Brand": "三陽",
   "Lat": 23.9581402,
   "Lon": 120.3864427
 },
 {
   "Title": "欣欣機車行",
   "Tel": "04-7868787",
   "Address": "彰化縣花壇鄉中庄村中山路1段69-1號",
   "Brand": "光陽",
   "Lat": 24.0110032,
   "Lon": 120.55202
 },
 {
   "Title": "金旺機車行",
   "Tel": "04-7868231",
   "Address": "彰化縣花壇鄉永春村彰員路1段251號",
   "Brand": "三陽",
   "Lat": 24.0119121,
   "Lon": 120.5743469
 },
 {
   "Title": "松輪機車行",
   "Tel": "04-7864178",
   "Address": "彰化縣花壇鄉金墩村中山路1段199-2號",
   "Brand": "三陽",
   "Lat": 24.0161085,
   "Lon": 120.5499639
 },
 {
   "Title": "信一機車行",
   "Tel": "04-7862999",
   "Address": "彰化縣花壇鄉花壇村中山路1段395號",
   "Brand": "山葉",
   "Lat": 24.0243659,
   "Lon": 120.54049
 },
 {
   "Title": "台裕機車行",
   "Tel": "04-7863622",
   "Address": "彰化縣花壇鄉花壇村中山路1段406號",
   "Brand": "三陽",
   "Lat": 24.0248217,
   "Lon": 120.5406626
 },
 {
   "Title": "東信輪車行",
   "Tel": "04-7865043",
   "Address": "彰化縣花壇鄉灣雅村彰員路1段770、772號",
   "Brand": "三陽",
   "Lat": 24.0161349,
   "Lon": 120.5637288
 },
 {
   "Title": "慶瓏機車行",
   "Tel": "04-9522031",
   "Address": "彰化縣芬園鄉竹林村彰南路4段311號",
   "Brand": "光陽",
   "Lat": 24.0177038,
   "Lon": 120.6277425
 },
 {
   "Title": "湧裕機車行",
   "Tel": "049-2524207",
   "Address": "彰化縣芬園鄉芬園村芬草路2段153號1樓",
   "Brand": "光陽",
   "Lat": 24.0136754,
   "Lon": 120.6323384
 },
 {
   "Title": "瑞和機車行",
   "Tel": "04-8536666",
   "Address": "彰化縣大村鄉黃厝村山腳路42-8號",
   "Brand": "光陽",
   "Lat": 23.984009,
   "Lon": 120.5894283
 },
 {
   "Title": "芳裕機車行",
   "Tel": "04-8340396",
   "Address": "彰化縣員林市仁美里育英路155號1樓",
   "Brand": "光陽",
   "Lat": 23.9634433,
   "Lon": 120.5741062
 },
 {
   "Title": "永豪機車行",
   "Tel": "04-8362182",
   "Address": "彰化縣員林市振興里員水路一段193號",
   "Brand": "三陽",
   "Lat": 23.9497604,
   "Lon": 120.6002887
 },
 {
   "Title": "廣達機車行",
   "Tel": "04-8313699",
   "Address": "彰化縣員林市浮圳里員東路1段536號1樓",
   "Brand": "三陽",
   "Lat": 23.961961,
   "Lon": 120.588034
 },
 {
   "Title": "進成機車行",
   "Tel": "04-8313271",
   "Address": "彰化縣員林市崙雅里崙雅巷1之6號",
   "Brand": "光陽",
   "Lat": 23.9440501,
   "Lon": 120.6001567
 },
 {
   "Title": "日豐車業行",
   "Tel": "04-8327029",
   "Address": "彰化縣員林市新生里新生路256號",
   "Brand": "山葉",
   "Lat": 23.961649,
   "Lon": 120.568874
 },
 {
   "Title": "佑盛機車行",
   "Tel": "04-8295207",
   "Address": "彰化縣埔心鄉東門村中正路1段265號",
   "Brand": "山葉",
   "Lat": 23.9513237,
   "Lon": 120.5451894
 },
 {
   "Title": "益來機車行",
   "Tel": "04-8922381",
   "Address": "彰化縣埤頭鄉合興村彰水路3段345號1樓",
   "Brand": "山葉",
   "Lat": 23.8882214,
   "Lon": 120.4587645
 },
 {
   "Title": "昇馬車業有限公司",
   "Tel": "04-8922308",
   "Address": "彰化縣埤頭鄉斗苑東路1012號",
   "Brand": "山葉",
   "Lat": 23.8908813,
   "Lon": 120.4658604
 },
 {
   "Title": "正新機車行",
   "Tel": "04-7716746",
   "Address": "彰化縣鹿港鎮溝墘里鹿和路3段613號",
   "Brand": "山葉",
   "Lat": 24.085348,
   "Lon": 120.4799187
 },
 {
   "Title": "宏發機車行",
   "Tel": "04-7763092",
   "Address": "彰化縣鹿港鎮頂厝里鹿和路1段299號",
   "Brand": "山葉",
   "Lat": 24.0623009,
   "Lon": 120.443806
 },
 {
   "Title": "力駿車業行",
   "Tel": "04-7774178",
   "Address": "彰化縣鹿港鎮菜園里菜園路4號1、2樓",
   "Brand": "光陽",
   "Lat": 24.0510723,
   "Lon": 120.432092
 },
 {
   "Title": "友宏輪業有限公司鹿和分公司",
   "Tel": "04-7765280",
   "Address": "彰化縣鹿港鎮頂厝里鹿和路1段363號",
   "Brand": "台鈴",
   "Lat": 24.0635209,
   "Lon": 120.4456709
 },
 {
   "Title": "東光機車行",
   "Tel": "04-7773879",
   "Address": "彰化縣鹿港鎮東崎里彰鹿路5段6、8號1樓",
   "Brand": "山葉",
   "Lat": 24.0491054,
   "Lon": 120.4792071
 },
 {
   "Title": "明利機車行",
   "Tel": "04-8896165",
   "Address": "彰化縣溪州鄉東州村登山路4段333號1樓",
   "Brand": "三陽",
   "Lat": 23.8520065,
   "Lon": 120.5044466
 },
 {
   "Title": "權生機車行",
   "Tel": "04-8895163",
   "Address": "彰化縣溪洲鄉瓦厝村莒光路52號",
   "Brand": "台鈴",
   "Lat": 23.8541703,
   "Lon": 120.4919727
 },
 {
   "Title": "尚國機車行",
   "Tel": "04-7789384",
   "Address": "彰化縣福興鄉福南村沿海路4段795號",
   "Brand": "山葉",
   "Lat": 24.043093,
   "Lon": 120.426404
 },
 {
   "Title": "益昇機車行",
   "Tel": "04-7750880",
   "Address": "彰化縣福興鄉福南村沿海路4段758號",
   "Brand": "三陽",
   "Lat": 24.0426195,
   "Lon": 120.4263368
 },
 {
   "Title": "連瑩機車商行",
   "Tel": "04-7787018",
   "Address": "彰化縣福興鄉福興村沿海路5段186號",
   "Brand": "光陽",
   "Lat": 24.0470356,
   "Lon": 120.429321
 },
 {
   "Title": "長榮發機車行",
   "Tel": "04-7783691",
   "Address": "彰化縣福興鄉福興村沿海路5段85號",
   "Brand": "光陽",
   "Lat": 24.045484,
   "Lon": 120.427946
 },
 {
   "Title": "盛昌機車行",
   "Tel": "04-7226509",
   "Address": "彰化縣彰化市長樂里中正路2段94號1、2樓",
   "Brand": "山葉",
   "Lat": 24.0798425,
   "Lon": 120.5375707
 },
 {
   "Title": "昆益機車材料行",
   "Tel": "04-7113272",
   "Address": "彰化縣彰化市成功里大埔路721號",
   "Brand": "光陽",
   "Lat": 24.0691889,
   "Lon": 120.542436
 },
 {
   "Title": "聯友車業行",
   "Tel": "04-8743339",
   "Address": "彰化縣田中鎮南路里員集路2段76、78號1樓",
   "Brand": "山葉",
   "Lat": 23.8532811,
   "Lon": 120.5889103
 },
 {
   "Title": "順圓利機車行",
   "Tel": "04-7981390",
   "Address": "彰化縣伸港鄉大同村5鄰中興路2段298號",
   "Brand": "光陽",
   "Lat": 24.1607509,
   "Lon": 120.4870218
 },
 {
   "Title": "寶翔機車行",
   "Tel": "04-7573323",
   "Address": "彰化縣和美鎮和北里德美路605號",
   "Brand": "光陽",
   "Lat": 24.1180796,
   "Lon": 120.4970381
 },
 {
   "Title": "彰琦企業股份有限公司",
   "Tel": "04-7770077",
   "Address": "彰化縣鹿港鎮永安里復興路252號",
   "Brand": "山葉",
   "Lat": 24.0556398,
   "Lon": 120.4380535
 },
 {
   "Title": "而立機車行",
   "Tel": "04-7982086",
   "Address": "彰化縣伸港鄉新港村中興路1段279號",
   "Brand": "其他",
   "Lat": 24.145587,
   "Lon": 120.4890676
 },
 {
   "Title": "玥神機車行",
   "Tel": "04-7223469",
   "Address": "彰化縣彰化市華陽里南郭路1段208號1樓",
   "Brand": "山葉",
   "Lat": 24.0739361,
   "Lon": 120.5482177
 },
 {
   "Title": "茂進機車行",
   "Tel": "04-7351468",
   "Address": "彰化縣彰化市建國北路99號",
   "Brand": "山葉",
   "Lat": 24.0941622,
   "Lon": 120.5496839
 },
 {
   "Title": "茂盛機車行",
   "Tel": "04-8880496",
   "Address": "彰化縣溪洲鄉尾厝村中山路4段621號",
   "Brand": "光陽",
   "Lat": 23.8691521,
   "Lon": 120.5131188
 },
 {
   "Title": "廣益機車行",
   "Tel": "04-8224240",
   "Address": "彰化縣永靖鄉永東村5鄰東門路120號",
   "Brand": "三陽",
   "Lat": 23.9224207,
   "Lon": 120.5492218
 },
 {
   "Title": "進程車業有限公司",
   "Tel": "04-7702273",
   "Address": "彰化縣福興鄉廈粘村沿海路3段173、175號",
   "Brand": "光陽",
   "Lat": 24.0289258,
   "Lon": 120.4130672
 },
 {
   "Title": "協誠機車行",
   "Tel": "04-8850166",
   "Address": "彰化縣埔鹽鄉崑崙村彰水路1段141號",
   "Brand": "三陽",
   "Lat": 23.989558,
   "Lon": 120.478247
 },
 {
   "Title": "和洋機車行",
   "Tel": "04-7584347",
   "Address": "彰化縣線西鄉和線路297號",
   "Brand": "光陽",
   "Lat": 24.1219839,
   "Lon": 120.4793002
 },
 {
   "Title": "志信機車行",
   "Tel": "04-8681439",
   "Address": "彰化縣二林鎮太平路4段45之8號",
   "Brand": "三陽",
   "Lat": 23.9404338,
   "Lon": 120.437294
 },
 {
   "Title": "益新機車行",
   "Tel": "04-8857667",
   "Address": "彰化縣溪湖鎮大突里二溪路大突巷53之5號",
   "Brand": "三陽",
   "Lat": 23.9679651,
   "Lon": 120.4660172
 },
 {
   "Title": "大勝機車行",
   "Tel": "04-8802656",
   "Address": "彰化縣溪州鄉成功村登山路2段230號",
   "Brand": "三陽",
   "Lat": 23.8243845,
   "Lon": 120.5460805
 },
 {
   "Title": "瑞展機車行",
   "Tel": "04-7865341",
   "Address": "彰化縣花壇鄉北口村中山路2段632號",
   "Brand": "光陽",
   "Lat": 24.0444389,
   "Lon": 120.5339253
 },
 {
   "Title": "瑩昌機車行",
   "Tel": "04-8732880",
   "Address": "彰化縣社頭鄉湳底村員集路3段513號",
   "Brand": "三陽",
   "Lat": 23.9174751,
   "Lon": 120.5815508
 },
 {
   "Title": "吉聯機車行",
   "Tel": "04-8312317",
   "Address": "彰化縣員林市西東里浮圳路1段416號",
   "Brand": "光陽",
   "Lat": 23.968247,
   "Lon": 120.589299
 },
 {
   "Title": "光順機車行",
   "Tel": "04-8221278",
   "Address": "彰化縣永靖鄉永北村永福路1段28號",
   "Brand": "台鈴",
   "Lat": 23.9207449,
   "Lon": 120.5412705
 },
 {
   "Title": "萬全機車行",
   "Tel": "04-8292128",
   "Address": "彰化縣埔心鄉舊館村員鹿路4段65號",
   "Brand": "三陽",
   "Lat": 23.9488032,
   "Lon": 120.5288546
 },
 {
   "Title": "新金馬機車行",
   "Tel": "04-7220883",
   "Address": "彰化市光復里長興街91號",
   "Brand": "光陽",
   "Lat": 24.0824249,
   "Lon": 120.544476
 },
 {
   "Title": "順吉機車行",
   "Tel": "04-8793320",
   "Address": "彰化縣二水鄉光化村員集路4段70號1、2樓",
   "Brand": "山葉",
   "Lat": 23.8127594,
   "Lon": 120.6154822
 },
 {
   "Title": "興宏機車行",
   "Tel": "04-8941536",
   "Address": "彰化縣大城鄉西城村南平路410號",
   "Brand": "三陽",
   "Lat": 23.8534146,
   "Lon": 120.3195552
 },
 {
   "Title": "大城合發機車行",
   "Tel": "04-8941235",
   "Address": "彰化縣大城鄉大城村西平路95號",
   "Brand": "山葉",
   "Lat": 23.8569474,
   "Lon": 120.3205319
 },
 {
   "Title": "金大新車業有限公司",
   "Tel": "04-8829781",
   "Address": "彰化縣溪湖鎮福安路180號",
   "Brand": "山葉",
   "Lat": 23.9612488,
   "Lon": 120.4759842
 },
 {
   "Title": "昌易機車行",
   "Tel": "04-8520246",
   "Address": "彰化縣大村鄉中正西路173號",
   "Brand": "光陽",
   "Lat": 23.9887266,
   "Lon": 120.5569673
 },
 {
   "Title": "佳晟機車行",
   "Tel": "04-8857678",
   "Address": "彰化縣溪湖鎮中山里大溪路一段535號",
   "Brand": "三陽",
   "Lat": 23.96815,
   "Lon": 120.494479
 },
 {
   "Title": "冠宏機車行",
   "Tel": "04-8525976",
   "Address": "彰化縣大村鄉大村村大仁路1段6號",
   "Brand": "三陽",
   "Lat": 23.992649,
   "Lon": 120.5476381
 },
 {
   "Title": "進暉機車行",
   "Tel": "04-7711452",
   "Address": "彰化縣鹿港鎮草中里慶安街95號",
   "Brand": "光陽",
   "Lat": 24.1081189,
   "Lon": 120.45806
 },
 {
   "Title": "隆翔車業行",
   "Tel": "04-8954897",
   "Address": "彰化縣二林鎮北平里仁愛路385號",
   "Brand": "山葉",
   "Lat": 23.9035279,
   "Lon": 120.3713668
 },
 {
   "Title": "伸隆機車行",
   "Tel": "04-7237918",
   "Address": "彰化縣彰化市忠孝里辭修路81號",
   "Brand": "三陽",
   "Lat": 24.0873666,
   "Lon": 120.5386843
 },
 {
   "Title": "祥富機車行",
   "Tel": "049-2520526",
   "Address": "彰化縣芬園鄉芬草路一段330號",
   "Brand": "其他",
   "Lat": 24.0122097,
   "Lon": 120.6442021
 }
]