[
 {
   "Title": "成邑有限公司",
   "Tel": "05-3700626",
   "Address": "嘉義縣朴子市北通路67號",
   "Brand": "三陽",
   "Lat": 23.4689253,
   "Lon": 120.2453667
 },
 {
   "Title": "勝岡車業有限公司",
   "Tel": "05-3792503",
   "Address": "嘉義縣朴子市山通路99號",
   "Brand": "山葉",
   "Lat": 23.4644016,
   "Lon": 120.2431698
 },
 {
   "Title": "瑞億機車行",
   "Tel": "05-3792736",
   "Address": "嘉義縣朴子市開元路266號",
   "Brand": "三陽",
   "Lat": 23.4657453,
   "Lon": 120.2427292
 },
 {
   "Title": "嘉明車業有限公司",
   "Tel": "05-3752329",
   "Address": "嘉義縣鹿草鄉西井村鹿草548號",
   "Brand": "三陽",
   "Lat": 23.4098466,
   "Lon": 120.3089697
 },
 {
   "Title": "永光機車行",
   "Tel": "05-3742273",
   "Address": "嘉義縣新港鄉宮前村文昌街11號",
   "Brand": "光陽",
   "Lat": 23.5541467,
   "Lon": 120.3492968
 },
 {
   "Title": "增堅車業有限公司",
   "Tel": "05-3412567",
   "Address": "嘉義縣義竹鄉六桂村2鄰義竹154-12號",
   "Brand": "山葉",
   "Lat": 23.3375331,
   "Lon": 120.2428755
 },
 {
   "Title": "原和機車行",
   "Tel": "05-2651453",
   "Address": "嘉義縣大林鎮甘蔗崙38號",
   "Brand": "三陽",
   "Lat": 23.6079847,
   "Lon": 120.4468055
 },
 {
   "Title": "隆乙機車行",
   "Tel": "05-3803222",
   "Address": "嘉義縣六腳鄉蒜東村蒜頭294-6號",
   "Brand": "光陽",
   "Lat": 23.4901692,
   "Lon": 120.29269
 },
 {
   "Title": "昶旭車業有限公司",
   "Tel": "05-3711321",
   "Address": "嘉義縣太保市後潭439之10號",
   "Brand": "山葉",
   "Lat": 23.4528017,
   "Lon": 120.3400685
 },
 {
   "Title": "昇興機車行",
   "Tel": "05-2684688",
   "Address": "嘉義縣水上鄉柳林村柳子林49-10號",
   "Brand": "光陽",
   "Lat": 23.4318055,
   "Lon": 120.416147
 },
 {
   "Title": "阿財車業行",
   "Tel": "05-2391215",
   "Address": "嘉義縣中埔鄉和睦村中山路五段723號",
   "Brand": "山葉",
   "Lat": 23.4513686,
   "Lon": 120.4639282
 },
 {
   "Title": "新興車業有限公司",
   "Tel": "05-2534092",
   "Address": "嘉義縣中埔鄉隆興村十字路118號",
   "Brand": "光陽",
   "Lat": 23.4418083,
   "Lon": 120.5262361
 },
 {
   "Title": "鴻興車業行",
   "Tel": "05-2396169",
   "Address": "嘉義縣中埔鄉和興村中山路五段957號",
   "Brand": "台鈴",
   "Lat": 23.453666,
   "Lon": 120.459741
 },
 {
   "Title": "秦晟企業有限公司",
   "Tel": "05-2653045",
   "Address": "嘉義縣大林鎮平林里中興路258號1樓",
   "Brand": "山葉",
   "Lat": 23.6027167,
   "Lon": 120.4611652
 },
 {
   "Title": "泰峰車業有限公司",
   "Tel": "05-2652408",
   "Address": "嘉義縣大林鎮西林里中正路428號",
   "Brand": "三陽",
   "Lat": 23.6014901,
   "Lon": 120.4529535
 },
 {
   "Title": "高奇機車行",
   "Tel": "05-2305289",
   "Address": "嘉義縣中埔鄉和興村14鄰中華路837號",
   "Brand": "三陽",
   "Lat": 23.449546,
   "Lon": 120.4592228
 },
 {
   "Title": "國利機車行",
   "Tel": "05-2531404",
   "Address": "嘉義縣中埔鄉同仁村同仁161-2號",
   "Brand": "三陽",
   "Lat": 23.407006,
   "Lon": 120.51338
 },
 {
   "Title": "正大機車行",
   "Tel": "05-2390120",
   "Address": "嘉義縣中埔鄉和睦村中山路5段403號",
   "Brand": "三陽",
   "Lat": 23.4514922,
   "Lon": 120.4719624
 },
 {
   "Title": "協發車業行",
   "Tel": "05-3802218",
   "Address": "嘉義縣六腳鄉蒜頭村113-5號",
   "Brand": "山葉",
   "Lat": 23.4964097,
   "Lon": 120.2930943
 },
 {
   "Title": "新偉車業股份有限公司",
   "Tel": "05-3712898",
   "Address": "嘉義縣太保市銘泰新村1號",
   "Brand": "三陽",
   "Lat": 23.4511551,
   "Lon": 120.3481269
 },
 {
   "Title": "富發車行",
   "Tel": "05-2373207",
   "Address": "嘉義縣太保市中山路二段151號",
   "Brand": "三陽",
   "Lat": 23.499421,
   "Lon": 120.3708442
 },
 {
   "Title": "明賜機車行",
   "Tel": "05-2364176",
   "Address": "嘉義縣水上鄉民生村忠孝街75號",
   "Brand": "山葉",
   "Lat": 23.4465552,
   "Lon": 120.4344651
 },
 {
   "Title": "車又車機車行",
   "Tel": "05-2689432",
   "Address": "嘉義縣水上鄉水頭村11鄰中正路280號1樓",
   "Brand": "山葉",
   "Lat": 23.4278867,
   "Lon": 120.3993711
 },
 {
   "Title": "正發機車行",
   "Tel": "05-2682856",
   "Address": "嘉義縣水上鄉龍德村三鎮路131號",
   "Brand": "光陽",
   "Lat": 23.4196254,
   "Lon": 120.3894738
 },
 {
   "Title": "新順榮機車行",
   "Tel": "05-3472623",
   "Address": "嘉義縣布袋鎮東港里埔仔厝27號",
   "Brand": "光陽",
   "Lat": 23.37206,
   "Lon": 120.190771
 },
 {
   "Title": "聯騰車業行",
   "Tel": "05-2218255",
   "Address": "嘉義縣民雄鄉北斗村北勢子1之19號",
   "Brand": "光陽",
   "Lat": 23.5344171,
   "Lon": 120.4585821
 },
 {
   "Title": "東新車業有限公司",
   "Tel": "05-2262575",
   "Address": "嘉義縣民雄鄉建國路二段340號",
   "Brand": "三陽",
   "Lat": 23.5507459,
   "Lon": 120.4340107
 },
 {
   "Title": "金達車業有限公司",
   "Tel": "05-2216873",
   "Address": "嘉義縣民雄鄉建國路三段57-13號",
   "Brand": "摩特",
   "Lat": 23.520098,
   "Lon": 120.44014
 },
 {
   "Title": "明新車業",
   "Tel": "05-2207966",
   "Address": "嘉義縣民雄鄉北斗村11鄰北勢子73-47號",
   "Brand": "三陽",
   "Lat": 23.531502,
   "Lon": 120.4527989
 },
 {
   "Title": "吉豐機車行",
   "Tel": "05-2213607",
   "Address": "嘉義縣民雄鄉福樂村埤角336號",
   "Brand": "三陽",
   "Lat": 23.5250807,
   "Lon": 120.4400517
 },
 {
   "Title": "宗泰機車行",
   "Tel": "05-3793262",
   "Address": "嘉義縣朴子市向榮路46號",
   "Brand": "三陽",
   "Lat": 23.4680606,
   "Lon": 120.2431294
 },
 {
   "Title": "崑發機車行",
   "Tel": "05-3797777",
   "Address": "嘉義縣朴子市南通路三段575號",
   "Brand": "光陽",
   "Lat": 23.4594751,
   "Lon": 120.2427008
 },
 {
   "Title": "億泰行",
   "Tel": "05-3793370",
   "Address": "嘉義縣朴子市海通路43-4號",
   "Brand": "光陽",
   "Lat": 23.4637347,
   "Lon": 120.2409
 },
 {
   "Title": "順達機車行",
   "Tel": "05-2612449",
   "Address": "嘉義縣竹崎鄉和平村坑仔坪159號",
   "Brand": "光陽",
   "Lat": 23.5162409,
   "Lon": 120.5483309
 },
 {
   "Title": "勝豐機車行",
   "Tel": "05-2621324",
   "Address": "嘉義縣梅山鄉中山路369號",
   "Brand": "山葉",
   "Lat": 23.5851631,
   "Lon": 120.5548713
 },
 {
   "Title": "昇振車業有限公司",
   "Tel": "05-3742320",
   "Address": "嘉義縣新港鄉宮後村新民路121號",
   "Brand": "山葉",
   "Lat": 23.5563869,
   "Lon": 120.3494656
 },
 {
   "Title": "輝龍車業有限公司",
   "Tel": "05-3412625",
   "Address": "嘉義縣義竹鄉六桂村170-2號",
   "Brand": "三陽",
   "Lat": 23.3324379,
   "Lon": 120.2440609
 },
 {
   "Title": "一安機車行",
   "Tel": "05-3781357",
   "Address": "嘉義縣六腳鄉六腳村六腳26號",
   "Brand": "三陽",
   "Lat": 23.5053093,
   "Lon": 120.2531822
 },
 {
   "Title": "德林機車行",
   "Tel": "05-2261052",
   "Address": "嘉義縣民雄鄉西安村22鄰西安路139號",
   "Brand": "光陽",
   "Lat": 23.5577301,
   "Lon": 120.4205973
 },
 {
   "Title": "嘉大機車行",
   "Tel": "05-2262252",
   "Address": "嘉義縣民雄鄉西安村西安路35之3號",
   "Brand": "台鈴",
   "Lat": 23.5568358,
   "Lon": 120.4264139
 },
 {
   "Title": "金興機車行",
   "Tel": "05-2611088",
   "Address": "嘉義縣竹崎鄉竹崎村中山路237號",
   "Brand": "台鈴",
   "Lat": 23.5187675,
   "Lon": 120.549366
 },
 {
   "Title": "統一機車行",
   "Tel": "05-2790618",
   "Address": "嘉義縣竹崎鄉灣橋村灣橋340巷4號",
   "Brand": "山葉",
   "Lat": 23.4922219,
   "Lon": 120.5029424
 },
 {
   "Title": "吉冠機車行",
   "Tel": "05-3733066",
   "Address": "嘉義縣縣東石鄉東石村11鄰東石5號",
   "Brand": "三陽",
   "Lat": 23.458434,
   "Lon": 120.152876
 },
 {
   "Title": "展信機車行",
   "Tel": "05-3733062",
   "Address": "嘉義縣縣東石鄉猿樹村145號",
   "Brand": "山葉",
   "Lat": 23.4641647,
   "Lon": 120.1546002
 },
 {
   "Title": "永安機車行",
   "Tel": "05-3742736",
   "Address": "嘉義縣縣新港鄉中正路433號",
   "Brand": "三陽",
   "Lat": 23.5673355,
   "Lon": 120.3491756
 },
 {
   "Title": "萬安機車行",
   "Tel": "05-3772068",
   "Address": "嘉義縣縣新港鄉月眉村月眉潭49號",
   "Brand": "三陽",
   "Lat": 23.5211798,
   "Lon": 120.3524152
 },
 {
   "Title": "明欣機車行",
   "Tel": "05-2692535",
   "Address": "嘉義縣溪口鄉溪東村22鄰和平街92號",
   "Brand": "三陽",
   "Lat": 23.6059728,
   "Lon": 120.3979755
 },
 {
   "Title": "永新機車行",
   "Tel": "05-2351465",
   "Address": "嘉義縣水上鄉寬士村崎子頭172號",
   "Brand": "三陽",
   "Lat": 23.4518805,
   "Lon": 120.4207228
 },
 {
   "Title": "怡沁車業行",
   "Tel": "05-2061010",
   "Address": "嘉義縣民雄鄉文隆村建國路二段93號",
   "Brand": "怡沁科技股份有限公司",
   "Lat": 23.5342264,
   "Lon": 120.436439
 },
 {
   "Title": "中成車業行",
   "Tel": "05-3701587",
   "Address": "嘉義縣朴子市南通路三段785號",
   "Brand": "三陽",
   "Lat": 23.4639005,
   "Lon": 120.2428358
 },
 {
   "Title": "加興機車行",
   "Tel": "05-2262947",
   "Address": "嘉義縣民雄鄉頂崙村崙仔頂104-21號1F",
   "Brand": "三陽",
   "Lat": 23.5667643,
   "Lon": 120.4400839
 },
 {
   "Title": "弘祥車業行",
   "Tel": "05-3625511",
   "Address": "嘉義縣太保市安仁里祥和三路東段37號",
   "Brand": "山葉",
   "Lat": 23.4547369,
   "Lon": 120.2937421
 },
 {
   "Title": "銓盛車業行",
   "Tel": "05-3628368",
   "Address": "嘉義縣太保市安仁里10鄰祥和一路東段102號",
   "Brand": "YAMAHA",
   "Lat": 23.4583286,
   "Lon": 120.2982155
 },
 {
   "Title": "建良機車行",
   "Tel": "05-2681208",
   "Address": "嘉義縣水上鄉柳新村柳子林48-3號",
   "Brand": "三陽",
   "Lat": 23.4297915,
   "Lon": 120.4082939
 },
 {
   "Title": "龍發機車行",
   "Tel": "05-2203556",
   "Address": "嘉義縣民雄鄉興南村頭橋557-11號",
   "Brand": "山葉",
   "Lat": 23.5151863,
   "Lon": 120.4302275
 },
 {
   "Title": "泰源機車行",
   "Tel": "05-2268652",
   "Address": "嘉義縣民雄鄉東榮村文化路26-35號",
   "Brand": "光陽",
   "Lat": 23.5510102,
   "Lon": 120.4286937
 },
 {
   "Title": "振安機車行",
   "Tel": "05-2542358",
   "Address": "嘉義縣竹崎鄉紫雲村5鄰坑口1之24號",
   "Brand": "光陽",
   "Lat": 23.4951768,
   "Lon": 120.5423015
 },
 {
   "Title": "準壹機車行",
   "Tel": "05-3433995",
   "Address": "嘉義縣布袋鎮復興里新塭17-37號",
   "Brand": "光陽",
   "Lat": 23.3243946,
   "Lon": 120.1620174
 },
 {
   "Title": "琮得機車行",
   "Tel": "05-3749746",
   "Address": "嘉義縣新港鄉宮前村中山路115-1號",
   "Brand": "三陽",
   "Lat": 23.5534533,
   "Lon": 120.3475069
 },
 {
   "Title": "騰達機車行",
   "Tel": "05-3801439",
   "Address": "嘉義縣六腳鄉灣南村灣內10之2號1樓",
   "Brand": "光陽",
   "Lat": 23.4922962,
   "Lon": 120.3060706
 },
 {
   "Title": "達豐機車行",
   "Tel": "05-2622603",
   "Address": "嘉義縣梅山鄉梅東村5鄰社教路5巷2號",
   "Brand": "光陽",
   "Lat": 23.5782347,
   "Lon": 120.5610665
 },
 {
   "Title": "尚峰機車行",
   "Tel": "05-2697384",
   "Address": "嘉義縣溪口鄉溪西村中正路204號",
   "Brand": "東浥科技股份有限公司",
   "Lat": 23.6027153,
   "Lon": 120.3944562
 },
 {
   "Title": "金昌機車行",
   "Tel": "05-2682258",
   "Address": "嘉義縣水上鄉龍德村11鄰十一指厝75之37號",
   "Brand": "東浥科技股份有限公司",
   "Lat": 23.421754,
   "Lon": 120.390636
 },
 {
   "Title": "銘興車業行",
   "Tel": "05-2382169",
   "Address": "嘉義縣太保市麻寮里3鄰中山路二段13號",
   "Brand": "光陽",
   "Lat": 23.4989128,
   "Lon": 120.3750312
 },
 {
   "Title": "合金機車行",
   "Tel": "05-3805249",
   "Address": "嘉義縣六腳鄉豐美村4鄰港尾寮149-1號",
   "Brand": "光陽",
   "Lat": 23.5294164,
   "Lon": 120.2830007
 },
 {
   "Title": "昇暘車業股份有限公司",
   "Tel": "05-2318129",
   "Address": "嘉義市西區博愛路2段131之1號1樓",
   "Brand": "三陽",
   "Lat": 23.4816136,
   "Lon": 120.4397273
 },
 {
   "Title": "宏嘉機車行",
   "Tel": "05-2284523",
   "Address": "嘉義市東區興業東路229號",
   "Brand": "光陽",
   "Lat": 23.4694336,
   "Lon": 120.4540444
 },
 {
   "Title": "嘉進車業股份有限公司",
   "Tel": "05-2361750",
   "Address": "嘉義市西區金山路215號",
   "Brand": "光陽",
   "Lat": 23.4758656,
   "Lon": 120.4230624
 },
 {
   "Title": "嘉雲南機車商行",
   "Tel": "05-2289988",
   "Address": "嘉義市東區民族路408號",
   "Brand": "山葉",
   "Lat": 23.4761251,
   "Lon": 120.4511219
 },
 {
   "Title": "富達輪業有限公司",
   "Tel": "05-2230368",
   "Address": "嘉義市西區中山路400號",
   "Brand": "山葉",
   "Lat": 23.4795559,
   "Lon": 120.4455085
 },
 {
   "Title": "振南機車行",
   "Tel": "05-2230448",
   "Address": "嘉義市東區宣信街173號一樓",
   "Brand": "山葉",
   "Lat": 23.46684,
   "Lon": 120.4620628
 },
 {
   "Title": "慶明機車行",
   "Tel": "05-2223624",
   "Address": "嘉義市西區民族路574號",
   "Brand": "光陽",
   "Lat": 23.4757629,
   "Lon": 120.4471033
 },
 {
   "Title": "滿金機車行",
   "Tel": "05-2350282",
   "Address": "嘉義市西區民生南路570號",
   "Brand": "三陽",
   "Lat": 23.4583748,
   "Lon": 120.443334
 },
 {
   "Title": "南興車業行",
   "Tel": "05-2287406",
   "Address": "嘉義市東區南興路182號",
   "Brand": "三陽",
   "Lat": 23.4665783,
   "Lon": 120.4575413
 },
 {
   "Title": "勝快機車有限公司",
   "Tel": "05-2242125",
   "Address": "嘉義市東區吳鳳北路257號",
   "Brand": "台鈴",
   "Lat": 23.4804894,
   "Lon": 120.4530495
 },
 {
   "Title": "信芳車業有限公司",
   "Tel": "05-2275128",
   "Address": "嘉義市東區忠孝路131號",
   "Brand": "光陽",
   "Lat": 23.4803881,
   "Lon": 120.4542556
 },
 {
   "Title": "峰基車業有限公司",
   "Tel": "05-2771932",
   "Address": "嘉義市東區忠孝路284-7號",
   "Brand": "山葉",
   "Lat": 23.4857751,
   "Lon": 120.4538094
 },
 {
   "Title": "正田機車行",
   "Tel": "05-2752875",
   "Address": "嘉義市東區台林街90號",
   "Brand": "光陽",
   "Lat": 23.4949835,
   "Lon": 120.4545786
 },
 {
   "Title": "德盛機車行",
   "Tel": "05-2851482",
   "Address": "嘉義市民生南路878號",
   "Brand": "三陽",
   "Lat": 23.4541801,
   "Lon": 120.4395458
 },
 {
   "Title": "上大機車行",
   "Tel": "05-2787418",
   "Address": "嘉義市民權路157之1號1樓",
   "Brand": "摩特動力",
   "Lat": 23.4836828,
   "Lon": 120.4603318
 },
 {
   "Title": "凱輪車業行",
   "Tel": "05-2340902",
   "Address": "嘉義市自由路299號",
   "Brand": "台鈴",
   "Lat": 23.4913527,
   "Lon": 120.4325216
 },
 {
   "Title": "富安機車行",
   "Tel": "05-2223086",
   "Address": "嘉義市吳鳳北路234號",
   "Brand": "山葉",
   "Lat": 23.4798828,
   "Lon": 120.4531775
 },
 {
   "Title": "志誠機車行",
   "Tel": "05-2391987",
   "Address": "嘉義市吳鳳南路621巷9號",
   "Brand": "光陽",
   "Lat": 23.4558875,
   "Lon": 120.4596909
 },
 {
   "Title": "銘鍚車業有限公司",
   "Tel": "05-2782381",
   "Address": "嘉義市東區民權路171號",
   "Brand": "光陽",
   "Lat": 23.4836982,
   "Lon": 120.4596099
 },
 {
   "Title": "百合機車行",
   "Tel": "05-2770352",
   "Address": "嘉義市林森東路273號",
   "Brand": "三陽",
   "Lat": 23.4900328,
   "Lon": 120.4661619
 },
 {
   "Title": "大象機車行",
   "Tel": "05-2225516",
   "Address": "嘉義市芳安路29號",
   "Brand": "山葉",
   "Lat": 23.4687283,
   "Lon": 120.464715
 },
 {
   "Title": "建達機車行",
   "Tel": "05-2850839",
   "Address": "嘉義市建成街96號",
   "Brand": "光陽",
   "Lat": 23.4706873,
   "Lon": 120.4394083
 },
 {
   "Title": "巨豐車業有限公司",
   "Tel": "05-2327650",
   "Address": "嘉義市博愛路一段438號",
   "Brand": "山葉",
   "Lat": 23.4861925,
   "Lon": 120.4433274
 },
 {
   "Title": "文發車業行",
   "Tel": "05-2359126",
   "Address": "嘉義市博愛路二段399號",
   "Brand": "光陽",
   "Lat": 23.4745778,
   "Lon": 120.4338039
 },
 {
   "Title": "東亞機車行",
   "Tel": "05-2281037",
   "Address": "嘉義市東區初陽里延平街162號",
   "Brand": "光陽",
   "Lat": 23.4853348,
   "Lon": 120.4760853
 },
 {
   "Title": "慶和機車行",
   "Tel": "05-2226567",
   "Address": "嘉義市鎮南里忠孝路552-6號",
   "Brand": "三陽",
   "Lat": 23.494568,
   "Lon": 120.452786
 },
 {
   "Title": "名牌機車行",
   "Tel": "05-2761665",
   "Address": "嘉義市大雅路二段569號1樓",
   "Brand": "光陽",
   "Lat": 23.4773398,
   "Lon": 120.4678344
 },
 {
   "Title": "昇達機車商行",
   "Tel": "05-2279820",
   "Address": "嘉義市東區公明路304號",
   "Brand": "比雅久",
   "Lat": 23.4799429,
   "Lon": 120.453571
 },
 {
   "Title": "男華機車行",
   "Tel": "05-2830829",
   "Address": "嘉義市西區劉厝里自強街111號",
   "Brand": "光陽",
   "Lat": 23.4648619,
   "Lon": 120.4225273
 },
 {
   "Title": "正新機車行",
   "Tel": "05-2322932",
   "Address": "嘉義市西區博愛路一段369號1樓",
   "Brand": "光陽",
   "Lat": 23.4875062,
   "Lon": 120.4444594
 },
 {
   "Title": "南榮機車行",
   "Tel": "05-2359175",
   "Address": "嘉義市西區劉厝里自強街84巷2號1樓",
   "Brand": "三陽",
   "Lat": 23.4649941,
   "Lon": 120.4217174
 },
 {
   "Title": "大發機車行",
   "Tel": "05-2331251",
   "Address": "嘉義市中興路487號",
   "Brand": "山葉",
   "Lat": 23.4789363,
   "Lon": 120.4290782
 },
 {
   "Title": "嘉榮機車行",
   "Tel": "05-2340679",
   "Address": "600嘉義市西區保安一路136號",
   "Brand": "光陽",
   "Lat": 23.4934537,
   "Lon": 120.4385867
 },
 {
   "Title": "建福車業行",
   "Tel": "05-2225148",
   "Address": "嘉義市西區民生北路231號",
   "Brand": "光陽",
   "Lat": 23.4805638,
   "Lon": 120.4460858
 },
 {
   "Title": "吉富機車行",
   "Tel": "(05)2856177",
   "Address": "嘉義市西區光路里8鄰新民路448號1樓",
   "Brand": "山葉",
   "Lat": 23.4607462,
   "Lon": 120.4409202
 },
 {
   "Title": "安生機車行",
   "Tel": "05-2292048",
   "Address": "嘉義市東區豐年里吳鳳南路30號一樓",
   "Brand": "山葉",
   "Lat": 23.4712856,
   "Lon": 120.4539919
 },
 {
   "Title": "協輪機車行",
   "Tel": "05-2323871",
   "Address": "嘉義市西區北興街442-2號1-2樓",
   "Brand": "光陽",
   "Lat": 23.4874014,
   "Lon": 120.435093
 },
 {
   "Title": "紘昌行",
   "Tel": "05-2850769",
   "Address": "嘉義市西區福民里重慶路28號1樓",
   "Brand": "山葉",
   "Lat": 23.4657748,
   "Lon": 120.4399094
 },
 {
   "Title": "縉欑機車行",
   "Tel": "05-2853575",
   "Address": "嘉義市西區西平里20鄰玉山路259號",
   "Brand": "光陽",
   "Lat": 23.471703,
   "Lon": 120.4245056
 },
 {
   "Title": "開元機車行",
   "Tel": "05-2782710",
   "Address": "嘉義市東區保建街30之9號1樓",
   "Brand": "山葉",
   "Lat": 23.5009756,
   "Lon": 120.4552636
 }
]