[
 {
   "Title": "順意機車行",
   "Tel": "03-8882523",
   "Address": "花蓮縣玉里鎮中山路1段108-1號、110號",
   "Brand": "三陽",
   "Lat": 23.329169,
   "Lon": 121.316765
 },
 {
   "Title": "連發車業行",
   "Tel": "03-8522278",
   "Address": "花蓮縣吉安鄉中山路二段96號",
   "Brand": "三陽",
   "Lat": 23.9725165,
   "Lon": 121.5807157
 },
 {
   "Title": "榮泰車業",
   "Tel": "03-8533008",
   "Address": "花蓮縣吉安鄉中山路三段380號",
   "Brand": "山葉",
   "Lat": 23.9788663,
   "Lon": 121.5691048
 },
 {
   "Title": "慶泰車業有限公司",
   "Tel": "03-8535191",
   "Address": "花蓮縣吉安鄉中正路1段154、156-1號",
   "Brand": "光陽",
   "Lat": 23.9649709,
   "Lon": 121.5906482
 },
 {
   "Title": "正鴻車業行",
   "Tel": "03-8529326",
   "Address": "花蓮縣吉安鄉仁里五街32號",
   "Brand": "光陽",
   "Lat": 23.9688307,
   "Lon": 121.5913991
 },
 {
   "Title": "銘曜車業",
   "Tel": "03-8331012",
   "Address": "花蓮市中山路90號",
   "Brand": "山葉",
   "Lat": 23.9753024,
   "Lon": 121.6108852
 },
 {
   "Title": "新輪車業",
   "Tel": "03-8354961",
   "Address": "花蓮縣花蓮市國魂裡建國路316號1樓",
   "Brand": "山葉",
   "Lat": 23.9844624,
   "Lon": 121.5984106
 },
 {
   "Title": "新長興機車行",
   "Tel": "03-8421728",
   "Address": "花蓮縣吉安鄉中山路三段223號",
   "Brand": "山葉",
   "Lat": 23.9771735,
   "Lon": 121.5719667
 },
 {
   "Title": "巨豐機車行",
   "Tel": "03-8527357",
   "Address": "花蓮縣吉安鄉南華村吉安路5段271號",
   "Brand": "光陽",
   "Lat": 23.9537682,
   "Lon": 121.5505143
 },
 {
   "Title": "立大車業行",
   "Tel": "03-8328813",
   "Address": "97054花蓮縣花蓮市中山路410-4號",
   "Brand": "光陽",
   "Lat": 23.8480155,
   "Lon": 121.4968629
 },
 {
   "Title": "時代機車行",
   "Tel": "03-8561999",
   "Address": "97073花蓮縣花蓮市中山路646號",
   "Brand": "光陽",
   "Lat": 23.993671,
   "Lon": 121.596674
 },
 {
   "Title": "中一車業行",
   "Tel": "03-8352828",
   "Address": "97073花蓮市中山路545號",
   "Brand": "山葉",
   "Lat": 23.9813408,
   "Lon": 121.5642864
 },
 {
   "Title": "宏偉車業行",
   "Tel": "03-8575736",
   "Address": "97068花蓮市國富里富國路82號",
   "Brand": "光陽",
   "Lat": 23.9903463,
   "Lon": 121.594804
 },
 {
   "Title": "晉良車業行",
   "Tel": "03-8322968",
   "Address": "花蓮縣花蓮市中正路314號",
   "Brand": "光陽",
   "Lat": 23.9735884,
   "Lon": 121.6020461
 },
 {
   "Title": "建宏機車行",
   "Tel": "03-8358942",
   "Address": "花蓮縣花蓮市中正路353號",
   "Brand": "光陽",
   "Lat": 23.9740339,
   "Lon": 121.6022507
 },
 {
   "Title": "聯豐機車行",
   "Tel": "03-8226765",
   "Address": "花蓮縣花蓮市中美11街80號",
   "Brand": "台鈴",
   "Lat": 23.9899631,
   "Lon": 121.6236995
 },
 {
   "Title": "洺奇機車行",
   "Tel": "03-8573852",
   "Address": "花蓮縣吉安鄉北昌村自強路431號1樓",
   "Brand": "台鈴",
   "Lat": 23.9840867,
   "Lon": 121.5899299
 },
 {
   "Title": "信成機車行",
   "Tel": "03-8326772",
   "Address": "花蓮縣花蓮市中原路365號",
   "Brand": "光陽",
   "Lat": 23.968488,
   "Lon": 121.5997533
 },
 {
   "Title": "慶欣機車行",
   "Tel": "03-8329638",
   "Address": "花蓮縣花蓮市中華路220號",
   "Brand": "山葉",
   "Lat": 23.9754778,
   "Lon": 121.6015295
 },
 {
   "Title": "泰多車業行",
   "Tel": "03-8325555",
   "Address": "花蓮縣花蓮市主力里和平路511號1樓",
   "Brand": "光陽",
   "Lat": 23.9766933,
   "Lon": 121.6011596
 },
 {
   "Title": "三統車業行",
   "Tel": "03-8530759",
   "Address": "花蓮縣花蓮市中華路469之6號1樓",
   "Brand": "三陽",
   "Lat": 23.9740734,
   "Lon": 121.5895405
 },
 {
   "Title": "慶昌機車行",
   "Tel": "03-8354395",
   "Address": "花蓮縣花蓮市南京街152號",
   "Brand": "三陽",
   "Lat": 23.9732189,
   "Lon": 121.6044331
 },
 {
   "Title": "詠聖車業",
   "Tel": "03-8330037",
   "Address": "花蓮縣花蓮市建國路88、90、92號",
   "Brand": "山葉",
   "Lat": 23.983606,
   "Lon": 121.6033565
 },
 {
   "Title": "明安機車行",
   "Tel": "03-8611608",
   "Address": "花蓮縣新城鄉新興路12-1號",
   "Brand": "台鈴",
   "Lat": 23.982339,
   "Lon": 121.6139849
 },
 {
   "Title": "鴻輪機車行",
   "Tel": "03-8263812",
   "Address": "花蓮縣新城鄉嘉里路12號",
   "Brand": "三陽",
   "Lat": 24.0183762,
   "Lon": 121.6100559
 },
 {
   "Title": "安輪機車行",
   "Tel": "03-8267692",
   "Address": "花蓮縣新城鄉嘉里路26號",
   "Brand": "光陽",
   "Lat": 24.0186433,
   "Lon": 121.6098778
 },
 {
   "Title": "富泰車業行",
   "Tel": "03-8870802",
   "Address": "花蓮縣瑞穗鄉中華路6號",
   "Brand": "三陽",
   "Lat": 23.498411,
   "Lon": 121.377823
 },
 {
   "Title": "中福機車行",
   "Tel": "03-8354538",
   "Address": "花蓮市榮正街147號",
   "Brand": "山葉",
   "Lat": 23.974154,
   "Lon": 121.5969378
 },
 {
   "Title": "豐源機車行",
   "Tel": "03-8762474",
   "Address": "花蓮縣鳳林鎮中和路176號",
   "Brand": "山葉",
   "Lat": 23.748135,
   "Lon": 121.450982
 },
 {
   "Title": "皇家車業行",
   "Tel": "03-8882748",
   "Address": "花蓮縣玉里鎮中華路307號",
   "Brand": "光陽",
   "Lat": 23.34116,
   "Lon": 121.316408
 },
 {
   "Title": "永全機車行",
   "Tel": "03-8700476",
   "Address": "花蓮縣光復鄉中山路二段155-1號",
   "Brand": "光陽",
   "Lat": 23.6644692,
   "Lon": 121.4228301
 },
 {
   "Title": "永富機車行",
   "Tel": "03-8520845",
   "Address": "花蓮縣吉安鄉中山路二段161號1樓",
   "Brand": "光陽",
   "Lat": 23.9718188,
   "Lon": 121.5814788
 },
 {
   "Title": "新弘輝車業行",
   "Tel": "03-8421961",
   "Address": "花蓮縣吉安鄉仁和村海岸路694號",
   "Brand": "三陽",
   "Lat": 23.9392367,
   "Lon": 121.5864143
 },
 {
   "Title": "逸陽車業股份有限公司",
   "Tel": "03-8321980",
   "Address": "花蓮市建國路168號",
   "Brand": "三陽",
   "Lat": 23.6588256,
   "Lon": 121.4537865
 },
 {
   "Title": "升源機車行",
   "Tel": "03-8570447",
   "Address": "花蓮縣吉安鄉自強路456號",
   "Brand": "光陽",
   "Lat": 23.9846457,
   "Lon": 121.5905413
 },
 {
   "Title": "金榮機車行",
   "Tel": "03-8577730",
   "Address": "花蓮縣吉安鄉建國路二段161號",
   "Brand": "光陽",
   "Lat": 23.9917077,
   "Lon": 121.5778761
 },
 {
   "Title": "成泰機車行",
   "Tel": "03-8576600",
   "Address": "花蓮縣吉安鄉建國路二段179號",
   "Brand": "山葉",
   "Lat": 23.9918879,
   "Lon": 121.5774882
 },
 {
   "Title": "民豐車業行",
   "Tel": "03-8337430",
   "Address": "花蓮縣花蓮市中山路413-1號",
   "Brand": "山葉",
   "Lat": 23.9823409,
   "Lon": 121.604971
 },
 {
   "Title": "俊達車業行",
   "Tel": "03-8347107",
   "Address": "花蓮縣花蓮市中正路258-2號",
   "Brand": "三陽",
   "Lat": 23.9728681,
   "Lon": 121.60099
 },
 {
   "Title": "永發輪機車行",
   "Tel": "03-8222633",
   "Address": "花蓮縣花蓮市尚志路55-1號",
   "Brand": "光陽",
   "Lat": 24.0026694,
   "Lon": 121.6135467
 },
 {
   "Title": "建德機車行",
   "Tel": "03-8228606",
   "Address": "花蓮縣花蓮市府前路370號",
   "Brand": "光陽",
   "Lat": 23.9974914,
   "Lon": 121.6213309
 },
 {
   "Title": "順良機車行",
   "Tel": "03-8325085",
   "Address": "花蓮縣花蓮市節約街31號",
   "Brand": "光陽",
   "Lat": 23.9784144,
   "Lon": 121.606941
 },
 {
   "Title": "幸輪機車行",
   "Tel": "03-8861193",
   "Address": "花蓮縣富里鄉萬寧村鎮寧158號",
   "Brand": "台鈴",
   "Lat": 23.252394,
   "Lon": 121.2974565
 },
 {
   "Title": "吉輪機車行",
   "Tel": "03-8267657",
   "Address": "花蓮縣新城鄉北埔村180號",
   "Brand": "山葉",
   "Lat": 24.0331191,
   "Lon": 121.6105449
 },
 {
   "Title": "大協興機車行",
   "Tel": "03-8263405",
   "Address": "花蓮縣新城鄉康樂村康樂路178號",
   "Brand": "台鈴",
   "Lat": 24.0479042,
   "Lon": 121.6046613
 },
 {
   "Title": "宏昌機車行",
   "Tel": "03-8872768",
   "Address": "花蓮縣瑞穗鄉中正南路一段75號",
   "Brand": "光陽",
   "Lat": 23.4947746,
   "Lon": 121.3776233
 },
 {
   "Title": "弘興機車行",
   "Tel": "03-8661288",
   "Address": "花蓮縣壽豐鄉中山路二段226號1F",
   "Brand": "山葉",
   "Lat": 23.906277,
   "Lon": 121.5298354
 },
 {
   "Title": "宏展機車行",
   "Tel": "03-8661377",
   "Address": "花蓮縣壽豐鄉志學村中山路三段10號",
   "Brand": "三陽",
   "Lat": 23.9073901,
   "Lon": 121.530401
 },
 {
   "Title": "皇冠輪業行",
   "Tel": "03-8763393",
   "Address": "花蓮縣鳳林鎮中正路二段195號",
   "Brand": "光陽",
   "Lat": 23.7488941,
   "Lon": 121.449747
 },
 {
   "Title": "台羚機車行",
   "Tel": "03-8791173",
   "Address": "花蓮縣豐濱鄉豐濱村三民路80號",
   "Brand": "光陽",
   "Lat": 23.5984293,
   "Lon": 121.5218097
 },
 {
   "Title": "福錄機車行",
   "Tel": "03-8885270",
   "Address": "花蓮縣玉里鎮中城里8鄰光復路47號",
   "Brand": "台鈴",
   "Lat": 23.3259271,
   "Lon": 121.3169891
 },
 {
   "Title": "國蓮機車行",
   "Tel": "03-8349349",
   "Address": "花蓮市國聯五路2-1號",
   "Brand": "山葉",
   "Lat": 23.9882879,
   "Lon": 121.606364
 },
 {
   "Title": "白馬機車行",
   "Tel": "03-8320429",
   "Address": "花蓮市國安里1鄰中山路332號",
   "Brand": "山葉",
   "Lat": 23.9819945,
   "Lon": 121.6055112
 },
 {
   "Title": "全美車業行",
   "Tel": "03-8521737",
   "Address": "花蓮縣吉安鄉仁和村8鄰海岸路196號",
   "Brand": "光陽",
   "Lat": 23.955917,
   "Lon": 121.5928346
 },
 {
   "Title": "宜興機車行",
   "Tel": "03-8234693",
   "Address": "花蓮縣新城鄉嘉新村嘉新路47號",
   "Brand": "山葉",
   "Lat": 24.0067755,
   "Lon": 121.6127085
 },
 {
   "Title": "協鑫車業行",
   "Tel": "03-8542107",
   "Address": "花蓮縣吉安鄉南昌路39,41,43號",
   "Brand": "山葉",
   "Lat": 23.9686444,
   "Lon": 121.5813329
 },
 {
   "Title": "立偉機車行",
   "Tel": "03-8326673",
   "Address": "花蓮市建林街89號",
   "Brand": "光陽",
   "Lat": 23.9804296,
   "Lon": 121.5999095
 },
 {
   "Title": "逸陽車業股份有限公司 玉里聯絡處",
   "Tel": "03-8889362",
   "Address": "花蓮縣玉里鎮中山路2段76號",
   "Brand": "三陽",
   "Lat": 23.3335267,
   "Lon": 121.3150036
 },
 {
   "Title": "龍達機車行",
   "Tel": "03-8762673",
   "Address": "花蓮縣鳳林鎮中正路1段310號",
   "Brand": "光陽",
   "Lat": 23.7420535,
   "Lon": 121.4471058
 },
 {
   "Title": "雙豪車業",
   "Tel": "03-8706171",
   "Address": "花蓮縣光復鄉中山路2段272號",
   "Brand": "山葉",
   "Lat": 23.6662943,
   "Lon": 121.4239902
 },
 {
   "Title": "捷立機車行",
   "Tel": "03-8266373",
   "Address": "花蓮縣新城鄉北埔村光復路393號1樓",
   "Brand": "光陽",
   "Lat": 24.0339766,
   "Lon": 121.6055261
 },
 {
   "Title": "千富機車行",
   "Tel": "03-8567955",
   "Address": "花蓮縣吉安鄉建國路一段92號",
   "Brand": "光陽",
   "Lat": 23.9854405,
   "Lon": 121.5934405
 },
 {
   "Title": "億元機車行",
   "Tel": "03-8882478",
   "Address": "花蓮縣玉里鎮中山路1段194號",
   "Brand": "YAMAHA山葉",
   "Lat": 23.3311685,
   "Lon": 121.3159045
 }
]