[
 {
   "Title": "燁晉機車行",
   "Tel": "03-9894101",
   "Address": "宜蘭縣三星鄉三星路4段299號1樓",
   "Brand": "山葉",
   "Lat": 24.6674003,
   "Lon": 121.6571862
 },
 {
   "Title": "飛帝機車行",
   "Tel": "03-9655488",
   "Address": "宜蘭縣五結鄉中正路3段51號",
   "Brand": "台鈴",
   "Lat": 24.703935,
   "Lon": 121.770306
 },
 {
   "Title": "萬益機車行",
   "Tel": "03-9502173",
   "Address": "宜蘭縣五結鄉五結中路2段17號",
   "Brand": "山葉",
   "Lat": 24.6854191,
   "Lon": 121.7976359
 },
 {
   "Title": "元成車業行",
   "Tel": "03-9503503",
   "Address": "宜蘭縣五結鄉五結路2段331號1樓",
   "Brand": "光陽",
   "Lat": 24.6850699,
   "Lon": 121.7990774
 },
 {
   "Title": "和益機車行",
   "Tel": "03-9503962",
   "Address": "宜蘭縣五結鄉利澤東路51號",
   "Brand": "山葉",
   "Lat": 24.6682395,
   "Lon": 121.8235056
 },
 {
   "Title": "益大機車行",
   "Tel": "03-9591814",
   "Address": "宜蘭縣冬山鄉冬山村冬山路323號",
   "Brand": "三陽",
   "Lat": 24.659447,
   "Lon": 121.776917
 },
 {
   "Title": "欣記機車行",
   "Tel": "03-9585581",
   "Address": "宜蘭縣冬山鄉義成路2段352號1樓",
   "Brand": "三陽",
   "Lat": 24.6536382,
   "Lon": 121.7636362
 },
 {
   "Title": "東昌機車行",
   "Tel": "03-9303419",
   "Address": "宜蘭縣壯圍鄉大福路1段248號",
   "Brand": "三陽",
   "Lat": 24.7954463,
   "Lon": 121.8076525
 },
 {
   "Title": "壯六機車行",
   "Tel": "03-9388160",
   "Address": "宜蘭縣宜蘭市延平里東港路17-26號1樓",
   "Brand": "無",
   "Lat": 24.7525217,
   "Lon": 121.7644827
 },
 {
   "Title": "高煌車業行",
   "Tel": "03-9304868",
   "Address": "宜蘭縣壯圍鄉過嶺村壯濱路3段257號",
   "Brand": "光陽",
   "Lat": 24.758167,
   "Lon": 121.81537
 },
 {
   "Title": "良達機車行",
   "Tel": "03-9361567",
   "Address": "宜蘭縣宜蘭市中山路3段273號",
   "Brand": "光陽",
   "Lat": 24.7624715,
   "Lon": 121.7539291
 },
 {
   "Title": "良勝車業有限公司",
   "Tel": "03-9368166",
   "Address": "宜蘭縣宜蘭市中山路3段297號",
   "Brand": "山葉",
   "Lat": 24.7630608,
   "Lon": 121.7541359
 },
 {
   "Title": "善志企業有限公司",
   "Tel": "03-9322739",
   "Address": "宜蘭縣宜蘭市中山路3段307號",
   "Brand": "光陽",
   "Lat": 24.7632885,
   "Lon": 121.754226
 },
 {
   "Title": "富悅車業有限公司",
   "Tel": "03-9285189",
   "Address": "宜蘭縣宜蘭市北津里中山路5段87、89號",
   "Brand": "光陽",
   "Lat": 24.7687144,
   "Lon": 121.7562077
 },
 {
   "Title": "非常機車行",
   "Tel": "03-9362505",
   "Address": "宜蘭縣宜蘭市和睦里中山路2段302號1樓",
   "Brand": "無",
   "Lat": 24.7495881,
   "Lon": 121.7540722
 },
 {
   "Title": "宜慶機車業行",
   "Tel": "03-9367479",
   "Address": "宜蘭縣宜蘭市泰山路72-1號",
   "Brand": "三陽",
   "Lat": 24.7543326,
   "Lon": 121.7454089
 },
 {
   "Title": "和昇機車行",
   "Tel": "03-9382922",
   "Address": "宜蘭縣宜蘭市慈安里東港路52-5號",
   "Brand": "台鈴",
   "Lat": 24.7554097,
   "Lon": 121.7622533
 },
 {
   "Title": "鐛鋒機車行",
   "Tel": "03-9223085",
   "Address": "宜蘭縣員山鄉員山路1段893號1樓",
   "Brand": "光陽",
   "Lat": 24.7305431,
   "Lon": 121.716443
 },
 {
   "Title": "中興機車行",
   "Tel": "03-9223770",
   "Address": "宜蘭縣員山鄉員山路1段310號",
   "Brand": "台鈴",
   "Lat": 24.743626,
   "Lon": 121.7238614
 },
 {
   "Title": "協昌機車行",
   "Tel": "03-9772328",
   "Address": "宜蘭縣頭城鎮青雲路3段142號",
   "Brand": "光陽",
   "Lat": 24.856797,
   "Lon": 121.824952
 },
 {
   "Title": "新東機車行",
   "Tel": "03-9773798",
   "Address": "宜蘭縣頭城鎮新興路230-3號",
   "Brand": "山葉",
   "Lat": 24.8547411,
   "Lon": 121.819375
 },
 {
   "Title": "福特機車行",
   "Tel": "03-9882134",
   "Address": "宜蘭縣礁溪鄉中山路1段140號",
   "Brand": "光陽",
   "Lat": 24.8187928,
   "Lon": 121.7698336
 },
 {
   "Title": "千葉機車行",
   "Tel": "03-9280809",
   "Address": "宜蘭縣礁溪鄉礁溪路1段43號1樓",
   "Brand": "台鈴",
   "Lat": 24.7840657,
   "Lon": 121.7607997
 },
 {
   "Title": "捷佳車業有限公司",
   "Tel": "03-9543008",
   "Address": "宜蘭縣羅東鎮中山路3段159號",
   "Brand": "山葉",
   "Lat": 24.674843,
   "Lon": 121.770043
 },
 {
   "Title": "金倫機車行",
   "Tel": "03-9505625",
   "Address": "宜蘭縣五結鄉五結路2段442號1樓",
   "Brand": "三陽",
   "Lat": 24.6848602,
   "Lon": 121.796962
 },
 {
   "Title": "連興機車行",
   "Tel": "03-9567760",
   "Address": "宜蘭縣羅東鎮和平路37號",
   "Brand": "三陽",
   "Lat": 24.6747973,
   "Lon": 121.7716489
 },
 {
   "Title": "勝耀興業有限公司",
   "Tel": "03-9551279",
   "Address": "宜蘭縣羅東鎮純精路3段3號1樓",
   "Brand": "山葉",
   "Lat": 24.6804491,
   "Lon": 121.7639331
 },
 {
   "Title": "宏光機車行",
   "Tel": "03-9596619",
   "Address": "宜蘭縣冬山鄉冬山路1段1022號1樓",
   "Brand": "光陽",
   "Lat": 24.6336045,
   "Lon": 121.7910939
 },
 {
   "Title": "蘇澳機車行",
   "Tel": "03-9963796",
   "Address": "宜蘭縣蘇澳鎮中山路1段142號",
   "Brand": "山葉",
   "Lat": 24.59622,
   "Lon": 121.8401159
 },
 {
   "Title": "安全機車行",
   "Tel": "03-9904546",
   "Address": "宜蘭縣蘇澳鎮隘界路51號1樓",
   "Brand": "三陽",
   "Lat": 24.6194935,
   "Lon": 121.8368398
 },
 {
   "Title": "富揚機車行",
   "Tel": "03-9971579",
   "Address": "宜蘭縣蘇澳鎮漁港路112號1樓",
   "Brand": "光陽",
   "Lat": 24.5820122,
   "Lon": 121.8645672
 },
 {
   "Title": "朝順機車行",
   "Tel": "03-9890257",
   "Address": "宜蘭縣三星鄉大隱村三星路1段211號",
   "Brand": "三陽",
   "Lat": 24.6696631,
   "Lon": 121.7242637
 },
 {
   "Title": "泉興機車行",
   "Tel": "03-9892572",
   "Address": "宜蘭縣三星鄉義德村三星路5段39號",
   "Brand": "三陽",
   "Lat": 24.6659191,
   "Lon": 121.651767
 },
 {
   "Title": "健全機車行",
   "Tel": "03-9658739",
   "Address": "宜蘭縣五結鄉上四村中正路2段118號",
   "Brand": "三陽",
   "Lat": 24.6995688,
   "Lon": 121.7693134
 },
 {
   "Title": "長進機車行",
   "Tel": "03-9658868",
   "Address": "宜蘭縣五結鄉上四村中正路2段255號1樓",
   "Brand": "三陽",
   "Lat": 24.7014526,
   "Lon": 121.7694823
 },
 {
   "Title": "長城機車行",
   "Tel": "03-9602532",
   "Address": "宜蘭縣五結鄉五結村五結路2段361號",
   "Brand": "無",
   "Lat": 24.6847428,
   "Lon": 121.7975038
 },
 {
   "Title": "佳昌車業行",
   "Tel": "03-9541363",
   "Address": "宜蘭縣羅東鎮信義里興東路260號1樓",
   "Brand": "光陽",
   "Lat": 24.6836291,
   "Lon": 121.770352
 },
 {
   "Title": "立祥機車行",
   "Tel": "03-9591347",
   "Address": "宜蘭縣冬山鄉南興村冬山路122號",
   "Brand": "山葉",
   "Lat": 24.6344872,
   "Lon": 121.7915897
 },
 {
   "Title": "立發機車行",
   "Tel": "03-9593971",
   "Address": "宜蘭縣冬山鄉香和村冬山路1段851號1樓",
   "Brand": "三陽",
   "Lat": 24.6316887,
   "Lon": 121.7953467
 },
 {
   "Title": "弘裕機車行",
   "Tel": "03-9583808",
   "Address": "宜蘭縣冬山鄉順安村鹿安路479號1樓、481號1樓",
   "Brand": "山葉",
   "Lat": 24.6609331,
   "Lon": 121.7610594
 },
 {
   "Title": "華盛機車行",
   "Tel": "03-9583663",
   "Address": "宜蘭縣冬山鄉群英村義成路3段474號",
   "Brand": "光陽",
   "Lat": 24.6669313,
   "Lon": 121.767927
 },
 {
   "Title": "明慧機車行",
   "Tel": "03-9513731",
   "Address": "宜蘭縣冬山鄉廣興村廣興路225號",
   "Brand": "光陽",
   "Lat": 24.6696269,
   "Lon": 121.7486556
 },
 {
   "Title": "鑫城機車行",
   "Tel": "03-9301783",
   "Address": "宜蘭縣壯圍鄉功勞路43-11號1樓",
   "Brand": "三陽",
   "Lat": 24.7658446,
   "Lon": 121.7923295
 },
 {
   "Title": "立昌機車行",
   "Tel": "03-9325745",
   "Address": "宜蘭縣宜蘭市大道里舊城西路10號",
   "Brand": "光陽",
   "Lat": 24.757675,
   "Lon": 121.7497364
 },
 {
   "Title": "南僑車業有限公司",
   "Tel": "03-9323302",
   "Address": "宜蘭縣宜蘭市北門里中山路3段245號",
   "Brand": "三陽",
   "Lat": 24.7619977,
   "Lon": 121.7537079
 },
 {
   "Title": "怡興機車行",
   "Tel": "03-9324245",
   "Address": "宜蘭縣宜蘭市中山路3段246號1樓",
   "Brand": "無",
   "Lat": 24.761528,
   "Lon": 121.7539233
 },
 {
   "Title": "大德機車行",
   "Tel": "03-9352913",
   "Address": "宜蘭縣宜蘭市民權新路304號1樓",
   "Brand": "山葉",
   "Lat": 24.7526691,
   "Lon": 121.743964
 },
 {
   "Title": "利達機車工業行",
   "Tel": "03-9327666",
   "Address": "宜蘭縣宜蘭市中山路2段97號1樓",
   "Brand": "三陽",
   "Lat": 24.7460203,
   "Lon": 121.7552016
 },
 {
   "Title": "義興車行",
   "Tel": "03-9385527",
   "Address": "宜蘭縣宜蘭市東村里東港路33號",
   "Brand": "山葉",
   "Lat": 24.7541681,
   "Lon": 121.762913
 },
 {
   "Title": "正旭機車行",
   "Tel": "03-9380322",
   "Address": "宜蘭縣宜蘭市東村里校舍路31號",
   "Brand": "光陽",
   "Lat": 24.7514387,
   "Lon": 121.7626446
 },
 {
   "Title": "義明機車行",
   "Tel": "03-9352677",
   "Address": "宜蘭縣宜蘭市泰山路487號",
   "Brand": "山葉",
   "Lat": 24.749044,
   "Lon": 121.734027
 },
 {
   "Title": "長興機車行",
   "Tel": "03-9360211",
   "Address": "宜蘭縣宜蘭市負郭里泰山路155號",
   "Brand": "三陽",
   "Lat": 24.7533123,
   "Lon": 121.7424514
 },
 {
   "Title": "萬安車業行",
   "Tel": "03-9330778",
   "Address": "宜蘭縣宜蘭市復興里神農路1段206號",
   "Brand": "山葉",
   "Lat": 24.7490941,
   "Lon": 121.7503656
 },
 {
   "Title": "中東機車行",
   "Tel": "03-9383121",
   "Address": "宜蘭縣宜蘭市黎明里東港路13-71號",
   "Brand": "光陽",
   "Lat": 24.7511142,
   "Lon": 121.7684509
 },
 {
   "Title": "六合機車行",
   "Tel": "03-9224677",
   "Address": "宜蘭縣員山鄉枕山村枕山路50號",
   "Brand": "三陽",
   "Lat": 24.7680022,
   "Lon": 121.7190528
 },
 {
   "Title": "大弘機車行",
   "Tel": "03-9225616",
   "Address": "宜蘭縣員山鄉永和村溫泉路1-31號",
   "Brand": "三陽",
   "Lat": 24.7495781,
   "Lon": 121.714524
 },
 {
   "Title": "大正機車行",
   "Tel": "03-9224293",
   "Address": "宜蘭縣員山鄉員山路1段89號",
   "Brand": "山葉",
   "Lat": 24.7468921,
   "Lon": 121.729595
 },
 {
   "Title": "惠眾機車行",
   "Tel": "03-9221614",
   "Address": "宜蘭縣員山鄉惠民路165號",
   "Brand": "山葉",
   "Lat": 24.7239649,
   "Lon": 121.7280564
 },
 {
   "Title": "吉達機車行",
   "Tel": "03-9778097",
   "Address": "宜蘭縣頭城鎮吉祥路86號1樓",
   "Brand": "三陽",
   "Lat": 24.856837,
   "Lon": 121.820759
 },
 {
   "Title": "振新機車行",
   "Tel": "03-9770556",
   "Address": "宜蘭縣頭城鎮頭濱路1段313號",
   "Brand": "台鈴",
   "Lat": 24.8175497,
   "Lon": 121.8194914
 },
 {
   "Title": "值光機車行",
   "Tel": "03-9882678",
   "Address": "宜蘭縣礁溪鄉中山路1段92號",
   "Brand": "三陽",
   "Lat": 24.8177048,
   "Lon": 121.7690263
 },
 {
   "Title": "礁溪鈴木車業",
   "Tel": "03-9882332",
   "Address": "宜蘭縣礁溪鄉中山路1段96號",
   "Brand": "台鈴",
   "Lat": 24.8178426,
   "Lon": 121.768985
 },
 {
   "Title": "景祥機車行",
   "Tel": "03-9886708",
   "Address": "宜蘭縣礁溪鄉中山路1段228號",
   "Brand": "光陽",
   "Lat": 24.8205319,
   "Lon": 121.7709577
 },
 {
   "Title": "安盛機車行",
   "Tel": "03-9516131",
   "Address": "宜蘭縣羅東鎮四育路32號1樓",
   "Brand": "光陽",
   "Lat": 24.6764445,
   "Lon": 121.7596524
 },
 {
   "Title": "全球機車行",
   "Tel": "03-9577838",
   "Address": "宜蘭縣羅東鎮純精路三段318號1樓",
   "Brand": "無",
   "Lat": 24.685405,
   "Lon": 121.767262
 },
 {
   "Title": "慶昌機車行",
   "Tel": "03-9560346",
   "Address": "宜蘭縣羅東鎮民生路124號",
   "Brand": "光陽",
   "Lat": 24.6776876,
   "Lon": 121.767077
 },
 {
   "Title": "順道機車行",
   "Tel": "03-9613180",
   "Address": "宜蘭縣羅東鎮純精路2段231號1樓",
   "Brand": "山葉",
   "Lat": 24.6798037,
   "Lon": 121.7638143
 },
 {
   "Title": "新益機車行",
   "Tel": "03-9902249",
   "Address": "宜蘭縣蘇澳鎮新榮路3號1樓",
   "Brand": "山葉",
   "Lat": 24.6209548,
   "Lon": 121.8340575
 },
 {
   "Title": "永立機車行",
   "Tel": "03-9964807",
   "Address": "宜蘭縣蘇澳鎮中山路一段208號1樓",
   "Brand": "山葉",
   "Lat": 24.5961836,
   "Lon": 121.8402757
 },
 {
   "Title": "長昇機車行",
   "Tel": "03-9901707",
   "Address": "宜蘭縣蘇澳鎮福德路448號",
   "Brand": "山葉",
   "Lat": 24.647405,
   "Lon": 121.8287089
 },
 {
   "Title": "國陽機車行",
   "Tel": "03-9963766",
   "Address": "宜蘭縣蘇澳鎮中山路1段134號1樓",
   "Brand": "三陽",
   "Lat": 24.5960958,
   "Lon": 121.8492919
 },
 {
   "Title": "大華機車行",
   "Tel": "03-9592889",
   "Address": "宜蘭縣冬山鄉冬山路159號1樓",
   "Brand": "光陽",
   "Lat": 24.6555169,
   "Lon": 121.7795252
 },
 {
   "Title": "元凱機車行",
   "Tel": "03-9330638",
   "Address": "宜蘭縣宜蘭市泰山路240號",
   "Brand": "光陽",
   "Lat": 24.751336,
   "Lon": 121.737675
 },
 {
   "Title": "明昌機車行",
   "Tel": "03-9225160",
   "Address": "宜蘭縣員山鄉同樂村永同路1段116號",
   "Brand": "光陽",
   "Lat": 24.7647442,
   "Lon": 121.7299236
 },
 {
   "Title": "建興機車行",
   "Tel": "03-9771880",
   "Address": "宜蘭縣頭城鎮青雲路3段55號",
   "Brand": "三陽",
   "Lat": 24.8553609,
   "Lon": 121.823248
 },
 {
   "Title": "三昌車業行",
   "Tel": "03-9567367",
   "Address": "宜蘭縣羅東鎮興東南路24號1樓",
   "Brand": "台鈴",
   "Lat": 24.6691849,
   "Lon": 121.7713642
 },
 {
   "Title": "明芳機車行",
   "Tel": "03-9561248",
   "Address": "宜蘭縣羅東鎮中山路3段371號",
   "Brand": "山葉",
   "Lat": 24.6745084,
   "Lon": 121.7649187
 },
 {
   "Title": "宏輪商行",
   "Tel": "03-9514888",
   "Address": "宜蘭縣羅東鎮中山路4段408號",
   "Brand": "三陽",
   "Lat": 24.6718546,
   "Lon": 121.7544796
 },
 {
   "Title": "仁愛機車行",
   "Tel": "03-9656610",
   "Address": "宜蘭縣羅東鎮復興路3段168號1樓",
   "Brand": "台鈴",
   "Lat": 24.6949212,
   "Lon": 121.7612269
 },
 {
   "Title": "志明機車行",
   "Tel": "03-9615980",
   "Address": "宜蘭縣羅東鎮國華里光華街117號",
   "Brand": "山葉",
   "Lat": 24.6789531,
   "Lon": 121.7577406
 },
 {
   "Title": "宏星機車行",
   "Tel": "03-9562578",
   "Address": "宜蘭縣羅東鎮漢民里忠孝路27號",
   "Brand": "三陽",
   "Lat": 24.6752185,
   "Lon": 121.7644385
 },
 {
   "Title": "永峰機車行",
   "Tel": "03-9891160",
   "Address": "宜蘭縣三星鄉天山村三星路7段255號1樓",
   "Brand": "山葉",
   "Lat": 24.6617496,
   "Lon": 121.6225614
 },
 {
   "Title": "宏泰機車行",
   "Tel": "03-9352202",
   "Address": "宜蘭縣宜蘭市力新路138號",
   "Brand": "山葉",
   "Lat": 24.7618847,
   "Lon": 121.7551817
 },
 {
   "Title": "今日企業社",
   "Tel": "03-9556397",
   "Address": "宜蘭縣羅東鎮站前南路272號",
   "Brand": "三陽",
   "Lat": 24.673466,
   "Lon": 121.774291
 },
 {
   "Title": "萬富企業社",
   "Tel": "03-9890174",
   "Address": "宜蘭縣三星鄉上將路3段681號1樓",
   "Brand": "光陽",
   "Lat": 24.683851,
   "Lon": 121.696192
 },
 {
   "Title": "玉峰機車行",
   "Tel": "03-9886392",
   "Address": "宜蘭縣礁溪鄉礁溪路4段18、20號1樓",
   "Brand": "山葉",
   "Lat": 24.8179928,
   "Lon": 121.7685929
 },
 {
   "Title": "台灣機車行",
   "Tel": "03-9964305",
   "Address": "宜蘭縣蘇澳鎮蘇西里中山路1段346號1樓",
   "Brand": "光陽",
   "Lat": 24.5959405,
   "Lon": 121.8416555
 }
]