[
 {
   "Title": "樂恩機車行",
   "Tel": "07-7135279",
   "Address": "高雄市前鎮區廣西路133號",
   "Brand": "光陽",
   "Lat": 22.615396,
   "Lon": 120.318854
 },
 {
   "Title": "月昌機車行",
   "Tel": "07-3495585",
   "Address": "高雄市左營區新莊仔路57號1樓",
   "Brand": "光陽",
   "Lat": 22.674833,
   "Lon": 120.299938
 },
 {
   "Title": "友源機車行",
   "Tel": "07-3821266",
   "Address": "高雄市三民區建興路230號",
   "Brand": "三陽",
   "Lat": 22.6448235,
   "Lon": 120.3247769
 },
 {
   "Title": "有泰車業行",
   "Tel": "07-3212935",
   "Address": "高雄市三民區力行路131號1樓",
   "Brand": "三陽",
   "Lat": 22.6381919,
   "Lon": 120.2874376
 },
 {
   "Title": "德冀輪業有限公司",
   "Tel": "07-8011266",
   "Address": "高雄市小港區大業北路390號",
   "Brand": "三陽",
   "Lat": 22.564816,
   "Lon": 120.346823
 },
 {
   "Title": "陽程機車行",
   "Tel": "07-8312733",
   "Address": "高雄市前鎮區草衙二路478號",
   "Brand": "三陽",
   "Lat": 22.5801947,
   "Lon": 120.3230315
 },
 {
   "Title": "合益機車行",
   "Tel": "07-2222319",
   "Address": "高雄市苓雅區建國一路342號",
   "Brand": "三陽",
   "Lat": 22.6329741,
   "Lon": 120.3245274
 },
 {
   "Title": "興昌機車行",
   "Tel": "07-3616201",
   "Address": "高雄市楠梓區右昌街377號1樓及2樓",
   "Brand": "三陽",
   "Lat": 22.7150155,
   "Lon": 120.2884127
 },
 {
   "Title": "鑫謚車業有限公司",
   "Tel": "07-3612195",
   "Address": "高雄市楠梓區盛昌街228號",
   "Brand": "山葉",
   "Lat": 22.7144375,
   "Lon": 120.2879338
 },
 {
   "Title": "永順車業有限公司",
   "Tel": "07-3830712",
   "Address": "高雄市三民區大順二路683號",
   "Brand": "山葉",
   "Lat": 22.6509965,
   "Lon": 120.3220426
 },
 {
   "Title": "益昌機車有限公司",
   "Tel": "07-5827322",
   "Address": "高雄市左營區左營大路420號",
   "Brand": "山葉",
   "Lat": 22.6874541,
   "Lon": 120.293615
 },
 {
   "Title": "協和車業有限公司",
   "Tel": "07-7712397",
   "Address": "高雄市前鎮區一心一路104號",
   "Brand": "山葉",
   "Lat": 22.6063,
   "Lon": 120.322356
 },
 {
   "Title": "澧達機車有限公司",
   "Tel": "07-7251865",
   "Address": "高雄市苓雅區凱旋三路381號",
   "Brand": "山葉",
   "Lat": 22.6129198,
   "Lon": 120.3269459
 },
 {
   "Title": "統縉企業有限公司",
   "Tel": "07-3846294",
   "Address": "高雄市三民區建工路769號",
   "Brand": "光陽",
   "Lat": 22.647447,
   "Lon": 120.315325
 },
 {
   "Title": "金麗安企業有限公司",
   "Tel": "07-3816883",
   "Address": "高雄市三民區正忠路329號",
   "Brand": "光陽",
   "Lat": 22.647406,
   "Lon": 120.32997
 },
 {
   "Title": "必成車業有限公司",
   "Tel": "07-2010824",
   "Address": "高雄市前金區七賢二路311號",
   "Brand": "光陽",
   "Lat": 22.6312097,
   "Lon": 120.2904157
 },
 {
   "Title": "台鈴工業股份有限公司(高雄服務站)",
   "Tel": "07-2234639",
   "Address": "高雄市新興區中正三路1號",
   "Brand": "台鈴",
   "Lat": 22.6304781,
   "Lon": 120.3126974
 },
 {
   "Title": "昆德機車行",
   "Tel": "07-3637196",
   "Address": "高雄市楠梓區右昌街74號",
   "Brand": "光陽",
   "Lat": 22.7098144,
   "Lon": 120.2914319
 },
 {
   "Title": "宏聆有限公司",
   "Tel": "07-5512060",
   "Address": "高雄市鼓山區鼓波街33號",
   "Brand": "光陽",
   "Lat": 22.622634,
   "Lon": 120.271471
 },
 {
   "Title": "長亨車業行",
   "Tel": "07-8060757",
   "Address": "高雄市小港區漢民路539號",
   "Brand": "山葉",
   "Lat": 22.567005,
   "Lon": 120.359645
 },
 {
   "Title": "永琪車業有限公司",
   "Tel": "07-2864012",
   "Address": "高雄市前金區瑞源路145號",
   "Brand": "山葉",
   "Lat": 22.6336999,
   "Lon": 120.296422
 },
 {
   "Title": "上勤車業有限公司",
   "Tel": "07-3321223",
   "Address": "高雄市苓雅區成功一路222號",
   "Brand": "台鈴",
   "Lat": 22.6175728,
   "Lon": 120.2964574
 },
 {
   "Title": "名順車業行",
   "Tel": "07-3224833",
   "Address": "高雄市三民區北平二街64號",
   "Brand": "光陽",
   "Lat": 22.650415,
   "Lon": 120.301456
 },
 {
   "Title": "主立車業行",
   "Tel": "07-7617787",
   "Address": "高雄市苓雅區福德三路38號",
   "Brand": "光陽",
   "Lat": 22.6192388,
   "Lon": 120.3282223
 },
 {
   "Title": "長裕實業有限公司",
   "Tel": "07-3843699",
   "Address": "高雄市三民區建工路684號",
   "Brand": "光陽",
   "Lat": 22.6490632,
   "Lon": 120.3212442
 },
 {
   "Title": "慶良機車行",
   "Tel": "07-3429476",
   "Address": "高雄市三民區鼎力路59號",
   "Brand": "山葉",
   "Lat": 22.6635178,
   "Lon": 120.3215924
 },
 {
   "Title": "道陸車業有限公司",
   "Tel": "07-3424218",
   "Address": "高雄市三民區鼎中路769號",
   "Brand": "山葉",
   "Lat": 22.6756679,
   "Lon": 120.3223806
 },
 {
   "Title": "宏德車業行",
   "Tel": "07-8319485",
   "Address": "高雄市小港區平和路97號",
   "Brand": "三陽",
   "Lat": 22.5654628,
   "Lon": 120.3332149
 },
 {
   "Title": "晉享車業有限公司",
   "Tel": "07-8020377",
   "Address": "高雄市小港區高鳳路20號",
   "Brand": "光陽",
   "Lat": 22.573523,
   "Lon": 120.3713331
 },
 {
   "Title": "平常車業行",
   "Tel": "07-8711576",
   "Address": "高雄市小港區鳳北路181號",
   "Brand": "三陽",
   "Lat": 22.528245,
   "Lon": 120.343919
 },
 {
   "Title": "長航車業有限公司",
   "Tel": "07-3414507",
   "Address": "高雄市左營區至真路280號",
   "Brand": "山葉",
   "Lat": 22.6724718,
   "Lon": 120.3014584
 },
 {
   "Title": "合聯車業有限公司",
   "Tel": "07-5562914",
   "Address": "高雄市左營區新庄仔路580號",
   "Brand": "光陽",
   "Lat": 22.6695201,
   "Lon": 120.3057358
 },
 {
   "Title": "企冠企業有限公司",
   "Tel": "07-722-9337",
   "Address": "高雄市前鎮區一心一路126號",
   "Brand": "光陽",
   "Lat": 22.606514,
   "Lon": 120.3218631
 },
 {
   "Title": "富鼎機車有限公司",
   "Tel": "07-7238332",
   "Address": "高雄市前鎮區瑞祥街138號",
   "Brand": "山葉",
   "Lat": 22.6104795,
   "Lon": 120.328774
 },
 {
   "Title": "信豐車業行",
   "Tel": "07-3322981",
   "Address": "高雄市前鎮區廣西路190號",
   "Brand": "三陽",
   "Lat": 22.615518,
   "Lon": 120.317855
 },
 {
   "Title": "弘暘機車行",
   "Tel": "07-3646076",
   "Address": "高雄市楠梓區高楠公路1753號",
   "Brand": "三陽",
   "Lat": 22.728118,
   "Lon": 120.3210869
 },
 {
   "Title": "茂盛機車行",
   "Tel": "07-3510913",
   "Address": "高雄市楠梓區旗楠路50號",
   "Brand": "三陽",
   "Lat": 22.731621,
   "Lon": 120.329812
 },
 {
   "Title": "久揚車業有限公司",
   "Tel": "07-3515083",
   "Address": "高雄市楠梓區旗楠路88號",
   "Brand": "山葉",
   "Lat": 22.731969,
   "Lon": 120.330086
 },
 {
   "Title": "欣東峰機車行",
   "Tel": "07-5553595",
   "Address": "高雄市鼓山區龍德路245、247號1樓",
   "Brand": "光陽",
   "Lat": 22.6540572,
   "Lon": 120.2975872
 },
 {
   "Title": "邑冠車業有限公司",
   "Tel": "07-5511286",
   "Address": "高雄市鹽埕區七賢三路191號",
   "Brand": "光陽",
   "Lat": 22.6281954,
   "Lon": 120.2828627
 },
 {
   "Title": "全能車業有限公司",
   "Tel": "07-5311911",
   "Address": "高雄市鹽埕區大成街80號",
   "Brand": "山葉",
   "Lat": 22.6218979,
   "Lon": 120.288498
 },
 {
   "Title": "新世紀車業有限公司",
   "Tel": "07-5519127",
   "Address": "高雄市鹽埕區北斗街43號",
   "Brand": "山葉",
   "Lat": 22.632229,
   "Lon": 120.28275
 },
 {
   "Title": "永坤車業行",
   "Tel": "07-3867680",
   "Address": "高雄市三民區九如一路113號",
   "Brand": "山葉",
   "Lat": 22.6366762,
   "Lon": 120.3412031
 },
 {
   "Title": "久如車業行",
   "Tel": "07-3843443",
   "Address": "高雄市三民區九如一路496號",
   "Brand": "三陽",
   "Lat": 22.6392474,
   "Lon": 120.3283293
 },
 {
   "Title": "晉立車業有限公司",
   "Tel": "07-3966796",
   "Address": "高雄市三民區義華路129號",
   "Brand": "山葉",
   "Lat": 22.642538,
   "Lon": 120.34157
 },
 {
   "Title": "東峰機車行",
   "Tel": "07-3491677",
   "Address": "高雄市三民區民族一路513號",
   "Brand": "光陽",
   "Lat": 22.6647011,
   "Lon": 120.316112
 },
 {
   "Title": "銘展車業有限公司",
   "Tel": "07-3837200",
   "Address": "高雄市三民區大昌一路110號",
   "Brand": "山葉",
   "Lat": 22.6538638,
   "Lon": 120.3262654
 },
 {
   "Title": "晟大機車行",
   "Tel": "07-3819017",
   "Address": "高雄市三民區大裕路73號",
   "Brand": "三陽",
   "Lat": 22.654973,
   "Lon": 120.328463
 },
 {
   "Title": "新峰車業行",
   "Tel": "07-3817511",
   "Address": "高雄市三民區大豐二路342號",
   "Brand": "公會",
   "Lat": 22.6462096,
   "Lon": 120.3342631
 },
 {
   "Title": "建泰機車行",
   "Tel": "07-3128833",
   "Address": "高雄市三民區中華二路68號",
   "Brand": "偉士伯",
   "Lat": 22.640243,
   "Lon": 120.292248
 },
 {
   "Title": "大誠機車行",
   "Tel": "07-3810490",
   "Address": "高雄市三民區建工路269號",
   "Brand": "三陽",
   "Lat": 22.65366,
   "Lon": 120.33272
 },
 {
   "Title": "得利車行",
   "Tel": "07-3822547",
   "Address": "高雄市三民區建工路666號",
   "Brand": "山葉",
   "Lat": 22.649082,
   "Lon": 120.321557
 },
 {
   "Title": "鏈甄企業有限公司",
   "Tel": "07-2237756",
   "Address": "高雄市三民區建國一路471號",
   "Brand": "三陽",
   "Lat": 22.6355255,
   "Lon": 120.3156798
 },
 {
   "Title": "金裕興車業有限公司",
   "Tel": "07-2372051",
   "Address": "高雄市三民區建國二路72號",
   "Brand": "偉士伯",
   "Lat": 22.637792,
   "Lon": 120.310472
 },
 {
   "Title": "源暉企業行",
   "Tel": "07-2912118",
   "Address": "高雄市三民區建國三路316-1號",
   "Brand": "三陽",
   "Lat": 22.635328,
   "Lon": 120.287592
 },
 {
   "Title": "玄光車業有限公司",
   "Tel": "07-2311510",
   "Address": "高雄市三民區建國三路403號",
   "Brand": "山葉",
   "Lat": 22.636283,
   "Lon": 120.291953
 },
 {
   "Title": "金發機車行",
   "Tel": "07-3835665",
   "Address": "高雄市三民區建興路95號",
   "Brand": "山葉",
   "Lat": 22.6425941,
   "Lon": 120.3284594
 },
 {
   "Title": "宗賢車業有限公司",
   "Tel": "07-3861815",
   "Address": "高雄市三民區義華路312號",
   "Brand": "光陽",
   "Lat": 22.6436946,
   "Lon": 120.3351249
 },
 {
   "Title": "永強機車行",
   "Tel": "07-3860637",
   "Address": "高雄市三民區鼎山街545號",
   "Brand": "三陽",
   "Lat": 22.6522117,
   "Lon": 120.3182067
 },
 {
   "Title": "國群機車行",
   "Tel": "07-3462816",
   "Address": "高雄市三民區鼎中路723號1樓",
   "Brand": "三陽",
   "Lat": 22.673641,
   "Lon": 120.321416
 },
 {
   "Title": "大楊車業行",
   "Tel": "07-3228968",
   "Address": "高雄市三民區察哈爾二街282號",
   "Brand": "三陽",
   "Lat": 22.6481264,
   "Lon": 120.2975202
 },
 {
   "Title": "鈦鑫車業行",
   "Tel": "07-8070266",
   "Address": "高雄市小港區二苓路312號",
   "Brand": "山葉",
   "Lat": 22.565644,
   "Lon": 120.346327
 },
 {
   "Title": "來興機車行",
   "Tel": "07-7910615",
   "Address": "高雄市小港區孔鳳路499號",
   "Brand": "台鈴",
   "Lat": 22.5823961,
   "Lon": 120.3586328
 },
 {
   "Title": "三豐車業行",
   "Tel": "07-5829292",
   "Address": "高雄市左營區左營大路212號",
   "Brand": "光陽",
   "Lat": 22.6848857,
   "Lon": 120.2897529
 },
 {
   "Title": "上鈴車業有限公司",
   "Tel": "07-5823563",
   "Address": "高雄市左營區左營大路838號",
   "Brand": "台鈴",
   "Lat": 22.6950946,
   "Lon": 120.3003732
 },
 {
   "Title": "久聖車業有限公司",
   "Tel": "07-5815832",
   "Address": "高雄市左營區忠信路2號",
   "Brand": "台鈴",
   "Lat": 22.6772825,
   "Lon": 120.2872271
 },
 {
   "Title": "車中寶車業行",
   "Tel": "07-2883888",
   "Address": "高雄市前金區中華三路210號",
   "Brand": "山葉",
   "Lat": 22.6331454,
   "Lon": 120.2945669
 },
 {
   "Title": "俊典企業有限公司",
   "Tel": "07-2213717",
   "Address": "高雄市前金區中華三路225號之4",
   "Brand": "光陽",
   "Lat": 22.6335994,
   "Lon": 120.2940476
 },
 {
   "Title": "聯宏機車行",
   "Tel": "07-2150876",
   "Address": "高雄市前金區成功一路315號",
   "Brand": "山葉",
   "Lat": 22.6231861,
   "Lon": 120.2940145
 },
 {
   "Title": "大裕車業有限公司",
   "Tel": "07-2413737",
   "Address": "高雄市前金區新田路249號",
   "Brand": "台鈴",
   "Lat": 22.6205925,
   "Lon": 120.298864
 },
 {
   "Title": "錦良機車行",
   "Tel": "07-7215593",
   "Address": "高雄市前鎮區一心一路192號",
   "Brand": "三陽",
   "Lat": 22.6072032,
   "Lon": 120.3202155
 },
 {
   "Title": "銀馬機車有限公司",
   "Tel": "07-3314454",
   "Address": "高雄市前鎮區一心二路18號",
   "Brand": "山葉",
   "Lat": 22.61068,
   "Lon": 120.312376
 },
 {
   "Title": "君毅車業行",
   "Tel": "07-3384219",
   "Address": "高雄市前鎮區中華五路995號",
   "Brand": "三陽",
   "Lat": 22.602663,
   "Lon": 120.30587
 },
 {
   "Title": "富新機車有限公司",
   "Tel": "07-7517465",
   "Address": "高雄市前鎮區英明一路48號",
   "Brand": "山葉",
   "Lat": 22.609899,
   "Lon": 120.324572
 },
 {
   "Title": "凱合機車行",
   "Tel": "07-7114769",
   "Address": "高雄市前鎮區瑞隆路152號",
   "Brand": "三陽",
   "Lat": 22.6059223,
   "Lon": 120.3361241
 },
 {
   "Title": "光惠車業行",
   "Tel": "07-7618461",
   "Address": "高雄市苓雅區三多二路210號",
   "Brand": "偉士伯",
   "Lat": 22.6189758,
   "Lon": 120.3194336
 },
 {
   "Title": "聯大機車有限公司",
   "Tel": "07-3342629",
   "Address": "高雄市苓雅區三多三路12號",
   "Brand": "光陽",
   "Lat": 22.617198,
   "Lon": 120.313657
 },
 {
   "Title": "旻訓車業行",
   "Tel": "07-3335227",
   "Address": "高雄市苓雅區永泰路86號1樓",
   "Brand": "光陽",
   "Lat": 22.6155129,
   "Lon": 120.2953241
 },
 {
   "Title": "泰瑋車業有限公司",
   "Tel": "07-2246246",
   "Address": "高雄市苓雅區大順三路5號",
   "Brand": "光陽",
   "Lat": 22.6299388,
   "Lon": 120.3229298
 },
 {
   "Title": "晏欣車業有限公司",
   "Tel": "07-7214333",
   "Address": "高雄市苓雅區中正一路177號1樓",
   "Brand": "三陽",
   "Lat": 22.6285764,
   "Lon": 120.3301499
 },
 {
   "Title": "旭鴻車業有限公司",
   "Tel": "07-7613588",
   "Address": "高雄市苓雅區四維二路28號",
   "Brand": "山葉",
   "Lat": 22.6238529,
   "Lon": 120.3230902
 },
 {
   "Title": "順友車業行",
   "Tel": "07-7139131",
   "Address": "高雄市苓雅區正言路19號",
   "Brand": "三陽",
   "Lat": 22.6301485,
   "Lon": 120.3295707
 },
 {
   "Title": "勝億機車行",
   "Tel": "07-3318828",
   "Address": "高雄市苓雅區昇平街169號",
   "Brand": "山葉",
   "Lat": 22.6165002,
   "Lon": 120.294474
 },
 {
   "Title": "龍興機車行",
   "Tel": "07-3347227",
   "Address": "高雄市苓雅區林森二路49號",
   "Brand": "三陽",
   "Lat": 22.6179625,
   "Lon": 120.3072964
 },
 {
   "Title": "震豐機車行",
   "Tel": "07-7715400",
   "Address": "高雄市苓雅區武昌路74號1樓",
   "Brand": "三陽",
   "Lat": 22.6186099,
   "Lon": 120.3342567
 },
 {
   "Title": "銘昌機車有限公司",
   "Tel": "07-7217776",
   "Address": "高雄市苓雅區武慶三路46號、48號1樓",
   "Brand": "山葉",
   "Lat": 22.6192381,
   "Lon": 120.3320278
 },
 {
   "Title": "漢昌機車行",
   "Tel": "07-7519062",
   "Address": "高雄市苓雅區武慶三路128號",
   "Brand": "三陽",
   "Lat": 22.6211057,
   "Lon": 120.3317815
 },
 {
   "Title": "展飛機車行",
   "Tel": "07-3326968",
   "Address": "高雄市苓雅區青年二路79號",
   "Brand": "三陽",
   "Lat": 22.6188287,
   "Lon": 120.2991568
 },
 {
   "Title": "資弘機車行",
   "Tel": "07-7498156",
   "Address": "高雄市苓雅區建國一路10號",
   "Brand": "山葉",
   "Lat": 22.6298196,
   "Lon": 120.3389948
 },
 {
   "Title": "宏基車業有限公司",
   "Tel": "07-7229392",
   "Address": "高雄市苓雅區建國一路137號",
   "Brand": "光陽",
   "Lat": 22.6320267,
   "Lon": 120.3311379
 },
 {
   "Title": "旭雄車行",
   "Tel": "07-7256011",
   "Address": "高雄市苓雅區福安路476號",
   "Brand": "偉士伯",
   "Lat": 22.6287491,
   "Lon": 120.324409
 },
 {
   "Title": "興水機車行",
   "Tel": "07-7172771",
   "Address": "高雄市苓雅區憲政路7號",
   "Brand": "三陽",
   "Lat": 22.6344206,
   "Lon": 120.3280231
 },
 {
   "Title": "大勇機車行",
   "Tel": "07-2236671",
   "Address": "高雄市新興區七賢一路6號",
   "Brand": "三陽",
   "Lat": 22.633739,
   "Lon": 120.316427
 },
 {
   "Title": "維慶企業有限公司",
   "Tel": "07-2863339",
   "Address": "高雄市新興區七賢二路107號",
   "Brand": "光陽",
   "Lat": 22.633799,
   "Lon": 120.298152
 },
 {
   "Title": "誠峰輪業有限公司",
   "Tel": "07-2228188",
   "Address": "高雄市新興區和平一路263號",
   "Brand": "山葉",
   "Lat": 22.63216,
   "Lon": 120.317066
 },
 {
   "Title": "億昌機車行",
   "Tel": "07-2239522",
   "Address": "高雄市新興區和平一路269號",
   "Brand": "光陽",
   "Lat": 22.632299,
   "Lon": 120.317016
 },
 {
   "Title": "上正車業有限公司",
   "Tel": "07-2419173",
   "Address": "高雄市新興區忠孝一路5號",
   "Brand": "光陽",
   "Lat": 22.6219728,
   "Lon": 120.3071792
 },
 {
   "Title": "銅城實業有限公司",
   "Tel": "07-2912315",
   "Address": "高雄市新興區林森一路11號",
   "Brand": "三陽",
   "Lat": 22.6231241,
   "Lon": 120.3052906
 },
 {
   "Title": "東義車業行",
   "Tel": "07-3616880",
   "Address": "高雄市楠梓區右昌街765號",
   "Brand": "山葉",
   "Lat": 22.7192246,
   "Lon": 120.2831678
 },
 {
   "Title": "後昌有限公司",
   "Tel": "07-3627812",
   "Address": "高雄市楠梓區後昌路992號",
   "Brand": "山葉",
   "Lat": 22.715656,
   "Lon": 120.29327
 },
 {
   "Title": "文賢機車行",
   "Tel": "07-3627231",
   "Address": "高雄市楠梓區後昌路1097號",
   "Brand": "三陽",
   "Lat": 22.7172897,
   "Lon": 120.2920847
 },
 {
   "Title": "高欣機車行",
   "Tel": "07-3642937",
   "Address": "高雄市楠梓區樂群路89號",
   "Brand": "三陽",
   "Lat": 22.7169587,
   "Lon": 120.2975683
 },
 {
   "Title": "瑾慶實業有限公司",
   "Tel": "07-5311218",
   "Address": "高雄市鼓山區九如四路902號",
   "Brand": "摩特",
   "Lat": 22.6541061,
   "Lon": 120.2792417
 },
 {
   "Title": "昌興車業有限公司",
   "Tel": "07-5834681",
   "Address": "高雄市鼓山區九如四路2015號",
   "Brand": "山葉",
   "Lat": 22.6685611,
   "Lon": 120.285964
 },
 {
   "Title": "益明車業行",
   "Tel": "07-3224223",
   "Address": "高雄市三民區北平二街2號",
   "Brand": "山葉",
   "Lat": 22.6503,
   "Lon": 120.303194
 },
 {
   "Title": "光發機車行",
   "Tel": "07-5530016",
   "Address": "高雄市鼓山區明誠三路742號",
   "Brand": "三陽",
   "Lat": 22.6613664,
   "Lon": 120.2932376
 },
 {
   "Title": "駿發車業行",
   "Tel": "07-5219440",
   "Address": "高雄市鼓山區鼓山三路42-10號",
   "Brand": "三陽",
   "Lat": 22.6536363,
   "Lon": 120.2758953
 },
 {
   "Title": "在發機車行",
   "Tel": "07-5717549",
   "Address": "高雄市旗津區旗津二路379號",
   "Brand": "山葉",
   "Lat": 22.578782,
   "Lon": 120.293882
 },
 {
   "Title": "金甲車業行",
   "Tel": "07-5212871",
   "Address": "高雄市鹽埕區富野路75號",
   "Brand": "三陽",
   "Lat": 22.6281278,
   "Lon": 120.2839685
 },
 {
   "Title": "誠峰機車行",
   "Tel": "07-3858470",
   "Address": "高雄市三民區大裕路117號",
   "Brand": "山葉",
   "Lat": 22.655818,
   "Lon": 120.328551
 },
 {
   "Title": "利泰車業有限公司",
   "Tel": "07-3975650",
   "Address": "高雄市三民區正興路164號",
   "Brand": "光陽",
   "Lat": 22.6477501,
   "Lon": 120.3198651
 },
 {
   "Title": "民原機車有限公司",
   "Tel": "07-3814790",
   "Address": "高雄市三民區義華路382號",
   "Brand": "三陽",
   "Lat": 22.6436837,
   "Lon": 120.3337714
 },
 {
   "Title": "舜安機車行",
   "Tel": "07-3119903",
   "Address": "高雄市三民區十全一路39號",
   "Brand": "三陽",
   "Lat": 22.6447237,
   "Lon": 120.3118612
 },
 {
   "Title": "晉昌機車行",
   "Tel": "07-2913356",
   "Address": "高雄市三民區建國三路499號",
   "Brand": "光陽",
   "Lat": 22.635337,
   "Lon": 120.288955
 },
 {
   "Title": "昌盟車業行",
   "Tel": "07-3219599",
   "Address": "高雄市三民區九如二路575號",
   "Brand": "山葉",
   "Lat": 22.6415317,
   "Lon": 120.2966338
 },
 {
   "Title": "世全車業有限公司",
   "Tel": "07-8067820",
   "Address": "高雄市小港區崇文路81號",
   "Brand": "光陽",
   "Lat": 22.56873,
   "Lon": 120.351787
 },
 {
   "Title": "政隆車業行",
   "Tel": "07-8136611",
   "Address": "高雄市小港區港口里平和路65號",
   "Brand": "山葉",
   "Lat": 22.5645225,
   "Lon": 120.3338634
 },
 {
   "Title": "富佑機車行",
   "Tel": "07-8024701",
   "Address": "高雄市小港區宏亮里山明路413號",
   "Brand": "三陽",
   "Lat": 22.566827,
   "Lon": 120.362945
 },
 {
   "Title": "宏葉企業有限公司",
   "Tel": "07-8030859",
   "Address": "高雄市小港區二苓路308號1樓",
   "Brand": "光陽",
   "Lat": 22.5655694,
   "Lon": 120.3464365
 },
 {
   "Title": "名德車業行",
   "Tel": "07-5818947",
   "Address": "高雄市左營區中華一路1-17號",
   "Brand": "光陽",
   "Lat": 22.670891,
   "Lon": 120.2868165
 },
 {
   "Title": "昌暐機車行",
   "Tel": "07-7138394",
   "Address": "高雄市前鎮區瑞隆路412號",
   "Brand": "山葉",
   "Lat": 22.6055223,
   "Lon": 120.3300246
 },
 {
   "Title": "安輝興業有限公司",
   "Tel": "07-8315715",
   "Address": "高雄市前鎮區鎮東一街266.268號",
   "Brand": "光陽",
   "Lat": 22.5892943,
   "Lon": 120.3140551
 },
 {
   "Title": "順士輪業有限公司",
   "Tel": "07-2113465",
   "Address": "高雄市新興區林森一路27號",
   "Brand": "山葉",
   "Lat": 22.623611,
   "Lon": 120.3052518
 },
 {
   "Title": "弘原車業行",
   "Tel": "07-3659052",
   "Address": "高雄市楠梓區瑞仁路30號",
   "Brand": "山葉",
   "Lat": 22.723767,
   "Lon": 120.314091
 },
 {
   "Title": "明光機車行",
   "Tel": "07-5515409",
   "Address": "高雄市鼓山區鼓山三路8-24號",
   "Brand": "山葉",
   "Lat": 22.6485205,
   "Lon": 120.2770761
 },
 {
   "Title": "總輪車業有限公司",
   "Tel": "07-5313369",
   "Address": "高雄市鼓山區鼓山二路80之2號",
   "Brand": "光陽",
   "Lat": 22.6329619,
   "Lon": 120.2827943
 },
 {
   "Title": "禾豐機車行",
   "Tel": "07-3985931",
   "Address": "高雄市三民區興隆街27號",
   "Brand": "山葉",
   "Lat": 22.646959,
   "Lon": 120.318909
 },
 {
   "Title": "群峰車業行",
   "Tel": "07-3807095",
   "Address": "高雄市三民區義華路207號",
   "Brand": "山葉",
   "Lat": 22.642835,
   "Lon": 120.339471
 },
 {
   "Title": "義興機車行",
   "Tel": "07-3111252",
   "Address": "高雄市三民區瀋陽街122號",
   "Brand": "光陽",
   "Lat": 22.643593,
   "Lon": 120.307512
 },
 {
   "Title": "立吉車業行",
   "Tel": "07-3857171",
   "Address": "高雄市三民區大昌二路344號",
   "Brand": "山葉",
   "Lat": 22.6478002,
   "Lon": 120.3320307
 },
 {
   "Title": "全馬機車行",
   "Tel": "07-3956171",
   "Address": "高雄市三民區大豐一路63號",
   "Brand": "光陽",
   "Lat": 22.654878,
   "Lon": 120.331167
 },
 {
   "Title": "國順機車行",
   "Tel": "07-3863618",
   "Address": "高雄市三民區興隆街42-1號",
   "Brand": "三陽",
   "Lat": 22.6471137,
   "Lon": 120.3188226
 },
 {
   "Title": "鼎欣機車行",
   "Tel": "07-5564188",
   "Address": "高雄市左營區富民路399號",
   "Brand": "三陽",
   "Lat": 22.6664833,
   "Lon": 120.3052315
 },
 {
   "Title": "名德自由車業行",
   "Tel": "07-5583547",
   "Address": "高雄市左營區自由二路153號",
   "Brand": "光陽",
   "Lat": 22.6600814,
   "Lon": 120.3086703
 },
 {
   "Title": "華厦車業行",
   "Tel": "07-3598779",
   "Address": "高雄市左營區華夏路776號",
   "Brand": "山葉",
   "Lat": 22.679209,
   "Lon": 120.303488
 },
 {
   "Title": "清發機車行",
   "Tel": "07-7616060",
   "Address": "高雄市前鎮區崗山西街48號",
   "Brand": "三陽",
   "Lat": 22.6019718,
   "Lon": 120.3293177
 },
 {
   "Title": "威特機車行",
   "Tel": "07-7718296",
   "Address": "高雄市前鎮區瑞隆路408號",
   "Brand": "光陽",
   "Lat": 22.6055254,
   "Lon": 120.3300722
 },
 {
   "Title": "生旺車業有限公司",
   "Tel": "07-7230545",
   "Address": "高雄市苓雅區大順三路184號",
   "Brand": "光陽",
   "Lat": 22.6335213,
   "Lon": 120.3261512
 },
 {
   "Title": "晉弘車業行",
   "Tel": "07-2212218",
   "Address": "高雄市新興區忠孝一路159號",
   "Brand": "山葉",
   "Lat": 22.6282621,
   "Lon": 120.305643
 },
 {
   "Title": "大昌機車行",
   "Tel": "07-3612649",
   "Address": "高雄市楠梓區和光街７、９號",
   "Brand": "山葉",
   "Lat": 22.70672,
   "Lon": 120.293174
 },
 {
   "Title": "峻榮企業行",
   "Tel": "07-3591672",
   "Address": "高雄市左營區曾子路21號",
   "Brand": "山葉",
   "Lat": 22.6761387,
   "Lon": 120.3118607
 },
 {
   "Title": "志峰機車行",
   "Tel": "07-5332988",
   "Address": "高雄市鼓山區建榮路48號",
   "Brand": "光陽",
   "Lat": 22.6579476,
   "Lon": 120.2804905
 },
 {
   "Title": "翠華興業車行",
   "Tel": "07-582-3385",
   "Address": "高雄市左營區翠華路595號",
   "Brand": "光陽",
   "Lat": 22.6717171,
   "Lon": 120.2908959
 },
 {
   "Title": "達卡機車行",
   "Tel": "07-343-6588",
   "Address": "高雄市三民區民族一路517-1號",
   "Brand": "山葉",
   "Lat": 22.66477,
   "Lon": 120.316147
 },
 {
   "Title": "薪菖機車行",
   "Tel": "07-360-3388",
   "Address": "高雄市楠梓區德民路148號",
   "Brand": "光陽",
   "Lat": 22.7269887,
   "Lon": 120.3105922
 },
 {
   "Title": "輔仁機車行",
   "Tel": "07-722-7177",
   "Address": "高雄市苓雅區輔仁路144號1樓",
   "Brand": "三陽",
   "Lat": 22.6312094,
   "Lon": 120.3337297
 },
 {
   "Title": "順圓車業行",
   "Tel": "07-301-1556",
   "Address": "高雄市楠梓區惠豐街288號一樓",
   "Brand": "光陽",
   "Lat": 22.7302958,
   "Lon": 120.3164484
 },
 {
   "Title": "協群車業行",
   "Tel": "07-364-6988",
   "Address": "高雄市楠梓區右昌街227號",
   "Brand": "光陽",
   "Lat": 22.7123719,
   "Lon": 120.2892488
 },
 {
   "Title": "東欣車業行",
   "Tel": "07-801-8806",
   "Address": "高雄市小港區康莊路70號",
   "Brand": "光陽",
   "Lat": 22.568244,
   "Lon": 120.356285
 },
 {
   "Title": "良羿機車行",
   "Tel": "07-322-0631",
   "Address": "高雄市三民區熱河一街411-1號",
   "Brand": "光陽",
   "Lat": 22.643695,
   "Lon": 120.30451
 },
 {
   "Title": "昇暉機車行",
   "Tel": "07-341-3308",
   "Address": "高雄市左營區新莊仔路313號",
   "Brand": "光陽",
   "Lat": 22.669215,
   "Lon": 120.308207
 },
 {
   "Title": "進福機車行",
   "Tel": "07-345-5766",
   "Address": "高雄市左營區新光里崇德路233號",
   "Brand": "光陽",
   "Lat": 22.675126,
   "Lon": 120.3044431
 },
 {
   "Title": "盛豐機車行",
   "Tel": "07-201-0489",
   "Address": "高雄市新興區忠孝一路234號1樓.2樓",
   "Brand": "光陽",
   "Lat": 22.629307,
   "Lon": 120.30604
 },
 {
   "Title": "東鵬車業行",
   "Tel": "07-801-8680",
   "Address": "高雄市小港區高鳳路34號1樓",
   "Brand": "山葉",
   "Lat": 22.5746892,
   "Lon": 120.3714269
 },
 {
   "Title": "利泰欣機車行",
   "Tel": "07-287-3222",
   "Address": "高雄市新興區自立一 路62號",
   "Brand": "山葉",
   "Lat": 22.6404082,
   "Lon": 120.296315
 },
 {
   "Title": "勝發機車行",
   "Tel": "07-380-6094",
   "Address": "高雄市三民區大順二路245號",
   "Brand": "山葉",
   "Lat": 22.644741,
   "Lon": 120.325753
 },
 {
   "Title": "宏昇車業行",
   "Tel": "07-551-2629",
   "Address": "高雄市鼓山區鼓山二路182之6號",
   "Brand": "山葉",
   "Lat": 22.6381564,
   "Lon": 120.2803997
 },
 {
   "Title": "安輝機車行",
   "Tel": "07-811-1628",
   "Address": "高雄市前鎮區鎮興路52之1號",
   "Brand": "光陽",
   "Lat": 22.5900772,
   "Lon": 120.3141338
 },
 {
   "Title": "永和機車行",
   "Tel": "07-316-1955",
   "Address": "高雄市三民區千秋里力行路171號",
   "Brand": "山葉",
   "Lat": 22.6379255,
   "Lon": 120.2866658
 },
 {
   "Title": "輝旭車業行",
   "Tel": "07-791-3202",
   "Address": "高雄市小港區高鳳路437號",
   "Brand": "山葉",
   "Lat": 22.5852948,
   "Lon": 120.3678911
 },
 {
   "Title": "全峰車業行",
   "Tel": "07-343-0889",
   "Address": "高雄市左營區重上街162號",
   "Brand": "光陽",
   "Lat": 22.6760691,
   "Lon": 120.3048625
 },
 {
   "Title": "大億機車行",
   "Tel": "07-815-9004",
   "Address": "高雄市前鎮區漁港東2路78號",
   "Brand": "山葉",
   "Lat": 22.572954,
   "Lon": 120.318492
 },
 {
   "Title": "鴻雄車業有限公司",
   "Tel": "07-561-3595",
   "Address": "高雄市鼓山區九如四路680號1樓",
   "Brand": "山葉",
   "Lat": 22.6498008,
   "Lon": 120.2791497
 },
 {
   "Title": "鼎葉車業行",
   "Tel": "07-342-9278",
   "Address": "高雄市三民區鼎中路344號",
   "Brand": "山葉",
   "Lat": 22.665806,
   "Lon": 120.319607
 },
 {
   "Title": "進信車業行",
   "Tel": "07-561-1335",
   "Address": "高雄市鼓山區鼓山一路50號",
   "Brand": "山葉",
   "Lat": 22.625812,
   "Lon": 120.27802
 },
 {
   "Title": "新大機車行",
   "Tel": "07-390-8513",
   "Address": "高雄市三民區鼎中路52號",
   "Brand": "光陽",
   "Lat": 22.6595761,
   "Lon": 120.3192487
 },
 {
   "Title": "璟鋒機車行",
   "Tel": "07-715-9957",
   "Address": "高雄市苓雅區武慶三路8號",
   "Brand": "光陽",
   "Lat": 22.6185329,
   "Lon": 120.3321212
 },
 {
   "Title": "祐賓車業有限公司",
   "Tel": "07-380-9507",
   "Address": "高雄市三民區覺民路105號",
   "Brand": "山葉",
   "Lat": 22.6389461,
   "Lon": 120.3419316
 },
 {
   "Title": "友和機車行",
   "Tel": "07-811-8676",
   "Address": "高雄市前鎮區鎮榮街61號",
   "Brand": "三陽",
   "Lat": 22.5901972,
   "Lon": 120.3112852
 },
 {
   "Title": "益豐輪機車商行",
   "Tel": "07-381-6918",
   "Address": "高雄市三民區大豐二路458號",
   "Brand": "光陽",
   "Lat": 22.6485405,
   "Lon": 120.3350551
 },
 {
   "Title": "南豐機車行",
   "Tel": "07-537-6868",
   "Address": "高雄市前鎮區正勤路82號",
   "Brand": "山葉",
   "Lat": 22.6025552,
   "Lon": 120.3052149
 },
 {
   "Title": "豐達機車行",
   "Tel": "07-551-6797",
   "Address": "高雄市鼓山區臨海二路59號",
   "Brand": "三陽",
   "Lat": 22.623404,
   "Lon": 120.270943
 },
 {
   "Title": "南成機車行",
   "Tel": "07-723-7589",
   "Address": "高雄市苓雅區福安路467號",
   "Brand": "光陽",
   "Lat": 22.6284487,
   "Lon": 120.3244601
 },
 {
   "Title": "健利機車行",
   "Tel": "07-531-6358",
   "Address": "高雄市鼓山區鼓山三路56號",
   "Brand": "光陽",
   "Lat": 22.6553517,
   "Lon": 120.2754801
 },
 {
   "Title": "名翔機車行",
   "Tel": "07-383-7750",
   "Address": "高雄市三民區莊敬路107號",
   "Brand": "光陽",
   "Lat": 22.653916,
   "Lon": 120.322504
 },
 {
   "Title": "連豐機車行",
   "Tel": "07-311-7252",
   "Address": "高雄市三民區九如二路69號",
   "Brand": "光陽",
   "Lat": 22.6404186,
   "Lon": 120.3117462
 },
 {
   "Title": "利榮機車行",
   "Tel": "07-821-9335",
   "Address": "高雄市前鎮區瑞春街71號",
   "Brand": "光陽",
   "Lat": 22.5971186,
   "Lon": 120.323727
 },
 {
   "Title": "志昱機車行",
   "Tel": "07-793-0496",
   "Address": "高雄市小港區廈莊一街127號",
   "Brand": "山葉",
   "Lat": 22.5841119,
   "Lon": 120.3610971
 },
 {
   "Title": "祥盛機車行",
   "Tel": "07-380-7614",
   "Address": "高雄市三民區永年街9之2號",
   "Brand": "三陽",
   "Lat": 22.6397689,
   "Lon": 120.3175642
 },
 {
   "Title": "明通車業行",
   "Tel": "07-237-0512",
   "Address": "高雄市新興區錦田路74號",
   "Brand": "三陽",
   "Lat": 22.632696,
   "Lon": 120.310535
 },
 {
   "Title": "順億車業行",
   "Tel": "07-390-4497",
   "Address": "高雄市三民區鼎華路194號",
   "Brand": "三陽",
   "Lat": 22.6522344,
   "Lon": 120.3164302
 },
 {
   "Title": "士誠機車行",
   "Tel": "07-555-4952",
   "Address": "高雄市鼓山區華泰路176號1樓",
   "Brand": "光陽",
   "Lat": 22.6690692,
   "Lon": 120.2929038
 },
 {
   "Title": "大輪世界車業有限公司",
   "Tel": "07-313-1100",
   "Address": "高雄市三民區九如一路909號",
   "Brand": "多廠牌",
   "Lat": 22.640146,
   "Lon": 120.315697
 },
 {
   "Title": "元順機車行",
   "Tel": "07-361-9069",
   "Address": "高雄市楠梓區惠民路128號1樓",
   "Brand": "山葉",
   "Lat": 22.7239123,
   "Lon": 120.2963112
 },
 {
   "Title": "文盛車業有限公司",
   "Tel": "07-362-3658",
   "Address": "高雄市楠梓區後昌路17號1樓",
   "Brand": "光陽",
   "Lat": 22.720442,
   "Lon": 120.312645
 },
 {
   "Title": "水金機車行",
   "Tel": "07-347-2898",
   "Address": "高雄市三民區鼎新路201號1樓",
   "Brand": "光陽",
   "Lat": 22.667235,
   "Lon": 120.3236
 },
 {
   "Title": "欣順興車業行",
   "Tel": "07-591-0509",
   "Address": "高雄市楠梓區藍昌路398-1號",
   "Brand": "山葉",
   "Lat": 22.7268,
   "Lon": 120.291942
 },
 {
   "Title": "奕豪機車行",
   "Tel": "07-385-8989",
   "Address": "高雄市三民區正忠路360號1樓",
   "Brand": "山葉",
   "Lat": 22.6483061,
   "Lon": 120.3302831
 },
 {
   "Title": "茂順機車行",
   "Tel": "07-286-2191",
   "Address": "高雄市新興區自立二路84號1樓",
   "Brand": "光陽",
   "Lat": 22.6311856,
   "Lon": 120.2990444
 },
 {
   "Title": "振利機車行",
   "Tel": "07-227-2926",
   "Address": "高雄市新興區民生一路15號1樓",
   "Brand": "三陽",
   "Lat": 22.6282145,
   "Lon": 120.3133571
 },
 {
   "Title": "泰興車業行",
   "Tel": "07-806-6307",
   "Address": "高雄市小港區泰興街58號1樓",
   "Brand": "光陽",
   "Lat": 22.5637436,
   "Lon": 120.3680019
 },
 {
   "Title": "耿昌機車行",
   "Tel": "07-281-5483",
   "Address": "高雄市新興區青年一路458號",
   "Brand": "多廠牌",
   "Lat": 22.620317,
   "Lon": 120.302688
 },
 {
   "Title": "高科機車行",
   "Tel": "07-355-3766",
   "Address": "高雄市楠梓區創新路608號",
   "Brand": "山葉",
   "Lat": 22.7456775,
   "Lon": 120.3300161
 },
 {
   "Title": "得旺機車行",
   "Tel": "07-347-5876",
   "Address": "高雄市三民區民族一路708-1號",
   "Brand": "三陽",
   "Lat": 22.663011,
   "Lon": 120.316301
 },
 {
   "Title": "勝弘機車行",
   "Tel": "07-841-7964",
   "Address": "高雄市前鎮區草衙二路446號",
   "Brand": "光陽",
   "Lat": 22.5795666,
   "Lon": 120.3227508
 },
 {
   "Title": "進源機車行",
   "Tel": "07-723-9170",
   "Address": "高雄市前鎮區崗山北街359號",
   "Brand": "三陽",
   "Lat": 22.6099893,
   "Lon": 120.3335218
 },
 {
   "Title": "隆順機車行",
   "Tel": "07-551-4811",
   "Address": "高雄市鹽埕區建國四路251-1號1樓",
   "Brand": "多廠牌",
   "Lat": 22.6285621,
   "Lon": 120.2817149
 },
 {
   "Title": "瑞陽車業行",
   "Tel": "07-713-3808",
   "Address": "高雄市前鎮區瑞恩街130號",
   "Brand": "光陽",
   "Lat": 22.6106791,
   "Lon": 120.3298321
 },
 {
   "Title": "瑞興機車行",
   "Tel": "07-532-6785",
   "Address": "高雄市鼓山區臨海二路36-2號",
   "Brand": "三陽",
   "Lat": 22.6229992,
   "Lon": 120.2722704
 },
 {
   "Title": "群益機車行",
   "Tel": "07-350-3199",
   "Address": "高雄市左營區博愛四路106號1樓",
   "Brand": "光陽",
   "Lat": 22.683021,
   "Lon": 120.312681
 },
 {
   "Title": "福利機車行",
   "Tel": "07-221-2922",
   "Address": "高雄市新興區民生一路216、218號",
   "Brand": "多廠牌",
   "Lat": 22.627803,
   "Lon": 120.307683
 },
 {
   "Title": "鴻大車業行",
   "Tel": "07-395-1953",
   "Address": "高雄市三民區有光路97號1樓",
   "Brand": "光陽",
   "Lat": 22.6371852,
   "Lon": 120.3326456
 },
 {
   "Title": "躍揚車業行",
   "Tel": "07-311-1109",
   "Address": "高雄市三民區熱河二街20號",
   "Brand": "光陽",
   "Lat": 22.644183,
   "Lon": 120.301891
 },
 {
   "Title": "鑫泰機車材料行",
   "Tel": "07-349-3113",
   "Address": "高雄市三民區鼎中路587號1樓",
   "Brand": "多廠牌",
   "Lat": 22.6710994,
   "Lon": 120.3206752
 },
 {
   "Title": "(車坴)發車業行",
   "Tel": "07-334-2359",
   "Address": "高雄市苓雅區復興二路38號",
   "Brand": "山葉",
   "Lat": 22.617404,
   "Lon": 120.311502
 },
 {
   "Title": "永鴻機車行",
   "Tel": "07-396-3367",
   "Address": "高雄市三民區有光路50號",
   "Brand": "三陽",
   "Lat": 22.6372306,
   "Lon": 120.333535
 },
 {
   "Title": "永旺車業行",
   "Tel": "07-350-6119",
   "Address": "高雄市左營區自由四路157號1樓",
   "Brand": "光陽",
   "Lat": 22.682655,
   "Lon": 120.314102
 },
 {
   "Title": "慶宏祥機車行",
   "Tel": "07-723-8656",
   "Address": "高雄市前鎮區瑞福路148、150號",
   "Brand": "山葉",
   "Lat": 22.6082864,
   "Lon": 120.3357644
 },
 {
   "Title": "盛業車業行",
   "Tel": "07-801-7806",
   "Address": "高雄市小港區中山四路13號",
   "Brand": "光陽",
   "Lat": 22.569252,
   "Lon": 120.347635
 },
 {
   "Title": "輝煌機車行",
   "Tel": "07-553-7451",
   "Address": "高雄市鼓山區裕誠路1560號",
   "Brand": "三陽",
   "Lat": 22.663913,
   "Lon": 120.294227
 },
 {
   "Title": "煌平機車行",
   "Tel": "07-571-1766",
   "Address": "高雄市旗津區中洲三路759號1樓",
   "Brand": "光陽",
   "Lat": 22.6116268,
   "Lon": 120.270088
 },
 {
   "Title": "信華車業行",
   "Tel": "07-360-5155",
   "Address": "高雄市楠梓區益群路26號",
   "Brand": "光陽",
   "Lat": 22.7240511,
   "Lon": 120.2975546
 },
 {
   "Title": "孟修車業行",
   "Tel": "07-831-3737",
   "Address": "高雄市前鎮區佛德街77號",
   "Brand": "山葉",
   "Lat": 22.575509,
   "Lon": 120.322301
 },
 {
   "Title": "三發機車行",
   "Tel": "07-6165298",
   "Address": "高雄市燕巢區安東街125號1樓",
   "Brand": "光陽",
   "Lat": 22.7865416,
   "Lon": 120.3438496
 },
 {
   "Title": "三順旺車業股份有限公司",
   "Tel": "07-3132112",
   "Address": "高雄市三民區九如三路2號",
   "Brand": "三陽",
   "Lat": 22.6423356,
   "Lon": 120.2910566
 },
 {
   "Title": "上昇企業行",
   "Tel": "07-3462698",
   "Address": "高雄市三民區鼎力路314號1樓",
   "Brand": "山葉",
   "Lat": 22.6686797,
   "Lon": 120.324097
 },
 {
   "Title": "久堂機車行",
   "Tel": "07-6513801",
   "Address": "高雄市大樹區久堂路65號",
   "Brand": "三陽",
   "Lat": 22.6590629,
   "Lon": 120.4202735
 },
 {
   "Title": "日源機車行",
   "Tel": "07-3747331",
   "Address": "高雄市仁武區澄觀路1561號1樓",
   "Brand": "山葉",
   "Lat": 22.6929873,
   "Lon": 120.3556762
 },
 {
   "Title": "弘揚機車行",
   "Tel": "07-3836238",
   "Address": "高雄市三民區正忠路370號",
   "Brand": "三陽",
   "Lat": 22.6485112,
   "Lon": 120.3302999
 },
 {
   "Title": "民興機車行",
   "Tel": "07-2263653",
   "Address": "高雄市苓雅區惠安街33號",
   "Brand": "三陽",
   "Lat": 22.626047,
   "Lon": 120.31281
 },
 {
   "Title": "永祥機車行",
   "Tel": "07-5320527",
   "Address": "高雄市鹽埕區大智路95號1樓",
   "Brand": "光陽",
   "Lat": 22.622075,
   "Lon": 120.285523
 },
 {
   "Title": "永新機車行",
   "Tel": "07-8027087",
   "Address": "高雄市小港區漢民路801號",
   "Brand": "光陽",
   "Lat": 22.5687821,
   "Lon": 120.3646834
 },
 {
   "Title": "吉田機車行",
   "Tel": "07-3715941",
   "Address": "高雄市仁武區竹門巷36-6號",
   "Brand": "山葉",
   "Lat": 22.7064361,
   "Lon": 120.3377763
 },
 {
   "Title": "吉家機車行",
   "Tel": "07-3756048",
   "Address": "高雄市仁武區澄觀路1587號1樓",
   "Brand": "光陽",
   "Lat": 22.6929873,
   "Lon": 120.3556762
 },
 {
   "Title": "亨旺機車行",
   "Tel": "07-3987737",
   "Address": "高雄市三民區大豐二路362號",
   "Brand": "三陽",
   "Lat": 22.6466516,
   "Lon": 120.3347502
 },
 {
   "Title": "宏濱機車行",
   "Tel": "07-5888989",
   "Address": "高雄市鼓山區九如四路1123號1樓",
   "Brand": "光陽",
   "Lat": 22.6590319,
   "Lon": 120.2790086
 },
 {
   "Title": "志朋車業行",
   "Tel": "07-521-8948",
   "Address": "高雄市鼓山區西藏街260號",
   "Brand": "光陽",
   "Lat": 22.6548951,
   "Lon": 120.2782453
 },
 {
   "Title": "良豐機車行",
   "Tel": "07-3921121",
   "Address": "高雄市三民區大豐一路306號1樓",
   "Brand": "山葉",
   "Lat": 22.6592014,
   "Lon": 120.3290325
 },
 {
   "Title": "來發機車行",
   "Tel": "07-7913995",
   "Address": "高雄市小港區桂陽路160號",
   "Brand": "山葉",
   "Lat": 22.5819247,
   "Lon": 120.3556348
 },
 {
   "Title": "明通機車行",
   "Tel": "07-6210229",
   "Address": "高雄市岡山區岡山路78號",
   "Brand": "三陽",
   "Lat": 22.7875552,
   "Lon": 120.2968375
 },
 {
   "Title": "泓毅機車行",
   "Tel": "07-7805880",
   "Address": "高雄市鳳山區青年路二段201-5號",
   "Brand": "光陽",
   "Lat": 22.6359934,
   "Lon": 120.3503785
 },
 {
   "Title": "金日成機車行",
   "Tel": "07-6629926",
   "Address": "高雄市旗山區旗文路87之1號",
   "Brand": "山葉",
   "Lat": 22.896988,
   "Lon": 120.480295
 },
 {
   "Title": "信田機車行",
   "Tel": "07-6664181",
   "Address": "高雄市旗山區旗南二路85之2號",
   "Brand": "台鈴",
   "Lat": 22.843073,
   "Lon": 120.464436
 },
 {
   "Title": "建榮機車行",
   "Tel": "07-3833386",
   "Address": "高雄市三民區鼎山街330號",
   "Brand": "光陽",
   "Lat": 22.657624,
   "Lon": 120.32146
 },
 {
   "Title": "峰昇機車行",
   "Tel": "07-6439797",
   "Address": "高雄市林園區王公路213、215號",
   "Brand": "光陽",
   "Lat": 22.5079767,
   "Lon": 120.38854
 },
 {
   "Title": "崴麟機車行",
   "Tel": "07-3496790",
   "Address": "高雄市左營區文平街40號",
   "Brand": "光陽",
   "Lat": 22.6848892,
   "Lon": 120.3119532
 },
 {
   "Title": "隆曜車業有限公司",
   "Tel": "07-363-8003",
   "Address": "高雄市楠梓區瑞屏路60-3號",
   "Brand": "山葉",
   "Lat": 22.7229924,
   "Lon": 120.3118031
 },
 {
   "Title": "新順發機車材料行",
   "Tel": "07-7477153",
   "Address": "高雄市鳳山區力行路46號",
   "Brand": "三葉",
   "Lat": 22.6390756,
   "Lon": 120.3658382
 },
 {
   "Title": "鉅豐車業行",
   "Tel": "07-2297318",
   "Address": "高雄市苓雅區大順三路63號1樓",
   "Brand": "三陽",
   "Lat": 22.6312689,
   "Lon": 120.3241332
 },
 {
   "Title": "福財車業行",
   "Tel": "07-7966236",
   "Address": "高雄市鳳山區南成里國慶六街232號１樓",
   "Brand": "光陽",
   "Lat": 22.587719,
   "Lon": 120.3379418
 },
 {
   "Title": "蓮發機車行",
   "Tel": "07-6218145",
   "Address": "高雄市岡山區大德二路219號",
   "Brand": "三陽",
   "Lat": 22.7893769,
   "Lon": 120.3028161
 },
 {
   "Title": "震東機車材料行",
   "Tel": "07-6518428",
   "Address": "高雄市大樹區久堂路135號1樓",
   "Brand": "三陽",
   "Lat": 22.6579526,
   "Lon": 120.4163917
 },
 {
   "Title": "躍揚車業行-三多分店",
   "Tel": "07-3333100",
   "Address": "高雄市前鎮區三多二路367號",
   "Brand": "光陽",
   "Lat": 22.6180983,
   "Lon": 120.3174129
 },
 {
   "Title": "滙展機車行",
   "Tel": "07-3641041",
   "Address": "高雄市楠梓區後昌路700號",
   "Brand": "三葉",
   "Lat": 22.709398,
   "Lon": 120.297391
 },
 {
   "Title": "車中車車業股份有限公司",
   "Tel": "07-7416888",
   "Address": "高雄市鳳山區鎮東里中山東路99號",
   "Brand": "山葉",
   "Lat": 22.622402,
   "Lon": 120.367255
 },
 {
   "Title": "嘉泰機車行",
   "Tel": "07-7418046",
   "Address": "高雄市鳳山區瑞興里瑞竹路70號",
   "Brand": "三陽",
   "Lat": 22.6257481,
   "Lon": 120.3669906
 },
 {
   "Title": "清龍機車行",
   "Tel": "07-7453882",
   "Address": "高雄市鳳山區鎮西里光復路219號",
   "Brand": "三陽",
   "Lat": 22.6289548,
   "Lon": 120.3550908
 },
 {
   "Title": "光喜輪業有限公司",
   "Tel": "07-7426206",
   "Address": "高雄市鳳山區新興里維新路135號",
   "Brand": "光陽",
   "Lat": 22.625103,
   "Lon": 120.3613466
 },
 {
   "Title": "十成車業有限公司",
   "Tel": "07-6256095",
   "Address": "高雄市岡山區仁壽里前峰路31之1號",
   "Brand": "山葉",
   "Lat": 22.7944134,
   "Lon": 120.2891888
 },
 {
   "Title": "益興機車股份有限公司",
   "Tel": "07-6230313",
   "Address": "高雄市岡山區維仁里壽天路107之1號",
   "Brand": "三陽",
   "Lat": 22.7949261,
   "Lon": 120.2912918
 },
 {
   "Title": "全盛機車行",
   "Tel": "07-6261191",
   "Address": "高雄市岡山區前峰里公園西路三段39號",
   "Brand": "光陽",
   "Lat": 22.7956802,
   "Lon": 120.2853538
 },
 {
   "Title": "揚晟車業行",
   "Tel": "07-6264493",
   "Address": "高雄市岡山區後協里柳橋西路一段73號",
   "Brand": "三陽",
   "Lat": 22.789783,
   "Lon": 120.2817305
 },
 {
   "Title": "宏安車業行",
   "Tel": "07-6214356",
   "Address": "高雄市岡山區竹圍里大仁北路96號",
   "Brand": "光陽",
   "Lat": 22.8010243,
   "Lon": 120.3018471
 },
 {
   "Title": "幼葉有限公司",
   "Tel": "07-3511788",
   "Address": "高雄市大社區中里村三民路203號",
   "Brand": "山葉",
   "Lat": 22.7244224,
   "Lon": 120.3489636
 },
 {
   "Title": "明成車業有限公司",
   "Tel": "07-6971616",
   "Address": "高雄市路竹區竹西里延平路66號",
   "Brand": "山葉",
   "Lat": 22.8581886,
   "Lon": 120.2587445
 },
 {
   "Title": "明政車業行",
   "Tel": "07-6164725",
   "Address": "高雄市燕巢區西燕里中北路203號",
   "Brand": "山葉",
   "Lat": 22.7955511,
   "Lon": 120.361864
 },
 {
   "Title": "新車保輪業行",
   "Tel": "07-6512988",
   "Address": "高雄市大樹區檨腳里中興南路47號",
   "Brand": "三陽",
   "Lat": 22.6897574,
   "Lon": 120.4334115
 },
 {
   "Title": "仁美機車行",
   "Tel": "07-7314320",
   "Address": "高雄市鳥松區仁美里美山路211號",
   "Brand": "山葉",
   "Lat": 22.6548346,
   "Lon": 120.3941828
 },
 {
   "Title": "明樹機車行",
   "Tel": "07-6175460",
   "Address": "高雄市彌陀區彌陀里中正路10號",
   "Brand": "山葉",
   "Lat": 22.779591,
   "Lon": 120.2498259
 },
 {
   "Title": "長連興車業行",
   "Tel": "07-3711879",
   "Address": "高雄市仁武區仁武里中正路213號",
   "Brand": "山葉",
   "Lat": 22.7023583,
   "Lon": 120.3520678
 },
 {
   "Title": "順全吉機車行",
   "Tel": "07-6312124",
   "Address": "高雄市阿蓮區清蓮里中山路250號",
   "Brand": "山葉",
   "Lat": 22.8755114,
   "Lon": 120.3270452
 },
 {
   "Title": "旗葉機車行",
   "Tel": "07-6622527",
   "Address": "高雄市旗山區瑞吉里延平一路312號",
   "Brand": "山葉",
   "Lat": 22.8933466,
   "Lon": 120.4832285
 },
 {
   "Title": "信宏機車行",
   "Tel": "07-6663131",
   "Address": "高雄市旗山區大山里旗南二路53號",
   "Brand": "山葉",
   "Lat": 22.8514185,
   "Lon": 120.4672576
 },
 {
   "Title": "錦龍機業有限公司",
   "Tel": "07-6612539",
   "Address": "高雄市旗山區太平里復新街33號",
   "Brand": "光陽",
   "Lat": 22.8851109,
   "Lon": 120.4816545
 },
 {
   "Title": "富成機車有限公司",
   "Tel": "07-6419303",
   "Address": "高雄市林園區頂厝里沿海路四段91號",
   "Brand": "山葉",
   "Lat": 22.5032657,
   "Lon": 120.3821285
 },
 {
   "Title": "金竑實業有限公司",
   "Tel": "07-6412375",
   "Address": "高雄市林園區文賢里東林西路203號",
   "Brand": "光陽",
   "Lat": 22.5030667,
   "Lon": 120.390816
 },
 {
   "Title": "和興機車行",
   "Tel": "07-6900533",
   "Address": "高雄市茄萣區嘉賜里茄萣路二段201號",
   "Brand": "三陽",
   "Lat": 22.9011335,
   "Lon": 120.1830195
 },
 {
   "Title": "正祥機車行",
   "Tel": "07-7811356",
   "Address": "高雄市大寮區山頂里鳳林三路813號",
   "Brand": "光陽",
   "Lat": 22.6126519,
   "Lon": 120.3905343
 },
 {
   "Title": "達宏機車行",
   "Tel": "07-6812306",
   "Address": "高雄市美濃區泰安里永安路201號",
   "Brand": "山葉",
   "Lat": 22.899483,
   "Lon": 120.5430844
 },
 {
   "Title": "社一有限公司",
   "Tel": "07-3517776",
   "Address": "高雄市大社區三奶里三民路457號",
   "Brand": "光陽",
   "Lat": 22.7301959,
   "Lon": 120.3448077
 },
 {
   "Title": "約泰機車行",
   "Tel": "07-3718455",
   "Address": "高雄市仁武區仁武里仁信巷153號",
   "Brand": "光陽",
   "Lat": 22.7033827,
   "Lon": 120.3471324
 },
 {
   "Title": "隆興機車行",
   "Tel": "07-3711043",
   "Address": "高雄市仁武區仁武里鳳仁路264號",
   "Brand": "三陽",
   "Lat": 22.7001706,
   "Lon": 120.3456383
 },
 {
   "Title": "吉順機車行",
   "Tel": "07-6251791",
   "Address": "高雄市岡山區後協里介壽西路40號",
   "Brand": "光陽",
   "Lat": 22.7844968,
   "Lon": 120.2839112
 },
 {
   "Title": "發興車業有限公司",
   "Tel": "07-6900466",
   "Address": "高雄市茄萣區萬福里中正路三段50號",
   "Brand": "三陽",
   "Lat": 22.9135708,
   "Lon": 120.1871625
 },
 {
   "Title": "偉昌機車行",
   "Tel": "07-6906312",
   "Address": "高雄市茄萣區保定里金鑾路110號",
   "Brand": "光陽",
   "Lat": 22.897431,
   "Lon": 120.1874128
 },
 {
   "Title": "全通達機車行",
   "Tel": "07-6989575",
   "Address": "高雄市茄萣區崎漏里濱海路一段614號",
   "Brand": "光陽",
   "Lat": 22.8770143,
   "Lon": 120.1893155
 },
 {
   "Title": "進安機車行",
   "Tel": "07-6176012",
   "Address": "高雄市梓官區赤東里赤崁南路16號",
   "Brand": "光陽",
   "Lat": 22.7379071,
   "Lon": 120.2474695
 },
 {
   "Title": "新義盛車業有限公司",
   "Tel": "07-6969289",
   "Address": "高雄市路竹區中山路595號",
   "Brand": "山葉",
   "Lat": 22.864049,
   "Lon": 120.2573891
 },
 {
   "Title": "政興機車行",
   "Tel": "07-6963967",
   "Address": "高雄市路竹區文南里延平路263號",
   "Brand": "三陽",
   "Lat": 22.8574508,
   "Lon": 120.2543496
 },
 {
   "Title": "鴻益車行",
   "Tel": "07-7466086",
   "Address": "高雄市鳳山區和興里五甲一路171號",
   "Brand": "光陽",
   "Lat": 22.618996,
   "Lon": 120.355791
 },
 {
   "Title": "慶忠機車行",
   "Tel": "07-7433937",
   "Address": "高雄市鳳山區忠義里自由路96之3號",
   "Brand": "摩特動力",
   "Lat": 22.6260647,
   "Lon": 120.3525365
 },
 {
   "Title": "陸氏機車行",
   "Tel": "07-6113825",
   "Address": "高雄市橋頭區橋頭里成功路52之5號",
   "Brand": "光陽",
   "Lat": 22.7605257,
   "Lon": 120.3094688
 },
 {
   "Title": "旭銘機車行",
   "Tel": "07-3528116",
   "Address": "高雄市大社區翠屏里中山路447之1號",
   "Brand": "公會",
   "Lat": 22.7311683,
   "Lon": 120.3535566
 },
 {
   "Title": "正一車業行",
   "Tel": "07-3519269",
   "Address": "高雄市大社區觀音里金龍路367號",
   "Brand": "三陽",
   "Lat": 22.724824,
   "Lon": 120.3535947
 },
 {
   "Title": "新洲車業有限公司",
   "Tel": "07-7031609",
   "Address": "高雄市大寮區中庄里鳳屏一路568號",
   "Brand": "山葉",
   "Lat": 22.6373316,
   "Lon": 120.3944958
 },
 {
   "Title": "政億機車行",
   "Tel": "07-7813796",
   "Address": "高雄市大寮區永芳里力行路205號",
   "Brand": "光陽",
   "Lat": 22.6057689,
   "Lon": 120.3968795
 },
 {
   "Title": "玉瓏機車行",
   "Tel": "07-7821040",
   "Address": "高雄市大寮區翁園里翁園路43之5號",
   "Brand": "三陽",
   "Lat": 22.624876,
   "Lon": 120.409297
 },
 {
   "Title": "大順機車行",
   "Tel": "07-7817712",
   "Address": "高雄市大寮區山頂里鳳林三路629號",
   "Brand": "山葉",
   "Lat": 22.6092122,
   "Lon": 120.3942341
 },
 {
   "Title": "速成機車行",
   "Tel": "07-7814546",
   "Address": "高雄市大寮區忠義里鳳林四路201號",
   "Brand": "三陽",
   "Lat": 22.6223398,
   "Lon": 120.3782447
 },
 {
   "Title": "正功機車行",
   "Tel": "07-7010707",
   "Address": "高雄市大寮區後庄里鳳屏一路287號",
   "Brand": "光陽",
   "Lat": 22.6363824,
   "Lon": 120.3923943
 },
 {
   "Title": "三元機車行",
   "Tel": "07-6518751",
   "Address": "高雄市大寮區義和里鳳屏二路294號",
   "Brand": "三陽",
   "Lat": 22.6419187,
   "Lon": 120.4178258
 },
 {
   "Title": "金興機車行",
   "Tel": "07-6518488",
   "Address": "高雄市大樹區九曲里九曲路246號",
   "Brand": "光陽",
   "Lat": 22.6504221,
   "Lon": 120.4222539
 },
 {
   "Title": "高典機車行",
   "Tel": "07-6517585",
   "Address": "高雄市大樹區水寮里中山路155號",
   "Brand": "三陽",
   "Lat": 22.6664794,
   "Lon": 120.4091294
 },
 {
   "Title": "欣正豐機車行",
   "Tel": "07-6515932",
   "Address": "高雄市大樹區水安里安和街21號",
   "Brand": "摩特動力",
   "Lat": 22.6657031,
   "Lon": 120.4088162
 },
 {
   "Title": "定億有限公司",
   "Tel": "07-6525078",
   "Address": "高雄市大樹區檨腳里中興南路58號",
   "Brand": "山葉",
   "Lat": 22.6897622,
   "Lon": 120.4333743
 },
 {
   "Title": "大興車業有限公司",
   "Tel": "07-3749957",
   "Address": "高雄市仁武區大灣里仁雄路128之1號",
   "Brand": "山葉",
   "Lat": 22.6766332,
   "Lon": 120.3404458
 },
 {
   "Title": "滿宜機車行",
   "Tel": "07-3716515",
   "Address": "高雄市仁武區竹後里水管路211號",
   "Brand": "公會",
   "Lat": 22.7045111,
   "Lon": 120.3555751
 },
 {
   "Title": "大易機車行",
   "Tel": "07-6751223",
   "Address": "高雄市甲仙區西安里中正路59號",
   "Brand": "三陽",
   "Lat": 23.0833116,
   "Lon": 120.588274
 },
 {
   "Title": "興隆機車輪胎行",
   "Tel": "07-6211580",
   "Address": "高雄市岡山區台上里成功路225號",
   "Brand": "光陽",
   "Lat": 22.8068075,
   "Lon": 120.2979402
 },
 {
   "Title": "巨展車業行",
   "Tel": "07-6432986",
   "Address": "高雄市林園區廣應里王公路495號",
   "Brand": "山葉",
   "Lat": 22.5076449,
   "Lon": 120.3881196
 },
 {
   "Title": "家旭機車行",
   "Tel": "07-6411869",
   "Address": "高雄市林園區林園里林園北路334號",
   "Brand": "三陽",
   "Lat": 22.5116834,
   "Lon": 120.3948497
 },
 {
   "Title": "宏祥機車行",
   "Tel": "07-6415606",
   "Address": "高雄市林園區港埔里頂厝路182號",
   "Brand": "山葉",
   "Lat": 22.4989122,
   "Lon": 120.3813401
 },
 {
   "Title": "欣邑機車行",
   "Tel": "07-6312235",
   "Address": "高雄市阿蓮區阿蓮里中正路452號",
   "Brand": "光陽",
   "Lat": 22.8806512,
   "Lon": 120.3321733
 },
 {
   "Title": "方明機車行",
   "Tel": "07-6812582",
   "Address": "高雄市美濃區東門里民族路9號",
   "Brand": "三陽",
   "Lat": 22.897397,
   "Lon": 120.54926
 },
 {
   "Title": "佑昌機車行",
   "Tel": "07-6177603",
   "Address": "高雄市梓官區赤嵌里赤嵌東路39號",
   "Brand": "公會",
   "Lat": 22.7486104,
   "Lon": 120.2570421
 },
 {
   "Title": "新永豐機車行",
   "Tel": "07-6171498",
   "Address": "高雄市梓官區典寶里嘉展路278號",
   "Brand": "光陽",
   "Lat": 22.7368443,
   "Lon": 120.2578042
 },
 {
   "Title": "明祥機車行",
   "Tel": "07-6174849",
   "Address": "高雄市梓官區梓義里梓官路333號",
   "Brand": "三陽",
   "Lat": 22.7618962,
   "Lon": 120.2668682
 },
 {
   "Title": "立大機車行",
   "Tel": "07-6993278",
   "Address": "高雄市湖內區公館里中山路二段67號",
   "Brand": "光陽",
   "Lat": 22.9033447,
   "Lon": 120.2345501
 },
 {
   "Title": "統耀機車行",
   "Tel": "07-6994368",
   "Address": "高雄市湖內區中正路一段445號",
   "Brand": "山葉",
   "Lat": 22.9087475,
   "Lon": 120.2167389
 },
 {
   "Title": "偉成車業行",
   "Tel": "07-6971065",
   "Address": "高雄市路竹區社西里大社路107號",
   "Brand": "台鈴",
   "Lat": 22.864068,
   "Lon": 120.262956
 },
 {
   "Title": "仁昌機車行",
   "Tel": "07-6961855",
   "Address": "高雄市路竹區竹東里中山路861號",
   "Brand": "光陽",
   "Lat": 22.860442,
   "Lon": 120.2593915
 },
 {
   "Title": "志明機車行",
   "Tel": "07-6963181",
   "Address": "高雄市路竹區文南里延平路111號",
   "Brand": "光陽",
   "Lat": 22.858015,
   "Lon": 120.2573657
 },
 {
   "Title": "旗山三陽機車行",
   "Tel": "07-6614535",
   "Address": "高雄市旗山區瑞吉里延平一路265號",
   "Brand": "三陽",
   "Lat": 22.8938672,
   "Lon": 120.4836985
 },
 {
   "Title": "汶泉機車行",
   "Tel": "07-6617861",
   "Address": "高雄市旗山區大德里延平一路692-1號",
   "Brand": "光陽",
   "Lat": 22.8838759,
   "Lon": 120.483036
 },
 {
   "Title": "大明機車行",
   "Tel": "07-7665703",
   "Address": "高雄市鳳山區新甲里大明路75號",
   "Brand": "山葉",
   "Lat": 22.6084276,
   "Lon": 120.3416185
 },
 {
   "Title": "萬龍機車行",
   "Tel": "07-7466392",
   "Address": "高雄市鳳山區鎮東里中山東路131號",
   "Brand": "光陽",
   "Lat": 22.622904,
   "Lon": 120.3678352
 },
 {
   "Title": "重榮機車行",
   "Tel": "07-7467755",
   "Address": "高雄市鳳山區鳳林路45號",
   "Brand": "山葉",
   "Lat": 22.622344,
   "Lon": 120.371799
 },
 {
   "Title": "良興車業有限公司",
   "Tel": "07-7533182",
   "Address": "高雄市鳳山區中民里中崙四路18號",
   "Brand": "山葉",
   "Lat": 22.599555,
   "Lon": 120.3516948
 },
 {
   "Title": "聯大機車行",
   "Tel": "07-7533175",
   "Address": "高雄市鳳山區中民里中崙路582號",
   "Brand": "光陽",
   "Lat": 22.6022067,
   "Lon": 120.3515094
 },
 {
   "Title": "統友機車行",
   "Tel": "07-7639030",
   "Address": "高雄市鳳山區國泰里五甲一路332巷2號",
   "Brand": "光陽",
   "Lat": 22.6150391,
   "Lon": 120.3523564
 },
 {
   "Title": "瑞泰機車行",
   "Tel": "07-7636333",
   "Address": "高雄市鳳山區老爺里五甲一路682號1樓",
   "Brand": "光陽",
   "Lat": 22.608966,
   "Lon": 120.347985
 },
 {
   "Title": "益利機車行",
   "Tel": "07-7469607",
   "Address": "高雄市鳳山區和興里五甲一路87號",
   "Brand": "光陽",
   "Lat": 22.6205922,
   "Lon": 120.3568975
 },
 {
   "Title": "信韋車業行",
   "Tel": "07-7233288",
   "Address": "高雄市鳳山區五甲二路428號",
   "Brand": "山葉",
   "Lat": 22.598241,
   "Lon": 120.335814
 },
 {
   "Title": "振通機車行",
   "Tel": "07-8413655",
   "Address": "高雄市鳳山區南和里五甲二路513號",
   "Brand": "光陽",
   "Lat": 22.596111,
   "Lon": 120.332819
 },
 {
   "Title": "和昇機車行",
   "Tel": "07-8211042",
   "Address": "高雄市鳳山區鎮南里五甲二路674號",
   "Brand": "三陽",
   "Lat": 22.5948097,
   "Lon": 120.3302064
 },
 {
   "Title": "益豊機車行",
   "Tel": "07-7467567",
   "Address": "高雄市鳳山區生明里王生明路58號",
   "Brand": "光陽",
   "Lat": 22.6165937,
   "Lon": 120.3626181
 },
 {
   "Title": "正輪車業有限公司",
   "Tel": "07-8415100",
   "Address": "高雄市鳳山區福興里五福一路53號",
   "Brand": "光陽",
   "Lat": 22.5899594,
   "Lon": 120.3282543
 },
 {
   "Title": "隆升機車行",
   "Tel": "07-7801165",
   "Address": "高雄市鳳山區文福里文化西路162號",
   "Brand": "山葉",
   "Lat": 22.6352283,
   "Lon": 120.3462868
 },
 {
   "Title": "利泰車業",
   "Tel": "07-7115620",
   "Address": "高雄市鳳山區武漢里武營路241號",
   "Brand": "山葉",
   "Lat": 22.6111358,
   "Lon": 120.3373873
 },
 {
   "Title": "皇冠機車行",
   "Tel": "07-7774997",
   "Address": "高雄市鳳山區文德里青年路二段514號",
   "Brand": "山葉",
   "Lat": 22.6452574,
   "Lon": 120.3500103
 },
 {
   "Title": "上發機車行",
   "Tel": "07-7636883",
   "Address": "高雄市鳳山區新富里凱旋路365之7號",
   "Brand": "山葉",
   "Lat": 22.6156331,
   "Lon": 120.3460419
 },
 {
   "Title": "宏大車業行",
   "Tel": "07-7663179",
   "Address": "高雄市鳳山區新甲里新強路141號",
   "Brand": "三陽",
   "Lat": 22.6107144,
   "Lon": 120.3402178
 },
 {
   "Title": "鴻旭機車行",
   "Tel": "07-7663217",
   "Address": "高雄市鳳山區新甲里新樂街145號",
   "Brand": "光陽",
   "Lat": 22.6085048,
   "Lon": 120.3412484
 },
 {
   "Title": "隆德機車行",
   "Tel": "07-7020786",
   "Address": "高雄市鳳山區東門里誠德街67號",
   "Brand": "光陽",
   "Lat": 22.623952,
   "Lon": 120.375202
 },
 {
   "Title": "坤輪機車行",
   "Tel": "07-7461313",
   "Address": "高雄市鳳山區新興里維新路99號",
   "Brand": "山葉",
   "Lat": 22.624604,
   "Lon": 120.3608607
 },
 {
   "Title": "京城機車行",
   "Tel": "07-7813679",
   "Address": "高雄市鳳山區誠智里鳳林路228號",
   "Brand": "三陽",
   "Lat": 22.6221831,
   "Lon": 120.376114
 },
 {
   "Title": "全隆機車行",
   "Tel": "07-6117648",
   "Address": "高雄市橋頭區橋頭里橋頭路146號1樓",
   "Brand": "三陽",
   "Lat": 22.7570903,
   "Lon": 120.3114546
 },
 {
   "Title": "清友機車行",
   "Tel": "07-6161873",
   "Address": "高雄市燕巢區南燕里中興路51號",
   "Brand": "光陽",
   "Lat": 22.7920649,
   "Lon": 120.3622163
 },
 {
   "Title": "新聯豐機車行",
   "Tel": "07-6191558",
   "Address": "高雄市彌陀區彌靖里中正路227號",
   "Brand": "光陽",
   "Lat": 22.7837013,
   "Lon": 120.2481866
 },
 {
   "Title": "達和機車行",
   "Tel": "07-6894307",
   "Address": "高雄市六龜區文武里光復路290號",
   "Brand": "光陽",
   "Lat": 22.9945502,
   "Lon": 120.6352254
 },
 {
   "Title": "冠連機車行",
   "Tel": "07-6244988",
   "Address": "高雄市岡山區竹圍里大仁北路80號",
   "Brand": "三陽",
   "Lat": 22.8016203,
   "Lon": 120.3018266
 },
 {
   "Title": "龍豐機車行",
   "Tel": "07-6414687",
   "Address": "高雄市林園區中門里中門路55號",
   "Brand": "三陽",
   "Lat": 22.5023964,
   "Lon": 120.3719984
 },
 {
   "Title": "盛豐機車行",
   "Tel": "07-6821091",
   "Address": "高雄市美濃區合和里中正路一段168號",
   "Brand": "光陽",
   "Lat": 22.8961521,
   "Lon": 120.5438666
 },
 {
   "Title": "聖興機車材料行",
   "Tel": "07-7194999",
   "Address": "高雄市鳳山區青年路二段146-1號",
   "Brand": "光陽",
   "Lat": 22.6338684,
   "Lon": 120.3501286
 },
 {
   "Title": "領導機車行",
   "Tel": "07-7654567",
   "Address": "高雄市鳳山區老爺里五甲二路22號",
   "Brand": "三陽",
   "Lat": 22.6047438,
   "Lon": 120.3452097
 },
 {
   "Title": "仕川機車行",
   "Tel": "07-7031938",
   "Address": "高雄市鳳山區東門里誠德街125號",
   "Brand": "光陽",
   "Lat": 22.6247964,
   "Lon": 120.3741653
 },
 {
   "Title": "福嘉機車行",
   "Tel": "07-7470087",
   "Address": "高雄市鳳山區鎮北里經武路242號",
   "Brand": "三陽",
   "Lat": 22.6377737,
   "Lon": 120.364528
 },
 {
   "Title": "建順機車行",
   "Tel": "07-6113498",
   "Address": "高雄市橋頭區仕隆里成功南路69號",
   "Brand": "光陽",
   "Lat": 22.7542245,
   "Lon": 120.3118377
 },
 {
   "Title": "合得機車行",
   "Tel": "07-6152156",
   "Address": "高雄市燕巢區橫山里深興路165號",
   "Brand": "光陽",
   "Lat": 22.7714545,
   "Lon": 120.3873497
 },
 {
   "Title": "陸旺機車材料行",
   "Tel": "07-6113625",
   "Address": "高雄市橋頭區橋頭里成功路53號1樓",
   "Brand": "光陽",
   "Lat": 22.7604445,
   "Lon": 120.3092948
 },
 {
   "Title": "焜成機車材料行",
   "Tel": "07-3722111",
   "Address": "高雄市仁武區後安里安樂一街119號1樓",
   "Brand": "光陽",
   "Lat": 22.708951,
   "Lon": 120.3470645
 },
 {
   "Title": "金輪機車行",
   "Tel": "07-7472611",
   "Address": "高雄市鳳山區博愛路265號1樓",
   "Brand": "公會",
   "Lat": 22.629612,
   "Lon": 120.369496
 },
 {
   "Title": "永煜機車行",
   "Tel": "07-8122275",
   "Address": "高雄市鳳山區自強一路142號1樓",
   "Brand": "山葉",
   "Lat": 22.5914279,
   "Lon": 120.3291899
 },
 {
   "Title": "昇興機車行",
   "Tel": "07-7816868",
   "Address": "高雄市大寮區中興里平等路1號1樓",
   "Brand": "光陽",
   "Lat": 22.6201427,
   "Lon": 120.3510655
 },
 {
   "Title": "順天機車行",
   "Tel": "07-7816879",
   "Address": "高雄市大寮區會社里鳳林三路21-1號1樓",
   "Brand": "光陽",
   "Lat": 22.5945294,
   "Lon": 120.4018616
 },
 {
   "Title": "大豐機車行",
   "Tel": "07-6415937",
   "Address": "高雄市林園區林內里林內路106號1樓",
   "Brand": "光陽",
   "Lat": 22.532972,
   "Lon": 120.4006524
 },
 {
   "Title": "明記車行",
   "Tel": "07-7516206",
   "Address": "高雄市鳳山區五甲二路245號1樓",
   "Brand": "台鈴",
   "Lat": 22.6000916,
   "Lon": 120.3386288
 },
 {
   "Title": "昱銘車業行",
   "Tel": "07-7419639",
   "Address": "高雄市鳳山區建國路二段145號1樓",
   "Brand": "山葉",
   "Lat": 22.635648,
   "Lon": 120.359909
 },
 {
   "Title": "明鴻車業行",
   "Tel": "07-7423213",
   "Address": "高雄市鳳山區光復路一段20號",
   "Brand": "山葉",
   "Lat": 22.6291988,
   "Lon": 120.3537271
 },
 {
   "Title": "金國機車行",
   "Tel": "07-7465271",
   "Address": "高雄市鳳山區博愛路501號",
   "Brand": "光陽",
   "Lat": 22.6305934,
   "Lon": 120.3639752
 },
 {
   "Title": "一通機車行",
   "Tel": "07-7477333",
   "Address": "高雄市鳳山區經武路185號",
   "Brand": "光陽",
   "Lat": 22.6357013,
   "Lon": 120.3638142
 },
 {
   "Title": "宏國機車行",
   "Tel": "07-7678080",
   "Address": "高雄市鳳山區青年路二段346號",
   "Brand": "山葉",
   "Lat": 22.6410926,
   "Lon": 120.3511951
 },
 {
   "Title": "吉宏機車行",
   "Tel": "07-7420343",
   "Address": "高雄市鳳山區光復路167號1樓",
   "Brand": "山葉",
   "Lat": 22.6289187,
   "Lon": 120.357688
 },
 {
   "Title": "本義車業行",
   "Tel": "07-7661306",
   "Address": "高雄市鳳山區新強里新康街237巷6號1樓",
   "Brand": "山葉",
   "Lat": 22.612012,
   "Lon": 120.344096
 },
 {
   "Title": "建安機車行",
   "Tel": "07-7465746",
   "Address": "高雄市鳳山區瑞竹里中山東路221號",
   "Brand": "山葉",
   "Lat": 22.624276,
   "Lon": 120.370434
 },
 {
   "Title": "躍馬車行",
   "Tel": "07-7421688",
   "Address": "高雄市鳳山區鎮東里中山東路31-1號1樓",
   "Brand": "光陽",
   "Lat": 22.6208589,
   "Lon": 120.3652854
 },
 {
   "Title": "坤興機車行",
   "Tel": "07-7671931",
   "Address": "高雄市鳳山區國富里新富路590巷8號1樓",
   "Brand": "光陽",
   "Lat": 22.6148211,
   "Lon": 120.3483981
 },
 {
   "Title": "上紘機車行",
   "Tel": "07-7034658",
   "Address": "高雄市大寮區中庄里八德路77號1樓",
   "Brand": "光陽",
   "Lat": 22.6343365,
   "Lon": 120.3934388
 },
 {
   "Title": "弘大機車行",
   "Tel": "07-7879973",
   "Address": "高雄市大寮區內坑里仁德路16巷2號1樓",
   "Brand": "光陽",
   "Lat": 22.5912356,
   "Lon": 120.3974675
 },
 {
   "Title": "四海機車行",
   "Tel": "07-6221937",
   "Address": "高雄市岡山區平安里柳橋東路32號1樓",
   "Brand": "三陽",
   "Lat": 22.7911313,
   "Lon": 120.2952881
 },
 {
   "Title": "祥宏機車行",
   "Tel": "07-792-8292",
   "Address": "高雄市鳳山區鳳甲路505號",
   "Brand": "三陽",
   "Lat": 22.5975612,
   "Lon": 120.3459646
 },
 {
   "Title": "立成機車行",
   "Tel": "07-741-3557",
   "Address": "高雄市鳳山區經武路234號",
   "Brand": "光陽",
   "Lat": 22.637383,
   "Lon": 120.3644455
 },
 {
   "Title": "祥好機車行",
   "Tel": "07-713-4143",
   "Address": "高雄市鳳山區武慶二路128號",
   "Brand": "光陽",
   "Lat": 22.6128354,
   "Lon": 120.3327971
 },
 {
   "Title": "吉盈機車行",
   "Tel": "07-746-7138",
   "Address": "高雄市鳳山區王生明路176號",
   "Brand": "光陽",
   "Lat": 22.619902,
   "Lon": 120.36289
 },
 {
   "Title": "山遊龍重型機車行",
   "Tel": "07-792-7122",
   "Address": "高雄市鳳山區過埤里田中央路51號",
   "Brand": "光陽",
   "Lat": 22.5945353,
   "Lon": 120.3620023
 },
 {
   "Title": "富元車業行",
   "Tel": "07-782-5065",
   "Address": "高雄市鳳山區鳳林路208號",
   "Brand": "光陽",
   "Lat": 22.6222331,
   "Lon": 120.3757021
 },
 {
   "Title": "金泰車業有限公司",
   "Tel": "07-792-5262",
   "Address": "高雄市鳳山區過埤里鳳頂路113號",
   "Brand": "光陽",
   "Lat": 22.5871397,
   "Lon": 120.3586199
 },
 {
   "Title": "安泰車業行",
   "Tel": "07-7666906",
   "Address": "高雄市鳳山區新富路329號",
   "Brand": "山葉",
   "Lat": 22.613183,
   "Lon": 120.3448786
 },
 {
   "Title": "明順機車行",
   "Tel": "07-731-8304",
   "Address": "高雄市鳥松區學堂路203、205號1F",
   "Brand": "山葉",
   "Lat": 22.658099,
   "Lon": 120.3888389
 },
 {
   "Title": "盛嘉機車材料行",
   "Tel": "07-370-1993",
   "Address": "高雄市鳥松區本館路3-4號1樓",
   "Brand": "光陽",
   "Lat": 22.6478312,
   "Lon": 120.3465229
 },
 {
   "Title": "慶鴻車業行",
   "Tel": "07-788-2249",
   "Address": "高雄市大寮區大寮路973號",
   "Brand": "三陽",
   "Lat": 22.5919655,
   "Lon": 120.4222723
 },
 {
   "Title": "永翔機車行",
   "Tel": "07-781-1662",
   "Address": "高雄市大寮區鳳林三路191號",
   "Brand": "三陽",
   "Lat": 22.5987593,
   "Lon": 120.4002348
 },
 {
   "Title": "富興機車行",
   "Tel": "07-641-4460",
   "Address": "高雄市林園區林內里林內路230號",
   "Brand": "三陽",
   "Lat": 22.5723468,
   "Lon": 120.4010971
 },
 {
   "Title": "志發機車行",
   "Tel": "07-641-7905",
   "Address": "高雄市林園區東林西路323號1樓",
   "Brand": "光陽",
   "Lat": 22.5035092,
   "Lon": 120.3884232
 },
 {
   "Title": "宗一機車行",
   "Tel": "07-693-2769",
   "Address": "高雄市湖內區中山路一段301巷21弄120號",
   "Brand": "光陽",
   "Lat": 22.8807809,
   "Lon": 120.2483004
 },
 {
   "Title": "春益機車行",
   "Tel": "07-696-3781",
   "Address": "高雄市路竹區大社路111號",
   "Brand": "光陽",
   "Lat": 22.8640686,
   "Lon": 120.2629566
 },
 {
   "Title": "永吉機車行",
   "Tel": "07-691-0327",
   "Address": "高雄市永安區永安路142號",
   "Brand": "三陽",
   "Lat": 22.8170458,
   "Lon": 120.2216427
 }
]