[
 {
   "Title": "強勝輪業行",
   "Tel": "02-24223782",
   "Address": "基隆市信義區仁一路59號",
   "Brand": "光陽",
   "Lat": 25.1277947,
   "Lon": 121.7545325
 },
 {
   "Title": "德新車業有限公司",
   "Tel": "02-24270196",
   "Address": "基隆市仁愛區南榮路65號",
   "Brand": "山葉",
   "Lat": 25.1262024,
   "Lon": 121.7428972
 },
 {
   "Title": "日揚車業有限公司",
   "Tel": "02-24232472",
   "Address": "基隆市中山區西定路457號",
   "Brand": "山葉",
   "Lat": 25.140443,
   "Lon": 121.72778
 },
 {
   "Title": "玉昌機車有限公司",
   "Tel": "02-24247816",
   "Address": "基隆市中山區中山一路13號",
   "Brand": "山葉",
   "Lat": 25.130203,
   "Lon": 121.736705
 },
 {
   "Title": "忠仁車業有限公司",
   "Tel": "02-24315151",
   "Address": "基隆市安樂區安樂路二段88號",
   "Brand": "山葉",
   "Lat": 25.1231094,
   "Lon": 121.7256628
 },
 {
   "Title": "新宏富車業有限公司",
   "Tel": "02-24654037",
   "Address": "基隆市信義區東信路150號",
   "Brand": "台鈴",
   "Lat": 25.1278844,
   "Lon": 121.7653129
 },
 {
   "Title": "順利機車行",
   "Tel": "02-24691466",
   "Address": "基隆市中正區北寧路368號",
   "Brand": "三陽",
   "Lat": 25.1393206,
   "Lon": 121.7976983
 },
 {
   "Title": "名豐輪業有限公司",
   "Tel": "02-24223795",
   "Address": "基隆市仁愛區南榮路57號",
   "Brand": "摩特",
   "Lat": 25.1263325,
   "Lon": 121.7427312
 },
 {
   "Title": "明輝車業有限公司",
   "Tel": "02-24220005",
   "Address": "基隆市仁愛區南榮路219號",
   "Brand": "台鈴",
   "Lat": 25.1230045,
   "Lon": 121.7431109
 },
 {
   "Title": "銘信機車行",
   "Tel": "02-24282689",
   "Address": "基隆市信義區信二路252號",
   "Brand": "台鈴",
   "Lat": 25.12975,
   "Lon": 121.7502705
 },
 {
   "Title": "萬全機車行",
   "Tel": "02-24516811",
   "Address": "基隆市七堵區福三街22號",
   "Brand": "台鈴",
   "Lat": 25.0812108,
   "Lon": 121.6981845
 },
 {
   "Title": "文禾行",
   "Tel": "02-24236912",
   "Address": "基隆市仁愛區南榮路63號",
   "Brand": "光陽/哈特佛",
   "Lat": 25.1262357,
   "Lon": 121.7428748
 },
 {
   "Title": "信益車業有限公司",
   "Tel": "02-24246024",
   "Address": "基隆市仁愛區南榮路141號",
   "Brand": "台鈴",
   "Lat": 25.1246825,
   "Lon": 121.7430422
 },
 {
   "Title": "見元機車行",
   "Tel": "02-24579793",
   "Address": "基隆市暖暖區源遠路272之4號",
   "Brand": "三陽",
   "Lat": 25.0989285,
   "Lon": 121.7561593
 },
 {
   "Title": "文誠車業行",
   "Tel": "02-24333255",
   "Address": "基隆市安樂區基金一路117之6號",
   "Brand": "光陽/三陽/山葉",
   "Lat": 25.1387058,
   "Lon": 121.7176899
 },
 {
   "Title": "隆興機車行",
   "Tel": "02-24273826",
   "Address": "基隆市安樂區安一路214號",
   "Brand": "山葉",
   "Lat": 25.132746,
   "Lon": 121.731709
 },
 {
   "Title": "新隆輪業有限公司",
   "Tel": "02-24635106",
   "Address": "基隆市中正區祥豐街195號",
   "Brand": "台鈴",
   "Lat": 25.1434396,
   "Lon": 121.7656047
 },
 {
   "Title": "星福輪業行",
   "Tel": "02-24512548",
   "Address": "基隆市七堵區百三街27號",
   "Brand": "光陽",
   "Lat": 25.0820255,
   "Lon": 121.6954834
 },
 {
   "Title": "特色機車行",
   "Tel": "02-24552865",
   "Address": "基隆市七堵區明德一路24號",
   "Brand": "山葉",
   "Lat": 25.0996662,
   "Lon": 121.7180006
 },
 {
   "Title": "良達機車行",
   "Tel": "02-24629875",
   "Address": "基隆市中正區中正路752號",
   "Brand": "光陽",
   "Lat": 25.1519963,
   "Lon": 121.7697549
 },
 {
   "Title": "名傑車業行",
   "Tel": "02-24252310",
   "Address": "基隆市中山區中山一路279號",
   "Brand": "山葉",
   "Lat": 25.1360386,
   "Lon": 121.7405561
 },
 {
   "Title": "政旺車業行",
   "Tel": "02-24301199",
   "Address": "基隆市安樂區基金二路21號1樓",
   "Brand": "山葉",
   "Lat": 25.1436307,
   "Lon": 121.7023809
 },
 {
   "Title": "暖暖全省機車行",
   "Tel": "02-24583450",
   "Address": "基隆市暖暖區暖暖街208號1樓",
   "Brand": "山葉",
   "Lat": 25.0986879,
   "Lon": 121.7350354
 },
 {
   "Title": "圖展機車行",
   "Tel": "02-24652251",
   "Address": "基隆市信義區深澳坑路166-2號1樓",
   "Brand": "光陽",
   "Lat": 25.126521,
   "Lon": 121.7850144
 },
 {
   "Title": "友盛機車行",
   "Tel": "02-24291922",
   "Address": "基隆市中山區西定路95號",
   "Brand": "光陽",
   "Lat": 25.1337374,
   "Lon": 121.7350287
 },
 {
   "Title": "馳機機車行",
   "Tel": "02-24521945",
   "Address": "基隆市七堵區福五街202號1樓",
   "Brand": "山葉",
   "Lat": 25.0883331,
   "Lon": 121.6976869
 },
 {
   "Title": "鴻葉機車行",
   "Tel": "(02)24620852",
   "Address": "基隆市中正區中正路460號1樓",
   "Brand": "光陽",
   "Lat": 25.1481389,
   "Lon": 121.7619411
 },
 {
   "Title": "長欣機車行",
   "Tel": "(02)24693961",
   "Address": "基隆市新豐街401號1樓",
   "Brand": "光陽",
   "Lat": 25.1353424,
   "Lon": 121.7851134
 },
 {
   "Title": "昌億機車行",
   "Tel": "(02)24237417",
   "Address": "基隆市安樂區安一路177巷48號2樓",
   "Brand": "三陽",
   "Lat": 25.1324024,
   "Lon": 121.7317367
 },
 {
   "Title": "升泓機車行",
   "Tel": "(02)24620850",
   "Address": "基隆市中正區中正路718號",
   "Brand": "山葉",
   "Lat": 25.1522099,
   "Lon": 121.768939
 },
 {
   "Title": "安捷車業行",
   "Tel": "(02)-24334299",
   "Address": "基隆市安樂區基金一路361號1樓",
   "Brand": "光陽",
   "Lat": 25.1416509,
   "Lon": 121.704523
 }
]