[
 {
   "Title": "永達機車行",
   "Tel": "082-325039",
   "Address": "金門縣金城鎮東門里民族路21-1號",
   "Brand": "山葉",
   "Lat": 24.4308304,
   "Lon": 118.3208482
 },
 {
   "Title": "東發車行",
   "Tel": "082-324015",
   "Address": "金門縣金城鎮環島西路一段14號",
   "Brand": "台鈴",
   "Lat": 24.4307471,
   "Lon": 118.3213361
 },
 {
   "Title": "名陽機車行",
   "Tel": "082-333606",
   "Address": "金門縣金湖鎮黃海路23號",
   "Brand": "三陽",
   "Lat": 24.4431911,
   "Lon": 118.4149413
 },
 {
   "Title": "欣欣機車行",
   "Tel": "082-363036",
   "Address": "金門縣烈嶼鄉林湖村西路15之1號",
   "Brand": "三陽",
   "Lat": 24.427734,
   "Lon": 118.2497386
 },
 {
   "Title": "金葉車業行",
   "Tel": "082-352728",
   "Address": "金門縣金沙鎮陽宅新興街23號",
   "Brand": "山葉",
   "Lat": 24.4811092,
   "Lon": 118.4279933
 },
 {
   "Title": "新敬業機車行",
   "Tel": "082-322658",
   "Address": "金門縣金城鎮民族路17號",
   "Brand": "三陽",
   "Lat": 24.4308655,
   "Lon": 118.3209548
 },
 {
   "Title": "永慶機車行",
   "Tel": "082-331777",
   "Address": "金門縣金湖鎮市港路40號",
   "Brand": "三陽",
   "Lat": 24.4369501,
   "Lon": 118.4106293
 }
]