[
 {
   "Title": "信達機車行",
   "Tel": "037-995220",
   "Address": "苗栗縣大湖鄉大湖村1鄰中山路72號",
   "Brand": "三陽",
   "Lat": 24.4242561,
   "Lon": 120.8671329
 },
 {
   "Title": "宏輪機車行",
   "Tel": "037-991526",
   "Address": "苗栗縣大湖鄉明湖村6鄰中原路24號",
   "Brand": "三陽",
   "Lat": 24.4227664,
   "Lon": 120.8655472
 },
 {
   "Title": "廣達機車行",
   "Tel": "037-226700",
   "Address": "苗栗縣公館鄉鶴山村11鄰145號",
   "Brand": "光陽",
   "Lat": 24.5375451,
   "Lon": 120.8283589
 },
 {
   "Title": "欣原合機車行",
   "Tel": "037-466834",
   "Address": "苗栗縣竹南鎮營盤里大營路236號1樓",
   "Brand": "光陽",
   "Lat": 24.6880989,
   "Lon": 120.8728637
 },
 {
   "Title": "大明輪業商行",
   "Tel": "037-474700",
   "Address": "苗栗縣竹南鎮佳興里3鄰光復路299號",
   "Brand": "台鈴",
   "Lat": 24.6928319,
   "Lon": 120.879366
 },
 {
   "Title": "增興機車行",
   "Tel": "037-475666",
   "Address": "苗栗縣竹南鎮竹南里7鄰光復路80號",
   "Brand": "三陽",
   "Lat": 24.6852928,
   "Lon": 120.8791879
 },
 {
   "Title": "名翔車業有限公司",
   "Tel": "037-624752",
   "Address": "苗栗縣竹南鎮新南里3鄰維新路51號1樓",
   "Brand": "山葉",
   "Lat": 24.6839176,
   "Lon": 120.8820445
 },
 {
   "Title": "昌億機車行",
   "Tel": "042-5892591",
   "Address": "苗栗縣卓蘭鎮新厝里18鄰中山路148號",
   "Brand": "台鈴",
   "Lat": 24.313754,
   "Lon": 120.8242928
 },
 {
   "Title": "三鈴機車行",
   "Tel": "037-266662",
   "Address": "苗栗縣苗栗市上苗里2鄰中山路35號",
   "Brand": "光陽",
   "Lat": 24.5691907,
   "Lon": 120.8237015
 },
 {
   "Title": "昌泰機車行",
   "Tel": "037-262091",
   "Address": "苗栗縣苗栗市福星里嘉福街25號",
   "Brand": "光陽",
   "Lat": 24.577437,
   "Lon": 120.8251529
 },
 {
   "Title": "寶山城車業有限公司",
   "Tel": "037-353388",
   "Address": "苗栗縣苗栗市中苗里14鄰中山路516號",
   "Brand": "山葉",
   "Lat": 24.559338,
   "Lon": 120.820122
 },
 {
   "Title": "冠慶輪業有限公司",
   "Tel": "037-323126",
   "Address": "苗栗縣苗栗市建功里6鄰中正路242號",
   "Brand": "山葉",
   "Lat": 24.5643663,
   "Lon": 120.8239767
 },
 {
   "Title": "隆翔輪業有限公司",
   "Tel": "037-260879",
   "Address": "苗栗縣苗栗市上苗里4鄰中正路60號",
   "Brand": "台鈴",
   "Lat": 24.5686672,
   "Lon": 120.8243443
 },
 {
   "Title": "大勝車業行",
   "Tel": "037-331246",
   "Address": "苗栗縣苗栗市勝利里2鄰中正路947號",
   "Brand": "山葉",
   "Lat": 24.550534,
   "Lon": 120.816057
 },
 {
   "Title": "金昌輪業有限公司",
   "Tel": "037-321952",
   "Address": "苗栗縣苗栗市青苗里至公路53號",
   "Brand": "山葉",
   "Lat": 24.5574219,
   "Lon": 120.8188801
 },
 {
   "Title": "順興機車行",
   "Tel": "037-355930",
   "Address": "苗栗縣苗栗市勝利里新東街160號",
   "Brand": "光陽",
   "Lat": 24.5510693,
   "Lon": 120.8215605
 },
 {
   "Title": "宏賢車業有限公司",
   "Tel": "037-866168",
   "Address": "苗栗縣苑裡鎮客庄里中山路2-4號",
   "Brand": "光陽",
   "Lat": 24.4389285,
   "Lon": 120.6498655
 },
 {
   "Title": "明興機車行",
   "Tel": "037-860425",
   "Address": "苗栗縣苑裡鎮西勢里1鄰中山路95號1樓",
   "Brand": "山葉",
   "Lat": 24.4408414,
   "Lon": 120.6506102
 },
 {
   "Title": "大雷車業有限公司",
   "Tel": "037-755175",
   "Address": "苗栗縣通霄鎮通西里25鄰中山路207號",
   "Brand": "山葉",
   "Lat": 24.4906883,
   "Lon": 120.6785506
 },
 {
   "Title": "金祥機車行",
   "Tel": "037-753669",
   "Address": "苗栗縣通霄鎮平安里中正路275號",
   "Brand": "光陽",
   "Lat": 24.4948774,
   "Lon": 120.6893997
 },
 {
   "Title": "永宏機車行",
   "Tel": "037-672746",
   "Address": "苗栗縣頭份市新華里12鄰中正一路74號",
   "Brand": "三陽",
   "Lat": 24.6865847,
   "Lon": 120.9258474
 },
 {
   "Title": "增欣機車行",
   "Tel": "037-663313",
   "Address": "苗栗縣頭份市自強里中華路1012號1樓",
   "Brand": "三陽",
   "Lat": 24.6872124,
   "Lon": 120.9095295
 },
 {
   "Title": "冠葉車業有限公司",
   "Tel": "037-668581",
   "Address": "苗栗縣頭份市民權里3鄰中華路790號",
   "Brand": "山葉",
   "Lat": 24.68161,
   "Lon": 120.90359
 },
 {
   "Title": "久勝車業行",
   "Tel": "037-663407",
   "Address": "苗栗縣頭份鎮民權里3鄰中華路800號1樓",
   "Brand": "山葉",
   "Lat": 24.681746,
   "Lon": 120.903773
 },
 {
   "Title": "木森機車行",
   "Tel": "037-666055",
   "Address": "苗栗縣頭份市忠孝里信東路172號",
   "Brand": "山葉",
   "Lat": 24.690792,
   "Lon": 120.908832
 },
 {
   "Title": "全輪機車行",
   "Tel": "037-831038",
   "Address": "苗栗縣三灣鄉三灣村7鄰中正路198號",
   "Brand": "三陽",
   "Lat": 24.6540441,
   "Lon": 120.9563176
 },
 {
   "Title": "建龍機車行",
   "Tel": "037-225979",
   "Address": "苗栗縣公館鄉玉谷村5鄰107號",
   "Brand": "光陽",
   "Lat": 24.5195108,
   "Lon": 120.8254872
 },
 {
   "Title": "進成機車行",
   "Tel": "037-222757",
   "Address": "苗栗縣公館鄉館中村12鄰近光路105號",
   "Brand": "光陽",
   "Lat": 24.5031088,
   "Lon": 120.8273377
 },
 {
   "Title": "德明機車行",
   "Tel": "037-225767",
   "Address": "苗栗縣公館鄉館中村17鄰通明街40之2號",
   "Brand": "三陽",
   "Lat": 24.503311,
   "Lon": 120.8253894
 },
 {
   "Title": "順鎰機車行",
   "Tel": "037-461862",
   "Address": "苗栗縣竹南鎮中美里5鄰西門17之5號",
   "Brand": "光陽",
   "Lat": 24.6822944,
   "Lon": 120.8627247
 },
 {
   "Title": "益昇機車行",
   "Tel": "037-460193",
   "Address": "苗栗縣竹南鎮正南里24鄰大營路80號",
   "Brand": "光陽",
   "Lat": 24.6831768,
   "Lon": 120.8732549
 },
 {
   "Title": "通川實業有限公司",
   "Tel": "037-474693",
   "Address": "苗栗縣竹南鎮照南里9鄰光復路316號1樓",
   "Brand": "比雅久",
   "Lat": 24.690955,
   "Lon": 120.879689
 },
 {
   "Title": "益豐機車行",
   "Tel": "037-476613",
   "Address": "苗栗縣竹南鎮照南里10鄰光復路382號1樓",
   "Brand": "山葉",
   "Lat": 24.6923483,
   "Lon": 120.8797196
 },
 {
   "Title": "騰翔機車行",
   "Tel": "037-822222",
   "Address": "苗栗縣南庄鄉東村9鄰中正路82號",
   "Brand": "三陽",
   "Lat": 24.6008805,
   "Lon": 120.9990627
 },
 {
   "Title": "宜昌輪業有限公司",
   "Tel": "037-722338",
   "Address": "苗栗縣後龍鎮北龍里6鄰中山路22號",
   "Brand": "三陽",
   "Lat": 24.6157378,
   "Lon": 120.7890276
 },
 {
   "Title": "展銓輪業有限公司",
   "Tel": "037-726881",
   "Address": "苗栗縣後龍鎮北龍里中華路60-6號",
   "Brand": "台鈴",
   "Lat": 24.6164055,
   "Lon": 120.7899826
 },
 {
   "Title": "楓城機車行",
   "Tel": "037-722660",
   "Address": "苗栗縣後龍鎮北龍里1鄰中華路60之16號",
   "Brand": "三陽",
   "Lat": 24.61664,
   "Lon": 120.790702
 },
 {
   "Title": "明輪機車行",
   "Tel": "037-727543",
   "Address": "苗栗縣後龍鎮大庄里14鄰成功路116號",
   "Brand": "三陽",
   "Lat": 24.6146294,
   "Lon": 120.7925471
 },
 {
   "Title": "福星機車行",
   "Tel": "037-272581",
   "Address": "苗栗縣苗栗市福星里22鄰中華路198號",
   "Brand": "三陽",
   "Lat": 24.576273,
   "Lon": 120.824986
 },
 {
   "Title": "冠榮機車行",
   "Tel": "037-320697",
   "Address": "苗栗縣苗栗市福麗里至公路228號1樓",
   "Brand": "三陽",
   "Lat": 24.5603965,
   "Lon": 120.8153508
 },
 {
   "Title": "敬悅機車行",
   "Tel": "037-359290",
   "Address": "苗栗縣苗栗市恭敬里信義街17號1樓",
   "Brand": "三陽",
   "Lat": 24.550821,
   "Lon": 120.8153421
 },
 {
   "Title": "永興車業行",
   "Tel": "037-270102",
   "Address": "苗栗縣苗栗市清華里6鄰為公路161號",
   "Brand": "三陽",
   "Lat": 24.570919,
   "Lon": 120.826613
 },
 {
   "Title": "錦達機車行",
   "Tel": "037-740467",
   "Address": "苗栗縣苑裡鎮山腳里7鄰山腳167號",
   "Brand": "三陽",
   "Lat": 24.417739,
   "Lon": 120.687571
 },
 {
   "Title": "全順機車行",
   "Tel": "037-853818",
   "Address": "苗栗縣苑裡鎮田心里6鄰田心77之1號",
   "Brand": "三陽",
   "Lat": 24.4186414,
   "Lon": 120.6548033
 },
 {
   "Title": "東昌機車行",
   "Tel": "037-742062",
   "Address": "苗栗縣苑裡鎮社苓里9鄰社苓106之1號",
   "Brand": "光陽",
   "Lat": 24.3998699,
   "Lon": 120.6749133
 },
 {
   "Title": "明村機車行",
   "Tel": "037-865530",
   "Address": "苗栗縣苑裡鎮苑南里2鄰建國路5號1樓",
   "Brand": "三陽",
   "Lat": 24.4424744,
   "Lon": 120.6568211
 },
 {
   "Title": "永信機車行",
   "Tel": "037-751927",
   "Address": "苗栗縣通霄鎮通南里6鄰中山路135號",
   "Brand": "三陽",
   "Lat": 24.4808256,
   "Lon": 120.6754739
 },
 {
   "Title": "鴻億輪業行",
   "Tel": "037-754889",
   "Address": "苗栗縣通霄鎮通西里30鄰信義路61號",
   "Brand": "三陽",
   "Lat": 24.4877924,
   "Lon": 120.679756
 },
 {
   "Title": "永亨輪業有限公司",
   "Tel": "037-756888",
   "Address": "苗栗縣通霄鎮平元里10鄰南和路一段5號",
   "Brand": "三陽",
   "Lat": 24.487077,
   "Lon": 120.682205
 },
 {
   "Title": "宏晟機車行",
   "Tel": "037-980909",
   "Address": "苗栗縣銅鑼鄉銅鑼村33鄰中正路50號1樓",
   "Brand": "三陽",
   "Lat": 24.4848151,
   "Lon": 120.787026
 },
 {
   "Title": "合興機車行",
   "Tel": "037-981165",
   "Address": "苗栗縣銅鑼鄉銅鑼村29鄰中正路64號",
   "Brand": "光陽",
   "Lat": 24.485145,
   "Lon": 120.787045
 },
 {
   "Title": "金泰機車行",
   "Tel": "037-675959",
   "Address": "苗栗縣頭份市新華里中正一路28號",
   "Brand": "三陽",
   "Lat": 24.6869165,
   "Lon": 120.9246076
 },
 {
   "Title": "東祥機車行",
   "Tel": "037-666891",
   "Address": "苗栗縣頭份市斗煥里14鄰中正二路5號",
   "Brand": "山葉",
   "Lat": 24.682555,
   "Lon": 120.940836
 },
 {
   "Title": "驊鋒機車行",
   "Tel": "037-663218",
   "Address": "苗栗縣頭份市和平里9鄰中華路886號",
   "Brand": "台鈴",
   "Lat": 24.68309,
   "Lon": 120.905725
 },
 {
   "Title": "良友機車行",
   "Tel": "037-664004",
   "Address": "苗栗縣頭份市成功里10鄰建國路191號1樓",
   "Brand": "三陽",
   "Lat": 24.6965724,
   "Lon": 120.9084258
 },
 {
   "Title": "華興機車行",
   "Tel": "037-250573",
   "Address": "苗栗縣頭屋鄉頭屋村14鄰尖豐路68號",
   "Brand": "山葉",
   "Lat": 24.5756303,
   "Lon": 120.852631
 },
 {
   "Title": "信益機車行",
   "Tel": "037-877605",
   "Address": "苗栗縣三義鄉廣盛村20鄰中正路106號",
   "Brand": "山葉",
   "Lat": 24.413978,
   "Lon": 120.771999
 },
 {
   "Title": "詮鍀輪業行",
   "Tel": "037-563609",
   "Address": "苗栗縣造橋鄉造橋村1鄰平仁路7號",
   "Brand": "三陽",
   "Lat": 24.6400561,
   "Lon": 120.8654227
 },
 {
   "Title": "鎮吉機車行",
   "Tel": "037-874993",
   "Address": "苗栗縣三義鄉廣盛村中正路183號",
   "Brand": "光陽",
   "Lat": 24.4111765,
   "Lon": 120.7686899
 },
 {
   "Title": "台豐機車行",
   "Tel": "042-5893198",
   "Address": "苗栗縣卓蘭鎮新厝里中正路15號",
   "Brand": "三陽",
   "Lat": 24.3104532,
   "Lon": 120.8245318
 },
 {
   "Title": "東光機車行",
   "Tel": "037-922122",
   "Address": "苗栗縣西湖鄉湖東村11鄰湖東12號",
   "Brand": "山葉",
   "Lat": 24.5767772,
   "Lon": 120.7562677
 },
 {
   "Title": "順發機車行",
   "Tel": "037-251811",
   "Address": "苗栗縣頭屋鄉頭屋村16鄰尖豐路149號",
   "Brand": "光陽",
   "Lat": 24.5741617,
   "Lon": 120.8500639
 },
 {
   "Title": "均堉車業行",
   "Tel": "037-696125",
   "Address": "苗栗縣頭份鎮中華路1235號",
   "Brand": "光陽",
   "Lat": 24.6906873,
   "Lon": 120.9129825
 },
 {
   "Title": "尚麒機車行",
   "Tel": "037-481530",
   "Address": "苗栗縣竹南鎮光復路345號",
   "Brand": "光陽",
   "Lat": 24.6955854,
   "Lon": 120.879486
 },
 {
   "Title": "德山車行",
   "Tel": "037-865811",
   "Address": "苗栗縣苑裡鎮中正里10鄰43號",
   "Brand": "三陽",
   "Lat": 24.4274123,
   "Lon": 120.6645667
 },
 {
   "Title": "榮康輪業行",
   "Tel": "037-981909",
   "Address": "苗栗縣銅鑼鄉銅鑼村10鄰中正路137號",
   "Brand": "三陽",
   "Lat": 24.4874202,
   "Lon": 120.7871538
 },
 {
   "Title": "振芳機車行",
   "Tel": "037-860542",
   "Address": "苗栗縣苑裡鎮中正里12鄰中正路101之20號",
   "Brand": "光陽",
   "Lat": 24.4310074,
   "Lon": 120.6623117
 },
 {
   "Title": "交通機車行",
   "Tel": "037-668365",
   "Address": "苗栗縣頭份鎮民族里民族路183號",
   "Brand": "光陽",
   "Lat": 24.6847196,
   "Lon": 120.9033711
 },
 {
   "Title": "大弘車業商行",
   "Tel": "037-680218",
   "Address": "苗栗縣頭份鎮民族路358號",
   "Brand": "三陽",
   "Lat": 24.685613,
   "Lon": 120.897995
 },
 {
   "Title": "錦水機車行",
   "Tel": "037-541231",
   "Address": "苗栗縣造橋鄉錦水村2鄰7之13號",
   "Brand": "光陽",
   "Lat": 24.6096547,
   "Lon": 120.8929541
 },
 {
   "Title": "翊富機車行",
   "Tel": "037-267598",
   "Address": "苗栗市嘉盛里為公路401號",
   "Brand": "三陽",
   "Lat": 24.572447,
   "Lon": 120.832232
 },
 {
   "Title": "勝立車業有限公司",
   "Tel": "037-732237",
   "Address": "苗栗縣後龍鎮大庄里3鄰民權路62號1樓",
   "Brand": "山葉",
   "Lat": 24.6111968,
   "Lon": 120.7966672
 },
 {
   "Title": "昌興機車行",
   "Tel": "037-931371",
   "Address": "苗栗縣獅潭鄉新店村11鄰新店119號",
   "Brand": "光陽",
   "Lat": 24.5279458,
   "Lon": 120.9359421
 },
 {
   "Title": "煌龍機車行",
   "Tel": "037-268257",
   "Address": "苗栗縣苗栗市福安里10鄰中華路594號",
   "Brand": "光陽",
   "Lat": 24.586176,
   "Lon": 120.8252947
 },
 {
   "Title": "紅龍機車行",
   "Tel": "037-985252",
   "Address": "苗栗縣銅鑼鄉銅鑼村永樂路40號",
   "Brand": "三陽",
   "Lat": 24.488709,
   "Lon": 120.788589
 },
 {
   "Title": "皓泰車業",
   "Tel": "037-672562",
   "Address": "苗栗縣頭份鎮忠孝里忠孝一路100號1樓",
   "Brand": "山葉",
   "Lat": 24.6899154,
   "Lon": 120.9084412
 },
 {
   "Title": "向和車業行",
   "Tel": "037-671919",
   "Address": "苗栗縣頭份鎮山下里建國路2段118號1樓",
   "Brand": "山葉",
   "Lat": 24.6966786,
   "Lon": 120.9038826
 }
]