[
 {
   "Title": "和泰機車行",
   "Tel": "049-2775171",
   "Address": "南投縣水里鄉南光村中山路一段52號",
   "Brand": "光陽",
   "Lat": 23.8076707,
   "Lon": 120.8576268
 },
 {
   "Title": "政興機車行",
   "Tel": "049-2305640",
   "Address": "南投縣草屯鎮敦和路50-6號1樓",
   "Brand": "光陽",
   "Lat": 23.9809435,
   "Lon": 120.6796029
 },
 {
   "Title": "昇益機車行",
   "Tel": "049-2643609",
   "Address": "南投縣竹山鎮前山路一段52號",
   "Brand": "三陽",
   "Lat": 23.757385,
   "Lon": 120.679919
 },
 {
   "Title": "國龍機車行",
   "Tel": "049-2647270",
   "Address": "南投縣竹山鎮頂林路191號",
   "Brand": "三陽",
   "Lat": 23.7492359,
   "Lon": 120.6814934
 },
 {
   "Title": "大唐機車行",
   "Tel": "049-2623072",
   "Address": "南投縣竹山鎮集山路一段2264號",
   "Brand": "光陽",
   "Lat": 23.804314,
   "Lon": 120.7151482
 },
 {
   "Title": "江氏輪業有限公司",
   "Tel": "049-2642643",
   "Address": "南投縣竹山鎮集山路三段817號",
   "Brand": "山葉",
   "Lat": 23.7581032,
   "Lon": 120.6850586
 },
 {
   "Title": "銓興機車行",
   "Tel": "049-2225825",
   "Address": "南投縣南投市三和里彰南路一段1026號",
   "Brand": "三陽",
   "Lat": 23.9049038,
   "Lon": 120.685498
 },
 {
   "Title": "大埤機車行",
   "Tel": "049-2325264",
   "Address": "南投縣南投市大埤街120號1F",
   "Brand": "山葉",
   "Lat": 23.9308597,
   "Lon": 120.7074774
 },
 {
   "Title": "祥順機車行",
   "Tel": "049-2329398",
   "Address": "南投縣南投市中正路318號一樓",
   "Brand": "光陽",
   "Lat": 23.9450763,
   "Lon": 120.6946148
 },
 {
   "Title": "光隆車行",
   "Tel": "049-2988980",
   "Address": "南投縣埔里鎮東門里忠孝路186號",
   "Brand": "光陽",
   "Lat": 23.9636477,
   "Lon": 120.9712582
 },
 {
   "Title": "進萬機車行",
   "Tel": "049-2989515",
   "Address": "南投縣埔里鎮北門里西安路1段196號",
   "Brand": "山葉",
   "Lat": 23.9685382,
   "Lon": 120.9693553
 },
 {
   "Title": "大明車行",
   "Tel": "049-2223520",
   "Address": "南投縣南投市民族路114號",
   "Brand": "山葉",
   "Lat": 23.9103366,
   "Lon": 120.6909595
 },
 {
   "Title": "信安機車行",
   "Tel": "049-2232226",
   "Address": "南投縣南投市民族路162號",
   "Brand": "山葉",
   "Lat": 23.9098067,
   "Lon": 120.689775
 },
 {
   "Title": "安成機車行",
   "Tel": "049-2223398",
   "Address": "南投縣南投市民族路51號",
   "Brand": "三陽",
   "Lat": 23.910433,
   "Lon": 120.692485
 },
 {
   "Title": "吉興機車行",
   "Tel": "049-2233823",
   "Address": "南投縣南投市南崗二路347.349號",
   "Brand": "光陽",
   "Lat": 23.9141615,
   "Lon": 120.677231
 },
 {
   "Title": "美輪機車行",
   "Tel": "049-2223127",
   "Address": "南投縣南投市彰南路一段736號",
   "Brand": "三陽",
   "Lat": 23.8986525,
   "Lon": 120.6860944
 },
 {
   "Title": "千聖機車行",
   "Tel": "049-2230940",
   "Address": "南投縣南投市彰南路二段453號",
   "Brand": "台鈴",
   "Lat": 23.9163081,
   "Lon": 120.678461
 },
 {
   "Title": "光隆車行忠孝店",
   "Tel": "049-2987547",
   "Address": "南投縣埔里鎮中山路二段310號",
   "Brand": "光陽",
   "Lat": 23.9649188,
   "Lon": 120.9670801
 },
 {
   "Title": "宏興機車行",
   "Tel": "049-2984383",
   "Address": "南投縣埔里鎮中正路507號",
   "Brand": "台鈴",
   "Lat": 23.9671498,
   "Lon": 120.965027
 },
 {
   "Title": "大山機車行",
   "Tel": "049-2992690",
   "Address": "南投縣埔里鎮中正路536-1號",
   "Brand": "山葉",
   "Lat": 23.9691627,
   "Lon": 120.9644155
 },
 {
   "Title": "嘉順機車行",
   "Tel": "049-2422606",
   "Address": "南投縣埔里鎮北環路24號",
   "Brand": "山葉",
   "Lat": 23.9659131,
   "Lon": 120.972857
 },
 {
   "Title": "埔里機車行",
   "Tel": "049-2989114",
   "Address": "南投縣埔里鎮薰化里西寧路28之3號",
   "Brand": "三陽",
   "Lat": 23.9661168,
   "Lon": 120.9628611
 },
 {
   "Title": "埔里明峰企業有限公司",
   "Tel": "049-2983217",
   "Address": "南投縣埔里鎮南昌街281號",
   "Brand": "三陽",
   "Lat": 23.9672067,
   "Lon": 120.9630027
 },
 {
   "Title": "瑞彬機車行",
   "Tel": "049-2560492",
   "Address": "南投縣草屯鎮中正路332之1號",
   "Brand": "光陽",
   "Lat": 23.9791207,
   "Lon": 120.7215395
 },
 {
   "Title": "草屯山葉機車行",
   "Tel": "049-2333880",
   "Address": "南投縣草屯鎮中正路788號",
   "Brand": "山葉",
   "Lat": 23.9820639,
   "Lon": 120.684916
 },
 {
   "Title": "三田機車行",
   "Tel": "049-2334961",
   "Address": "南投縣草屯鎮中正路884號1樓",
   "Brand": "山葉",
   "Lat": 23.9849759,
   "Lon": 120.686764
 },
 {
   "Title": "隆豐機車行",
   "Tel": "049-2338817",
   "Address": "南投縣草屯鎮玉屏路234號",
   "Brand": "山葉",
   "Lat": 23.9803977,
   "Lon": 120.6862024
 },
 {
   "Title": "鎮成機車行",
   "Tel": "049-2334529",
   "Address": "南投縣草屯鎮芬草路二段478號",
   "Brand": "三陽",
   "Lat": 23.9925382,
   "Lon": 120.669946
 },
 {
   "Title": "自強機車行",
   "Tel": "049-2328517",
   "Address": "南投縣草屯鎮芬草路一段151號",
   "Brand": "三陽",
   "Lat": 23.9845555,
   "Lon": 120.6816418
 },
 {
   "Title": "陞陽車業股份有限公司",
   "Tel": "049-2312981",
   "Address": "南投縣南投市內興里24鄰中興路96號",
   "Brand": "光陽",
   "Lat": 23.9378848,
   "Lon": 120.6962499
 },
 {
   "Title": "正忠機車行",
   "Tel": "049-2451520",
   "Address": "南投縣國姓鄉北山村中正路四段163號",
   "Brand": "三陽",
   "Lat": 23.9818539,
   "Lon": 120.8725681
 },
 {
   "Title": "承興機車行",
   "Tel": "049-2902191",
   "Address": "南投縣埔里鎮同聲里隆生路83之12號",
   "Brand": "山葉",
   "Lat": 23.9595998,
   "Lon": 120.9673456
 },
 {
   "Title": "三盛機車有限公司",
   "Tel": "049-2771087",
   "Address": "南投縣水里鄉水里村民權路200號",
   "Brand": "三陽",
   "Lat": 23.8174916,
   "Lon": 120.8527428
 },
 {
   "Title": "偉聖機車行",
   "Tel": "049-2870868",
   "Address": "南投縣水里鄉民生路230號1樓",
   "Brand": "山葉",
   "Lat": 23.8178085,
   "Lon": 120.8536796
 },
 {
   "Title": "松林機車行",
   "Tel": "049-2772898",
   "Address": "南投縣水里鄉民權路81號",
   "Brand": "山葉",
   "Lat": 23.8182975,
   "Lon": 120.8546325
 },
 {
   "Title": "翼達機車行",
   "Tel": "049-2770479",
   "Address": "南投縣水里鄉民權路187號",
   "Brand": "山葉",
   "Lat": 23.8170869,
   "Lon": 120.8520754
 },
 {
   "Title": "宏明機車行",
   "Tel": "049-2732361",
   "Address": "南投縣名間鄉名松路一段29號",
   "Brand": "山葉",
   "Lat": 23.84227,
   "Lon": 120.695163
 },
 {
   "Title": "建興機車行",
   "Tel": "049-2731383",
   "Address": "南投縣名間鄉南雅村員集路146-7號",
   "Brand": "三陽",
   "Lat": 23.8356881,
   "Lon": 120.7016894
 },
 {
   "Title": "鋒錡機車行",
   "Tel": "049-2355936",
   "Address": "南投縣草屯鎮太平路二段130號",
   "Brand": "三陽",
   "Lat": 23.9723631,
   "Lon": 120.6833821
 },
 {
   "Title": "福裕機車行",
   "Tel": "049-2335835",
   "Address": "南投縣南投市營北里中正路232號",
   "Brand": "三陽",
   "Lat": 23.945972,
   "Lon": 120.693867
 },
 {
   "Title": "順進機車行",
   "Tel": "049-2228398",
   "Address": "南投縣南投市民族路12號",
   "Brand": "三陽",
   "Lat": 23.911089,
   "Lon": 120.6931981
 },
 {
   "Title": "昌隆機車行",
   "Tel": "049-2223645",
   "Address": "南投縣南投市彰南路2段323號1F",
   "Brand": "三陽",
   "Lat": 23.9139209,
   "Lon": 120.68045
 },
 {
   "Title": "日盛機車行",
   "Tel": "049-2250790",
   "Address": "南投縣南投市彰南路2段713號",
   "Brand": "三陽",
   "Lat": 23.922042,
   "Lon": 120.677201
 },
 {
   "Title": "聖鑫機車精品店",
   "Tel": "049-2915914",
   "Address": "南投縣埔里鎮大城里中山路3段623號",
   "Brand": "光陽",
   "Lat": 23.970806,
   "Lon": 120.9493818
 },
 {
   "Title": "永富車業",
   "Tel": "049-2424671",
   "Address": "南投縣埔里鎮中山路三段107號",
   "Brand": "山葉",
   "Lat": 23.9665257,
   "Lon": 120.9627683
 },
 {
   "Title": "東山機車行",
   "Tel": "049-2984772",
   "Address": "南投縣埔里鎮中正路183-2號",
   "Brand": "三陽",
   "Lat": 23.9569407,
   "Lon": 120.973639
 },
 {
   "Title": "城中車行",
   "Tel": "049-2552132",
   "Address": "南投縣草屯鎮土城里中正路167號",
   "Brand": "光陽",
   "Lat": 23.9848071,
   "Lon": 120.7444482
 },
 {
   "Title": "永興機車行",
   "Tel": "049-2332087",
   "Address": "南投縣草屯鎮山腳里虎山路372號1F",
   "Brand": "三陽",
   "Lat": 23.9656842,
   "Lon": 120.6867043
 },
 {
   "Title": "明利車業",
   "Tel": "049-2328373",
   "Address": "南投縣草屯鎮玉峰里中正路782之1號一樓",
   "Brand": "山葉",
   "Lat": 23.9819847,
   "Lon": 120.6848548
 },
 {
   "Title": "新士車業(股)公司",
   "Tel": "049-2365537",
   "Address": "南投縣草屯鎮中正路708號",
   "Brand": "偉士牌",
   "Lat": 23.9803983,
   "Lon": 120.684593
 },
 {
   "Title": "輝煌機車行",
   "Tel": "049-2333677",
   "Address": "南投縣草屯鎮玉峰街112號",
   "Brand": "山葉",
   "Lat": 23.9808443,
   "Lon": 120.6848764
 },
 {
   "Title": "三盛機車行",
   "Tel": "049-2702900",
   "Address": "南投縣信義鄉同富村同和巷74之1號",
   "Brand": "三陽",
   "Lat": 23.5908707,
   "Lon": 120.8896506
 },
 {
   "Title": "泉源車行",
   "Tel": "049-2330742",
   "Address": "南投縣草屯鎮新庄里芬草路二段460號",
   "Brand": "三陽",
   "Lat": 23.9925715,
   "Lon": 120.6702448
 },
 {
   "Title": "台新車行",
   "Tel": "049-2336297",
   "Address": "南投縣草屯鎮碧山路1038-4號",
   "Brand": "三陽",
   "Lat": 23.9739706,
   "Lon": 120.6583567
 },
 {
   "Title": "長興機車行",
   "Tel": "049-2721911",
   "Address": "南投縣國姓鄉國姓路433-31號",
   "Brand": "山葉",
   "Lat": 24.037089,
   "Lon": 120.853721
 },
 {
   "Title": "諭昇機車行",
   "Tel": "049-2692991",
   "Address": "南投縣中寮鄉永平村永安街162號",
   "Brand": "光陽",
   "Lat": 23.8803836,
   "Lon": 120.7651798
 },
 {
   "Title": "李王順機車行",
   "Tel": "049-2791142",
   "Address": "南投縣信義鄉明德村明德街19號",
   "Brand": "三陽",
   "Lat": 23.697275,
   "Lon": 120.853412
 },
 {
   "Title": "金進機車行",
   "Tel": "049-2896275",
   "Address": "南投縣魚池鄉新城村通文巷9-9號",
   "Brand": "三陽",
   "Lat": 23.9084364,
   "Lon": 120.9304598
 },
 {
   "Title": "振榮機車行",
   "Tel": "049-2762469",
   "Address": "南投縣集集鎮八張里民生路15之4號",
   "Brand": "光陽",
   "Lat": 23.827892,
   "Lon": 120.7919227
 },
 {
   "Title": "好朋友機車行",
   "Tel": "049-2752680",
   "Address": "南投縣鹿谷鄉鹿谷村鹿彰路350號",
   "Brand": "三陽",
   "Lat": 23.7484277,
   "Lon": 120.7511102
 },
 {
   "Title": "東億機車行",
   "Tel": "049-2649612",
   "Address": "南投縣竹山鎮延和里集山路三段576號",
   "Brand": "光陽",
   "Lat": 23.7612872,
   "Lon": 120.692883
 },
 {
   "Title": "大勝機車行",
   "Tel": "049-2563120",
   "Address": "南投縣草屯鎮富寮里中正路557-6號",
   "Brand": "三陽",
   "Lat": 23.978493,
   "Lon": 120.699509
 },
 {
   "Title": "昇達車業行",
   "Tel": "049-2336386",
   "Address": "南投縣草屯鎮敦和里仁愛街280號",
   "Brand": "光陽",
   "Lat": 23.9849959,
   "Lon": 120.678097
 },
 {
   "Title": "勝烽車業商行",
   "Tel": "049-2992911",
   "Address": "南投縣埔里鎮中華路83號",
   "Brand": "光陽",
   "Lat": 23.9671015,
   "Lon": 120.9741069
 },
 {
   "Title": "先陽機車行",
   "Tel": "049-2982789",
   "Address": "南投縣埔里鎮中山路二段92號",
   "Brand": "三陽",
   "Lat": 23.9699479,
   "Lon": 120.973765
 },
 {
   "Title": "信誼機車行",
   "Tel": "049-2651995",
   "Address": "南投縣竹山鎮竹山里大明路258號",
   "Brand": "光陽",
   "Lat": 23.760554,
   "Lon": 120.685541
 },
 {
   "Title": "進成機車行",
   "Tel": "049-2802542",
   "Address": "南投縣仁愛鄉仁和路18號",
   "Brand": "山葉",
   "Lat": 24.0197625,
   "Lon": 121.1313434
 },
 {
   "Title": "永旺車業行",
   "Tel": "049-2997202",
   "Address": "南投縣埔里鎮北環路234號",
   "Brand": "三陽",
   "Lat": 23.9705027,
   "Lon": 120.9677709
 },
 {
   "Title": "草屯國棟車業行",
   "Tel": "049-2310880",
   "Address": "南投縣草屯鎮敦和里仁愛街222號",
   "Brand": "三陽",
   "Lat": 23.9836828,
   "Lon": 120.6781508
 },
 {
   "Title": "營盤機車行",
   "Tel": "049-2390712",
   "Address": "南投市中華路147號",
   "Brand": "山葉",
   "Lat": 23.9433202,
   "Lon": 120.6758499
 },
 {
   "Title": "日安機車行",
   "Tel": "049-2273061",
   "Address": "南投縣名間鄉南田路86之19號",
   "Brand": "光陽",
   "Lat": 23.8759978,
   "Lon": 120.6562377
 },
 {
   "Title": "添進機車行",
   "Tel": "049-2225761",
   "Address": "南投縣南投市三民里彰南路二段183號",
   "Brand": "三陽",
   "Lat": 23.911552,
   "Lon": 120.682069
 },
 {
   "Title": "裕昌機車行",
   "Tel": "049-2651554",
   "Address": "南投縣竹山鎮鯉南路34-1號",
   "Brand": "光陽",
   "Lat": 23.747196,
   "Lon": 120.677075
 }
]