[
 {
   "Title": "立彬車業行",
   "Tel": "02-89836588",
   "Address": "新北市五股區四維路89號",
   "Brand": "自由",
   "Lat": 25.0731189,
   "Lon": 121.4674639
 },
 {
   "Title": "信盛機車行",
   "Tel": "02-22747328",
   "Address": "新北市土城區中正路57號",
   "Brand": "自由",
   "Lat": 24.975736,
   "Lon": 121.444186
 },
 {
   "Title": "豐興輪業行",
   "Tel": "02-29876511",
   "Address": "新北市三重區三民街144號1樓",
   "Brand": "自由",
   "Lat": 25.0652099,
   "Lon": 121.482611
 },
 {
   "Title": "鴻財車行",
   "Tel": "02-24972838",
   "Address": "新北市瑞芳區建基路一段54號之1",
   "Brand": "自由",
   "Lat": 25.1273448,
   "Lon": 121.8174754
 },
 {
   "Title": "永貞車業行",
   "Tel": "02-22645737",
   "Address": "新北市土城區明德路一段6-1號",
   "Brand": "山葉",
   "Lat": 24.9855662,
   "Lon": 121.4647096
 },
 {
   "Title": "信泓機車行",
   "Tel": "02-22656000",
   "Address": "新北市土城區延和路11號1樓",
   "Brand": "自由",
   "Lat": 24.9880014,
   "Lon": 121.463847
 },
 {
   "Title": "銘汰車業行",
   "Tel": "02-22521132",
   "Address": "新北市板橋區光武街26號",
   "Brand": "三陽",
   "Lat": 25.025681,
   "Lon": 121.467564
 },
 {
   "Title": "連盛車業股份有限公司",
   "Tel": "02-22537420",
   "Address": "新北市板橋區雙十路二段67號",
   "Brand": "光陽",
   "Lat": 25.0266562,
   "Lon": 121.4762496
 },
 {
   "Title": "通天車業有限公司",
   "Tel": "02-29617859",
   "Address": "新北市板橋區實踐路171號",
   "Brand": "光陽",
   "Lat": 25.00377,
   "Lon": 121.464575
 },
 {
   "Title": "錕達車業有限公司",
   "Tel": "02-29547370",
   "Address": "新北市板橋區重慶路349號",
   "Brand": "光陽",
   "Lat": 24.9979265,
   "Lon": 121.4641244
 },
 {
   "Title": "成龍車業行",
   "Tel": "02-26024996",
   "Address": "新北市林口區粉寮路1段43號1樓",
   "Brand": "自由",
   "Lat": 25.0777806,
   "Lon": 121.3967023
 },
 {
   "Title": "勝賓車業行",
   "Tel": "02-22583381",
   "Address": "新北市板橋區松江街55號1樓",
   "Brand": "自由",
   "Lat": 25.0275952,
   "Lon": 121.4684944
 },
 {
   "Title": "通陽車業行",
   "Tel": "02-26034566",
   "Address": "新北市林口區中山路23號",
   "Brand": "自由",
   "Lat": 25.0781371,
   "Lon": 121.3958394
 },
 {
   "Title": "映象國際有限公司",
   "Tel": "02-22422353",
   "Address": "新北市中和區中正路2號1樓",
   "Brand": "自由",
   "Lat": 24.993764,
   "Lon": 121.5032483
 },
 {
   "Title": "車侑機車行",
   "Tel": "02-29136370",
   "Address": "新北市新店區寶橋路13號1樓",
   "Brand": "光陽",
   "Lat": 24.9740319,
   "Lon": 121.5436296
 },
 {
   "Title": "志宏機車行",
   "Tel": "02-22469536",
   "Address": "新北市中和區中山路二段2巷45弄4號",
   "Brand": "光陽",
   "Lat": 25.006992,
   "Lon": 121.502185
 },
 {
   "Title": "昇旺國際車業有限公司",
   "Tel": "02-22778698",
   "Address": "新北市新莊區復興路二段18號",
   "Brand": "光陽",
   "Lat": 25.0438931,
   "Lon": 121.4541708
 },
 {
   "Title": "協泰車業有限公司",
   "Tel": "02-29616060",
   "Address": "新北市板橋區民族路93號1樓",
   "Brand": "山葉",
   "Lat": 25.008566,
   "Lon": 121.466576
 },
 {
   "Title": "燦贏實業有限公司",
   "Tel": "02-22593366",
   "Address": "新北市板橋區英士路17號1樓",
   "Brand": "山葉",
   "Lat": 25.0251257,
   "Lon": 121.46196
 },
 {
   "Title": "宏洲車業行",
   "Tel": "02-29424490",
   "Address": "新北市中和區景平路337號",
   "Brand": "光陽",
   "Lat": 24.993177,
   "Lon": 121.5055194
 },
 {
   "Title": "佑泰車業有限公司",
   "Tel": "02-29477777",
   "Address": "新北市中和區景新街467巷1號1樓",
   "Brand": "光陽",
   "Lat": 24.9881996,
   "Lon": 121.5135014
 },
 {
   "Title": "緯鴻車業有限公司",
   "Tel": "02-26832593",
   "Address": "新北市樹林區保安二街102號",
   "Brand": "山葉",
   "Lat": 24.9956349,
   "Lon": 121.422736
 },
 {
   "Title": "東元車業有限公司",
   "Tel": "02-22221987",
   "Address": "新北市中和區中山路三段30號",
   "Brand": "台鈴",
   "Lat": 25.0061853,
   "Lon": 121.4790984
 },
 {
   "Title": "立晟車業有限公司",
   "Tel": "02-29240832",
   "Address": "新北市永和區保平路213號",
   "Brand": "三陽",
   "Lat": 25.0047004,
   "Lon": 121.5084941
 },
 {
   "Title": "一楓車業有限公司",
   "Tel": "02-29239582",
   "Address": "新北市永和區林森路48巷2號",
   "Brand": "三陽",
   "Lat": 25.0047535,
   "Lon": 121.5247526
 },
 {
   "Title": "佶俐機車行",
   "Tel": "02-22533562",
   "Address": "新北市板橋區莊敬路143號1樓",
   "Brand": "自由",
   "Lat": 25.0249008,
   "Lon": 121.4717356
 },
 {
   "Title": "昇明機車行",
   "Tel": "02-22010207",
   "Address": "新北市新莊區西盛街365號",
   "Brand": "自由",
   "Lat": 25.0140049,
   "Lon": 121.4280151
 },
 {
   "Title": "世昌車業行",
   "Tel": "02-86682975",
   "Address": "新北市中和區景新街467巷15弄1號",
   "Brand": "自由",
   "Lat": 24.9881996,
   "Lon": 121.5135014
 },
 {
   "Title": "聯成機車行",
   "Tel": "02-22409433",
   "Address": "新北市中和區復興路275號",
   "Brand": "山葉",
   "Lat": 24.9901673,
   "Lon": 121.5024776
 },
 {
   "Title": "益揚機車行",
   "Tel": "02-29538940",
   "Address": "新北市板橋區長安街138巷1弄91號1樓",
   "Brand": "山葉",
   "Lat": 25.011516,
   "Lon": 121.4746577
 },
 {
   "Title": "聯安機車行",
   "Tel": "02-22854303",
   "Address": "新北市蘆洲區九芎街79號",
   "Brand": "山葉",
   "Lat": 25.0790578,
   "Lon": 121.4665895
 },
 {
   "Title": "永欣車業有限公司",
   "Tel": "02-29221511",
   "Address": "新北市永和區中山路一段84號",
   "Brand": "山葉",
   "Lat": 25.0109789,
   "Lon": 121.511887
 },
 {
   "Title": "冠億輪業有限公司",
   "Tel": "02-29818620",
   "Address": "新北市三重區民生街84-86號",
   "Brand": "山葉",
   "Lat": 25.064401,
   "Lon": 121.490206
 },
 {
   "Title": "宏輪車業行",
   "Tel": "02-29816066",
   "Address": "新北市三重區力行路一段241號",
   "Brand": "山葉",
   "Lat": 25.0708231,
   "Lon": 121.4827226
 },
 {
   "Title": "信鋒輪業有限公司",
   "Tel": "02-29852052",
   "Address": "新北市三重區三民街136號",
   "Brand": "山葉",
   "Lat": 25.06512,
   "Lon": 121.482787
 },
 {
   "Title": "大新上允車業有限公司",
   "Tel": "02-29733200",
   "Address": "新北市三重區福德北路15-1號",
   "Brand": "光陽",
   "Lat": 25.0643989,
   "Lon": 121.5025068
 },
 {
   "Title": "偉琍實業有限公司",
   "Tel": "02-22035353",
   "Address": "新北市新莊區富國路119號",
   "Brand": "山葉",
   "Lat": 25.024726,
   "Lon": 121.424191
 },
 {
   "Title": "萬榮機車有限公司",
   "Tel": "02-29932912",
   "Address": "新北市新莊區復興路二段99號",
   "Brand": "山葉",
   "Lat": 25.044418,
   "Lon": 121.4559386
 },
 {
   "Title": "台鈴工業股份有限公司(新莊服務站)",
   "Tel": "02-85221038",
   "Address": "新北市新莊區新北大道二段366號",
   "Brand": "台鈴",
   "Lat": 25.0612294,
   "Lon": 121.4633578
 },
 {
   "Title": "南輪車業有限公司",
   "Tel": "02-22027133",
   "Address": "新北市新莊區八德街91號",
   "Brand": "光陽",
   "Lat": 25.0217879,
   "Lon": 121.424704
 },
 {
   "Title": "點著機車行",
   "Tel": "02-22034192",
   "Address": "新北市新莊區西盛街161號",
   "Brand": "自由",
   "Lat": 25.017887,
   "Lon": 121.428408
 },
 {
   "Title": "禾山機車行",
   "Tel": "02-22059337",
   "Address": "新北市新莊區民安路316號1樓",
   "Brand": "自由",
   "Lat": 25.0221093,
   "Lon": 121.428809
 },
 {
   "Title": "冠宇車業行",
   "Tel": "02-89416767",
   "Address": "新北市中和區自立路133號1樓",
   "Brand": "自由",
   "Lat": 24.993983,
   "Lon": 121.5219525
 },
 {
   "Title": "華民車業行",
   "Tel": "02-22541716",
   "Address": "新北市板橋區民生路2段222號1樓",
   "Brand": "山葉",
   "Lat": 25.0218772,
   "Lon": 121.4691954
 },
 {
   "Title": "明毅機車行",
   "Tel": "02-26480925",
   "Address": "新北市汐止區仁愛路41號1樓",
   "Brand": "三陽",
   "Lat": 25.06342,
   "Lon": 121.6597256
 },
 {
   "Title": "龍騎士機車行",
   "Tel": "02-89828422",
   "Address": "新北市三重區忠孝路一段34號1樓",
   "Brand": "山葉",
   "Lat": 25.0717221,
   "Lon": 121.491405
 },
 {
   "Title": "順華車行有限公司",
   "Tel": "02-22828124",
   "Address": "新北市蘆洲區中山一路276號",
   "Brand": "三陽",
   "Lat": 25.0793595,
   "Lon": 121.4715081
 },
 {
   "Title": "祥德車業有限公司",
   "Tel": "02-22880611",
   "Address": "新北市蘆洲區中原路75號",
   "Brand": "山葉",
   "Lat": 25.0818442,
   "Lon": 121.4583382
 },
 {
   "Title": "正陽車業有限公司",
   "Tel": "02-26014226",
   "Address": "新北市林口區中正路173號",
   "Brand": "三陽",
   "Lat": 25.0773606,
   "Lon": 121.3924539
 },
 {
   "Title": "升宏機車行",
   "Tel": "02-29611345",
   "Address": "新北市板橋區懷仁街57號",
   "Brand": "三陽",
   "Lat": 25.0187274,
   "Lon": 121.4771525
 },
 {
   "Title": "真亨車業有限公司",
   "Tel": "02-29148090",
   "Address": "新北市新店區順安街21號",
   "Brand": "三陽",
   "Lat": 24.9854395,
   "Lon": 121.5408883
 },
 {
   "Title": "全富車業有限公司",
   "Tel": "02-29149589",
   "Address": "新北市新店區北新路一段169號",
   "Brand": "台鈴",
   "Lat": 24.964197,
   "Lon": 121.539935
 },
 {
   "Title": "群英輪業有限公司",
   "Tel": "02-22192168",
   "Address": "新北市新店區建國路135號",
   "Brand": "光陽",
   "Lat": 24.9784089,
   "Lon": 121.5392049
 },
 {
   "Title": "香港車業有限公司",
   "Tel": "02-29111058",
   "Address": "新北市新店區北新路一段29號",
   "Brand": "光陽",
   "Lat": 24.9592133,
   "Lon": 121.5377565
 },
 {
   "Title": "力溢車業有限公司",
   "Tel": "02-22616577",
   "Address": "新北市土城區中央路一段302號",
   "Brand": "山葉",
   "Lat": 24.9821051,
   "Lon": 121.4432468
 },
 {
   "Title": "元泓車業行",
   "Tel": "02-22730268",
   "Address": "新北市土城區裕民路282號1樓",
   "Brand": "三陽",
   "Lat": 24.981929,
   "Lon": 121.4554073
 },
 {
   "Title": "禾鼎機車行",
   "Tel": "02-89851585",
   "Address": "新北市三重區重新路4段15號1樓",
   "Brand": "山葉",
   "Lat": 25.0580529,
   "Lon": 121.4886788
 },
 {
   "Title": "金力盛車業行",
   "Tel": "02-29066413",
   "Address": "新北市新莊區福營路376號",
   "Brand": "自由",
   "Lat": 25.0265721,
   "Lon": 121.4207218
 },
 {
   "Title": "林口機車行",
   "Tel": "02-26011609",
   "Address": "新北市林口區林口路52號",
   "Brand": "自由",
   "Lat": 25.0787099,
   "Lon": 121.390737
 },
 {
   "Title": "亦晨機車行",
   "Tel": "02-86688247",
   "Address": "新北市新店區永安街40號",
   "Brand": "三陽",
   "Lat": 24.9865973,
   "Lon": 121.5180696
 },
 {
   "Title": "展宏機車材料行",
   "Tel": "02-89518390",
   "Address": "新北市中和區德光路16號",
   "Brand": "光陽",
   "Lat": 25.004585,
   "Lon": 121.471156
 },
 {
   "Title": "奇典機車行",
   "Tel": "02-29414356",
   "Address": "新北市中和區景新街311號",
   "Brand": "光陽",
   "Lat": 24.9923112,
   "Lon": 121.511225
 },
 {
   "Title": "睿騏車業有限公司",
   "Tel": "02-26715422",
   "Address": "新北市三峽區復興路34號",
   "Brand": "光陽",
   "Lat": 24.936376,
   "Lon": 121.3743002
 },
 {
   "Title": "石田機車行",
   "Tel": "02-26415375",
   "Address": "新北市汐止區大同路二段294號",
   "Brand": "光陽",
   "Lat": 25.0664472,
   "Lon": 121.6551391
 },
 {
   "Title": "德昕國際車業有限公司",
   "Tel": "02-86319693",
   "Address": "新北市淡水區大忠街143號",
   "Brand": "三陽",
   "Lat": 25.1768085,
   "Lon": 121.4478608
 },
 {
   "Title": "安益機車行",
   "Tel": "02-24973805",
   "Address": "新北市瑞芳區逢甲路208號",
   "Brand": "三陽",
   "Lat": 25.1102038,
   "Lon": 121.8067123
 },
 {
   "Title": "金泰發車業有限公司",
   "Tel": "02-24974285",
   "Address": "新北市瑞芳區中山路174號",
   "Brand": "山葉",
   "Lat": 25.1067641,
   "Lon": 121.8018427
 },
 {
   "Title": "胡大發機車行",
   "Tel": "02-24972222",
   "Address": "新北市瑞芳區明燈路三段74號",
   "Brand": "光陽",
   "Lat": 25.1081418,
   "Lon": 121.806379
 },
 {
   "Title": "榮擎有限公司",
   "Tel": "02-24975840",
   "Address": "新北市瑞芳區明燈路三段119號",
   "Brand": "台鈴",
   "Lat": 25.1083281,
   "Lon": 121.8057703
 },
 {
   "Title": "柏松機車行",
   "Tel": "02-26792443",
   "Address": "新北市鶯歌區尖山埔路201號",
   "Brand": "台鈴",
   "Lat": 24.9503959,
   "Lon": 121.3452326
 },
 {
   "Title": "同億機車行",
   "Tel": "02-26793539",
   "Address": "新北市鶯歌區鶯桃路122號",
   "Brand": "山葉",
   "Lat": 24.954729,
   "Lon": 121.338257
 },
 {
   "Title": "德陽車業行",
   "Tel": "02-29091566",
   "Address": "新北市五股區成泰路一段71號",
   "Brand": "三陽",
   "Lat": 25.0701295,
   "Lon": 121.4356082
 },
 {
   "Title": "晶展車業行",
   "Tel": "02-22580521",
   "Address": "新北市板橋區懷德街139巷20弄1號",
   "Brand": "自由",
   "Lat": 25.0308431,
   "Lon": 121.4801574
 },
 {
   "Title": "龍山機車行",
   "Tel": "02-26261573",
   "Address": "新北市淡水區北新路169巷1號",
   "Brand": "自由",
   "Lat": 25.1798048,
   "Lon": 121.446502
 },
 {
   "Title": "祐偉機車行",
   "Tel": "02-29413177",
   "Address": "新北市中和區復興路3號",
   "Brand": "自由",
   "Lat": 24.9897416,
   "Lon": 121.5061038
 },
 {
   "Title": "力達機車行",
   "Tel": "02-28050443",
   "Address": "新北市淡水區淡海路73號1樓",
   "Brand": "三陽",
   "Lat": 25.1812327,
   "Lon": 121.4230427
 },
 {
   "Title": "翔龍機車行",
   "Tel": "02-29287653",
   "Address": "新北市永和區國中路102號1樓",
   "Brand": "光陽",
   "Lat": 25.0065305,
   "Lon": 121.5241742
 },
 {
   "Title": "永群車業有限公司",
   "Tel": "02-26297099",
   "Address": "新北市淡水區中山北路1段247巷68號",
   "Brand": "台鈴",
   "Lat": 25.1795836,
   "Lon": 121.443012
 },
 {
   "Title": "上暉車業有限公司",
   "Tel": "02-29885788",
   "Address": "新北市三重區六張街58號",
   "Brand": "三陽",
   "Lat": 25.0702655,
   "Lon": 121.4942021
 },
 {
   "Title": "和昌機車行",
   "Tel": "02-22867755",
   "Address": "新北市三重區三和路四段225號",
   "Brand": "山葉",
   "Lat": 25.079791,
   "Lon": 121.4813144
 },
 {
   "Title": "國葉車業有限公司",
   "Tel": "02-29776645",
   "Address": "新北市三重區中正南路105號",
   "Brand": "山葉",
   "Lat": 25.0578549,
   "Lon": 121.4940563
 },
 {
   "Title": "新輪車業行",
   "Tel": "02-29836221",
   "Address": "新北市三重區中華路54號",
   "Brand": "台鈴",
   "Lat": 25.0616966,
   "Lon": 121.4833497
 },
 {
   "Title": "昆輝機車行",
   "Tel": "02-29886585",
   "Address": "新北市三重區自強路二段76號",
   "Brand": "三陽",
   "Lat": 25.0702146,
   "Lon": 121.4880485
 },
 {
   "Title": "威廷機車行",
   "Tel": "02-29816659",
   "Address": "新北市三重區忠孝路一段58號",
   "Brand": "台鈴",
   "Lat": 25.071836,
   "Lon": 121.490446
 },
 {
   "Title": "金鈴機車有限公司",
   "Tel": "02-22860126",
   "Address": "新北市三重區溪尾街146號",
   "Brand": "台鈴",
   "Lat": 25.0798091,
   "Lon": 121.4891014
 },
 {
   "Title": "建宏機車行",
   "Tel": "02-22682792",
   "Address": "新北市土城區中央路四段5號",
   "Brand": "三陽",
   "Lat": 24.9627793,
   "Lon": 121.4256749
 },
 {
   "Title": "群益車業有限公司",
   "Tel": "02-29570201",
   "Address": "新北市板橋區永豐街76號",
   "Brand": "山葉",
   "Lat": 25.020113,
   "Lon": 121.475282
 },
 {
   "Title": "東發車業有限公司",
   "Tel": "02-22627281",
   "Address": "新北市土城區金城路三段235號",
   "Brand": "光陽",
   "Lat": 24.989781,
   "Lon": 121.471148
 },
 {
   "Title": "世益車業行",
   "Tel": "02-22058650",
   "Address": "新北市新莊區後港一路115號",
   "Brand": "自由",
   "Lat": 25.0272351,
   "Lon": 121.4287062
 },
 {
   "Title": "展欣機車行",
   "Tel": "02-29212248",
   "Address": "新北市永和區福和路49號1樓",
   "Brand": "自由",
   "Lat": 25.007958,
   "Lon": 121.5232871
 },
 {
   "Title": "威騎車業有限公司",
   "Tel": "02-29000312",
   "Address": "新北市泰山區泰林路2段593號1樓",
   "Brand": "自由",
   "Lat": 25.0635397,
   "Lon": 121.4221717
 },
 {
   "Title": "金星機車行",
   "Tel": "02-26839725",
   "Address": "新北市樹林區育英街159號",
   "Brand": "三陽",
   "Lat": 24.9895297,
   "Lon": 121.4187071
 },
 {
   "Title": "承明機車行",
   "Tel": "02-26874233",
   "Address": "新北市樹林區俊英街218號",
   "Brand": "自由",
   "Lat": 25.009842,
   "Lon": 121.4250329
 },
 {
   "Title": "嘉元機車行",
   "Tel": "02-26815765",
   "Address": "新北市板橋區金門街324巷10號1樓",
   "Brand": "自由",
   "Lat": 24.985286,
   "Lon": 121.428281
 },
 {
   "Title": "名仕車業行",
   "Tel": "02-22480960",
   "Address": "新北市中和區中山路二段134-6號",
   "Brand": "台鈴",
   "Lat": 25.0032909,
   "Lon": 121.502273
 },
 {
   "Title": "福豪車業行",
   "Tel": "02-29415283",
   "Address": "新北市中和區安平路110號",
   "Brand": "台鈴",
   "Lat": 24.9974536,
   "Lon": 121.5117352
 },
 {
   "Title": "有盛車業有限公司",
   "Tel": "02-29461218",
   "Address": "新北市中和區安樂路29號",
   "Brand": "山葉",
   "Lat": 24.992447,
   "Lon": 121.511617
 },
 {
   "Title": "久川車業有限公司",
   "Tel": "02-29428322",
   "Address": "新北市中和區安樂路68號",
   "Brand": "光陽",
   "Lat": 24.9933802,
   "Lon": 121.5122624
 },
 {
   "Title": "豪呈機車有限公司",
   "Tel": "02-29490766",
   "Address": "新北市中和區成功路109號1F",
   "Brand": "光陽",
   "Lat": 24.9912367,
   "Lon": 121.5259674
 },
 {
   "Title": "銓富機車有限公司",
   "Tel": "02-22251008",
   "Address": "新北市中和區連城路337-1號1F",
   "Brand": "光陽",
   "Lat": 24.9960697,
   "Lon": 121.4885119
 },
 {
   "Title": "旭泰車業有限公司",
   "Tel": "02-22405463",
   "Address": "新北市中和區泰和街45號",
   "Brand": "三陽",
   "Lat": 24.9993596,
   "Lon": 121.4990773
 },
 {
   "Title": "一俐車業有限公司",
   "Tel": "02-22405252",
   "Address": "新北市中和區景平路670號",
   "Brand": "山葉",
   "Lat": 25.0010328,
   "Lon": 121.4971251
 },
 {
   "Title": "祐泰車業有限公司",
   "Tel": "02-29469000",
   "Address": "新北市中和區景新街481號1樓",
   "Brand": "三陽",
   "Lat": 24.9875479,
   "Lon": 121.513682
 },
 {
   "Title": "大鑫車業有限公司",
   "Tel": "02-29468888",
   "Address": "新北市永和區中正路40號1F",
   "Brand": "山葉",
   "Lat": 24.994239,
   "Lon": 121.5131129
 },
 {
   "Title": "明順機車行",
   "Tel": "02-86850517",
   "Address": "新北市樹林區中華路150-8號1樓",
   "Brand": "自由",
   "Lat": 24.9803189,
   "Lon": 121.415829
 },
 {
   "Title": "力昌機車行",
   "Tel": "02-29531099",
   "Address": "新北市中和區民德路236號1樓",
   "Brand": "自由",
   "Lat": 24.9975501,
   "Lon": 121.4680241
 },
 {
   "Title": "筌盛車業行",
   "Tel": "02-22315055",
   "Address": "新北市永和區得和路293號1樓",
   "Brand": "自由",
   "Lat": 24.9999048,
   "Lon": 121.5227474
 },
 {
   "Title": "駿宏車行",
   "Tel": "02-82525485",
   "Address": "新北市板橋區松江街21號1樓",
   "Brand": "光陽",
   "Lat": 25.0312703,
   "Lon": 121.4703217
 },
 {
   "Title": "虹星機車行",
   "Tel": "02-86866317",
   "Address": "新北市樹林區太元街17號",
   "Brand": "自由",
   "Lat": 24.9802744,
   "Lon": 121.4180943
 },
 {
   "Title": "宏鑫車業行",
   "Tel": "02-82863896",
   "Address": "新北市蘆洲區中正路185巷96號1樓",
   "Brand": "山葉",
   "Lat": 25.0837698,
   "Lon": 121.4652164
 },
 {
   "Title": "福順車業有限公司",
   "Tel": "02-29236996",
   "Address": "新北市永和區永平路296號",
   "Brand": "台鈴",
   "Lat": 25.012314,
   "Lon": 121.507501
 },
 {
   "Title": "景騛機車行",
   "Tel": "02-22317972",
   "Address": "新北市永和區永貞路313號",
   "Brand": "山葉",
   "Lat": 25.006461,
   "Lon": 121.509943
 },
 {
   "Title": "宏升機車有限公司",
   "Tel": "02-26412878",
   "Address": "新北市汐止區大同路二段503號",
   "Brand": "山葉",
   "Lat": 25.0687621,
   "Lon": 121.6609803
 },
 {
   "Title": "永湛車業有限公司",
   "Tel": "02-26945003",
   "Address": "新北市汐止區福德一路278號",
   "Brand": "台鈴",
   "Lat": 25.0638752,
   "Lon": 121.6322588
 },
 {
   "Title": "榮輪車業有限公司",
   "Tel": "02-29697721",
   "Address": "新北市板橋區中正路307號",
   "Brand": "山葉",
   "Lat": 25.0198105,
   "Lon": 121.4551337
 },
 {
   "Title": "連陽車業有限公司",
   "Tel": "02-29936800",
   "Address": "新北市新莊區昌平街67號",
   "Brand": "光陽",
   "Lat": 25.0535349,
   "Lon": 121.45449
 },
 {
   "Title": "有利車業有限公司",
   "Tel": "02-22563364",
   "Address": "新北市板橋區互助街94號",
   "Brand": "山葉",
   "Lat": 25.0262887,
   "Lon": 121.4601316
 },
 {
   "Title": "昇龍國際車業有限公司",
   "Tel": "02-22572316",
   "Address": "新北市板橋區民生路3段179號",
   "Brand": "光陽",
   "Lat": 25.0272031,
   "Lon": 121.4653428
 },
 {
   "Title": "榮德車業有限公司",
   "Tel": "02-89671798",
   "Address": "新北市板橋區四川路二段245巷67號",
   "Brand": "山葉",
   "Lat": 24.9921249,
   "Lon": 121.452626
 },
 {
   "Title": "金旺昇機車行",
   "Tel": "02-29066718",
   "Address": "新北市新莊區中正路833號",
   "Brand": "自由",
   "Lat": 25.028089,
   "Lon": 121.420635
 },
 {
   "Title": "福翔機車行",
   "Tel": "02-29892027",
   "Address": "新北市三重區自強路5段46號1樓",
   "Brand": "自由",
   "Lat": 25.0811867,
   "Lon": 121.4933224
 },
 {
   "Title": "弘安車業有限公司",
   "Tel": "02-32337033",
   "Address": "新北市永和區永貞路344號1樓",
   "Brand": "光陽",
   "Lat": 25.005781,
   "Lon": 121.5108969
 },
 {
   "Title": "騰翔機車行",
   "Tel": "02-82586016",
   "Address": "新北市板橋區仁化街133號1樓",
   "Brand": "光陽",
   "Lat": 25.032872,
   "Lon": 121.4772008
 },
 {
   "Title": "昇展車業行",
   "Tel": "02-22071859",
   "Address": "新北市新莊區民本街27巷1號",
   "Brand": "自由",
   "Lat": 25.0193863,
   "Lon": 121.428401
 },
 {
   "Title": "正輪車業行",
   "Tel": "02-22892899",
   "Address": "新北市蘆洲區正和街76號",
   "Brand": "自由",
   "Lat": 25.0810262,
   "Lon": 121.4685694
 },
 {
   "Title": "樺山車業有限公司",
   "Tel": "02-22592483",
   "Address": "新北市板橋區長江路一段51號",
   "Brand": "山葉",
   "Lat": 25.029346,
   "Lon": 121.458598
 },
 {
   "Title": "僑王機車行",
   "Tel": "02-29616969",
   "Address": "新北市板橋區華興街42號1F",
   "Brand": "三陽",
   "Lat": 25.0047174,
   "Lon": 121.4584668
 },
 {
   "Title": "蘭帝車業有限公司",
   "Tel": "02-29559208",
   "Address": "新北市板橋區實踐路82號",
   "Brand": "台鈴",
   "Lat": 25.005243,
   "Lon": 121.463892
 },
 {
   "Title": "樺龍車業有限公司",
   "Tel": "02-26224070",
   "Address": "新北市淡水區中正東路43號1F",
   "Brand": "光陽",
   "Lat": 25.156215,
   "Lon": 121.459517
 },
 {
   "Title": "永悅車業有限公司",
   "Tel": "02-26263775",
   "Address": "新北市淡水區大忠街36號",
   "Brand": "台鈴",
   "Lat": 25.1758955,
   "Lon": 121.4435795
 },
 {
   "Title": "鶴山輪業有限公司",
   "Tel": "02-29147733",
   "Address": "新北市新店區中興路一段186號",
   "Brand": "山葉",
   "Lat": 24.9649154,
   "Lon": 121.5434615
 },
 {
   "Title": "泉和車業有限公司",
   "Tel": "02-29455555",
   "Address": "新北市新店區安和路三段175號",
   "Brand": "山葉",
   "Lat": 24.986087,
   "Lon": 121.515785
 },
 {
   "Title": "昇億機車行",
   "Tel": "02-29945750",
   "Address": "新北市新莊區中平路82巷28號",
   "Brand": "三陽",
   "Lat": 25.044687,
   "Lon": 121.446008
 },
 {
   "Title": "五洲機車有限公司",
   "Tel": "02-29962414",
   "Address": "新北市新莊區中正路346號1F",
   "Brand": "光陽",
   "Lat": 25.03455,
   "Lon": 121.444169
 },
 {
   "Title": "鎰昇車業有限公司",
   "Tel": "02-29939953",
   "Address": "新北市新莊區中誠街1號",
   "Brand": "山葉",
   "Lat": 25.0480519,
   "Lon": 121.4522815
 },
 {
   "Title": "昌隆機車行",
   "Tel": "02-22624270",
   "Address": "新北市土城區中央路1段253號一樓",
   "Brand": "自由",
   "Lat": 24.9855952,
   "Lon": 121.4452454
 },
 {
   "Title": "新戊機車行",
   "Tel": "02-22873416",
   "Address": "新北市三重區三和路4段155巷31號",
   "Brand": "自由",
   "Lat": 25.0787097,
   "Lon": 121.484786
 },
 {
   "Title": "立志機車行",
   "Tel": "02-89283808",
   "Address": "新北市永和區竹林路39巷15號",
   "Brand": "自由",
   "Lat": 25.0148166,
   "Lon": 121.5185735
 },
 {
   "Title": "東群車業行",
   "Tel": "02-26422648",
   "Address": "新北市汐止區樟樹一路126號1樓",
   "Brand": "三陽",
   "Lat": 25.064445,
   "Lon": 121.642206
 },
 {
   "Title": "湘琳機車行",
   "Tel": "02-26723208",
   "Address": "新北市三峽區民權街182號",
   "Brand": "光陽",
   "Lat": 24.9297609,
   "Lon": 121.36769
 },
 {
   "Title": "福安機車行",
   "Tel": "02-26753323",
   "Address": "新北市樹林區保安二街123號1樓",
   "Brand": "自由",
   "Lat": 24.9954134,
   "Lon": 121.4232455
 },
 {
   "Title": "鴻鈴車業有限公司",
   "Tel": "02-22039447",
   "Address": "新北市新莊區瓊林南路118之38號",
   "Brand": "台鈴",
   "Lat": 25.0113023,
   "Lon": 121.4338233
 },
 {
   "Title": "桄昇車業有限公司",
   "Tel": "02-29929339",
   "Address": "新北市新莊區思源路165號1F",
   "Brand": "光陽",
   "Lat": 25.044937,
   "Lon": 121.4596634
 },
 {
   "Title": "順豐車業行",
   "Tel": "02-29921757",
   "Address": "新北市新莊區新泰路336號",
   "Brand": "山葉",
   "Lat": 25.0421528,
   "Lon": 121.4449416
 },
 {
   "Title": "台順車業有限公司",
   "Tel": "02-24922212",
   "Address": "新北市萬里區瑪鋉路290號",
   "Brand": "山葉",
   "Lat": 25.1802334,
   "Lon": 121.6894259
 },
 {
   "Title": "樹福車業有限公司",
   "Tel": "02-26812904",
   "Address": "新北市樹林區中山路一段54號",
   "Brand": "光陽",
   "Lat": 24.9920933,
   "Lon": 121.4236715
 },
 {
   "Title": "駿億車業有限公司",
   "Tel": "02-26812926",
   "Address": "新北市樹林區保安二街43號",
   "Brand": "光陽",
   "Lat": 24.9941186,
   "Lon": 121.4247257
 },
 {
   "Title": "蘆洲機車有限公司",
   "Tel": "02-22819736",
   "Address": "新北市蘆洲區中正路138號",
   "Brand": "台鈴",
   "Lat": 25.085184,
   "Lon": 121.469157
 },
 {
   "Title": "勝男車業有限公司",
   "Tel": "02-22828228",
   "Address": "新北市蘆洲區復興路284號",
   "Brand": "三陽",
   "Lat": 25.0898244,
   "Lon": 121.4807113
 },
 {
   "Title": "欣富車業行",
   "Tel": "02-22501151",
   "Address": "新北市板橋區長江路1段109號1F",
   "Brand": "光陽",
   "Lat": 25.029794,
   "Lon": 121.459602
 },
 {
   "Title": "榮記輪業有限公司",
   "Tel": "02-22523322",
   "Address": "新北市板橋區長江路1段184號",
   "Brand": "台鈴",
   "Lat": 25.0305345,
   "Lon": 121.4618861
 },
 {
   "Title": "明興機車行",
   "Tel": "02-22567976",
   "Address": "新北市板橋區長江路1段359號",
   "Brand": "三陽",
   "Lat": 25.0307656,
   "Lon": 121.4613711
 },
 {
   "Title": "仟松車業有限公司",
   "Tel": "02-22550811",
   "Address": "新北市板橋區長江路2段128號",
   "Brand": "山葉",
   "Lat": 25.031593,
   "Lon": 121.465839
 },
 {
   "Title": "安全車業有限公司",
   "Tel": "02-22525224",
   "Address": "新北市板橋區長江路3段117號",
   "Brand": "山葉",
   "Lat": 25.0346656,
   "Lon": 121.4751852
 },
 {
   "Title": "晉新輪業有限公司",
   "Tel": "02-22511026",
   "Address": "新北市板橋區長江路2段197號",
   "Brand": "光陽",
   "Lat": 25.0323556,
   "Lon": 121.4673304
 },
 {
   "Title": "繼郎機車有限公司",
   "Tel": "02-29615988",
   "Address": "新北市板橋區四川路1段381號1F",
   "Brand": "三陽",
   "Lat": 24.9993631,
   "Lon": 121.4582291
 },
 {
   "Title": "志鑫車業行",
   "Tel": "02-22159007",
   "Address": "新北市新店區安康路3段263號1樓",
   "Brand": "摩特",
   "Lat": 24.9516473,
   "Lon": 121.4865471
 },
 {
   "Title": "永督機車行",
   "Tel": "02-29500229",
   "Address": "新北市板橋區民族路178號1F",
   "Brand": "三陽",
   "Lat": 25.007704,
   "Lon": 121.467638
 },
 {
   "Title": "騰鴻車業有限公司",
   "Tel": "02-29543608",
   "Address": "新北市板橋區大觀路三段50巷49號",
   "Brand": "台鈴",
   "Lat": 24.9955407,
   "Lon": 121.432614
 },
 {
   "Title": "昶利機車行",
   "Tel": "02-29506506",
   "Address": "新北市板橋區中山路2段495號",
   "Brand": "山葉",
   "Lat": 25.0210291,
   "Lon": 121.4825351
 },
 {
   "Title": "華豐機車行",
   "Tel": "02-22534580",
   "Address": "新北市板橋區莊敬路214號",
   "Brand": "山葉",
   "Lat": 25.0212703,
   "Lon": 121.4722682
 },
 {
   "Title": "速成車業行",
   "Tel": "02-22496529",
   "Address": "新北市中和區景平路595號-1",
   "Brand": "光陽",
   "Lat": 25.0006182,
   "Lon": 121.4972269
 },
 {
   "Title": "興祥機車行",
   "Tel": "02-22578456",
   "Address": "新北市板橋區民治街61巷2號1F",
   "Brand": "台鈴",
   "Lat": 25.0344668,
   "Lon": 121.4770296
 },
 {
   "Title": "來興車業有限公司",
   "Tel": "02-22566065",
   "Address": "新北市板橋區新海路398號",
   "Brand": "山葉",
   "Lat": 25.0266742,
   "Lon": 121.4588441
 },
 {
   "Title": "至斌車業行",
   "Tel": "02-82811053",
   "Address": "新北市蘆洲區永安南路二段328巷2號",
   "Brand": "山葉",
   "Lat": 25.0831707,
   "Lon": 121.4570125
 },
 {
   "Title": "忠山機車行",
   "Tel": "02-29661923",
   "Address": "新北市板橋區文化路1段205號",
   "Brand": "三陽",
   "Lat": 25.0168152,
   "Lon": 121.4633176
 },
 {
   "Title": "証鼎實業有限公司",
   "Tel": "02-22558816",
   "Address": "新北市板橋區民生路三段107號",
   "Brand": "台鈴",
   "Lat": 25.0251899,
   "Lon": 121.4663959
 },
 {
   "Title": "東三機車行",
   "Tel": "02-29689865",
   "Address": "新北市板橋區光正街45巷2弄17號",
   "Brand": "三陽",
   "Lat": 25.0172787,
   "Lon": 121.4610876
 },
 {
   "Title": "大忠車業行",
   "Tel": "02-29664208",
   "Address": "新北市板橋區中正路250巷13號1F",
   "Brand": "三陽",
   "Lat": 25.0195376,
   "Lon": 121.4561221
 },
 {
   "Title": "祥達車業有限公司",
   "Tel": "02-29669875",
   "Address": "新北市板橋區大智街22號",
   "Brand": "三陽",
   "Lat": 25.014865,
   "Lon": 121.455724
 },
 {
   "Title": "北門車業有限公司",
   "Tel": "02-29651205",
   "Address": "新北市板橋區西門街12號",
   "Brand": "光陽",
   "Lat": 25.0116868,
   "Lon": 121.4555437
 },
 {
   "Title": "欣展展業行",
   "Tel": "02-29652668",
   "Address": "新北市板橋區大觀路1段8號",
   "Brand": "光陽",
   "Lat": 25.0085599,
   "Lon": 121.450582
 },
 {
   "Title": "昇樺機車行",
   "Tel": "02-29565263",
   "Address": "新北市板橋區仁愛路16號",
   "Brand": "光陽",
   "Lat": 24.9994651,
   "Lon": 121.4585744
 },
 {
   "Title": "永定機車行",
   "Tel": "02-26833470",
   "Address": "新北市板橋區溪崑二街8號1F",
   "Brand": "三陽",
   "Lat": 24.9919897,
   "Lon": 121.4289608
 },
 {
   "Title": "永裕車業行",
   "Tel": "02-26833950",
   "Address": "新北市板橋區溪北路158號",
   "Brand": "光陽",
   "Lat": 24.988038,
   "Lon": 121.430464
 },
 {
   "Title": "有展機車行",
   "Tel": "02-29553587",
   "Address": "新北市板橋區三民路1段31巷87弄11號",
   "Brand": "光陽",
   "Lat": 25.0235055,
   "Lon": 121.4812665
 },
 {
   "Title": "雷進順機車行",
   "Tel": "02-22527310",
   "Address": "新北市板橋區縣民大道3段31號",
   "Brand": "摩特",
   "Lat": 25.0222646,
   "Lon": 121.4785992
 },
 {
   "Title": "信隆機車行",
   "Tel": "02-22493018",
   "Address": "新北市中和區泰和街42號1F",
   "Brand": "光陽",
   "Lat": 24.9998551,
   "Lon": 121.4991931
 },
 {
   "Title": "和昇機車行",
   "Tel": "02-26187429",
   "Address": "新北市八里區龍米路一段99號",
   "Brand": "三陽",
   "Lat": 25.1264734,
   "Lon": 121.4523378
 },
 {
   "Title": "健誌實業有限公司",
   "Tel": "02-29285559",
   "Address": "新北市永和區中正路672.674號",
   "Brand": "山葉",
   "Lat": 25.0093864,
   "Lon": 121.5168013
 },
 {
   "Title": "鴻緯車業有限公司",
   "Tel": "02-22210427",
   "Address": "新北市中和區中山路2段467號1F",
   "Brand": "光陽",
   "Lat": 25.0048128,
   "Lon": 121.4834914
 },
 {
   "Title": "東茂車業有限公司",
   "Tel": "02-22223327",
   "Address": "新北市中和區中山路2段475號",
   "Brand": "三陽",
   "Lat": 25.0048238,
   "Lon": 121.483262
 },
 {
   "Title": "驥剛車業行",
   "Tel": "02-22233795",
   "Address": "新北市中和區中山路3段118號",
   "Brand": "山葉",
   "Lat": 25.0061027,
   "Lon": 121.4757741
 },
 {
   "Title": "升暉車業有限公司",
   "Tel": "02-22211388",
   "Address": "新北市中和區中山路3段177號",
   "Brand": "偉士伯",
   "Lat": 25.0061989,
   "Lon": 121.472932
 },
 {
   "Title": "佳順車業有限公司",
   "Tel": "02-29464366",
   "Address": "新北市中和區南山路543號",
   "Brand": "三陽",
   "Lat": 24.9868415,
   "Lon": 121.5081676
 },
 {
   "Title": "尚成車業行",
   "Tel": "02-22451788",
   "Address": "新北市中和區中興街133號",
   "Brand": "山葉",
   "Lat": 24.9914986,
   "Lon": 121.5000776
 },
 {
   "Title": "雋鑫車業行",
   "Tel": "02-22636560",
   "Address": "新北市土城區學成路92號",
   "Brand": "光陽",
   "Lat": 24.9889599,
   "Lon": 121.4505588
 },
 {
   "Title": "旺泰機車行",
   "Tel": "02-22427128",
   "Address": "新北市中和區圓通路162-3號",
   "Brand": "三陽",
   "Lat": 24.9952445,
   "Lon": 121.4974716
 },
 {
   "Title": "勝明機車行",
   "Tel": "02-22252866",
   "Address": "新北市中和區民享街86巷23號1樓",
   "Brand": "台鈴",
   "Lat": 25.000506,
   "Lon": 121.473347
 },
 {
   "Title": "良力車業有限公司",
   "Tel": "02-22260793",
   "Address": "新北市中和區員山路257號",
   "Brand": "摩特",
   "Lat": 24.9990654,
   "Lon": 121.481123
 },
 {
   "Title": "僑潔車業行",
   "Tel": "02-22423266",
   "Address": "新北市中和區中正路192號",
   "Brand": "光陽",
   "Lat": 24.994207,
   "Lon": 121.4975762
 },
 {
   "Title": "班長車業有限公司",
   "Tel": "02-22329633",
   "Address": "新北市永和區國中路2號1樓",
   "Brand": "偉士伯",
   "Lat": 25.0043406,
   "Lon": 121.524132
 },
 {
   "Title": "豪元車業有限公司",
   "Tel": "02-22497393",
   "Address": "新北市中和區連城路135號",
   "Brand": "山葉",
   "Lat": 24.9988963,
   "Lon": 121.4959569
 },
 {
   "Title": "國瓏機車輪業商業行",
   "Tel": "02-89418951",
   "Address": "新北市中和區更生街21號",
   "Brand": "台鈴",
   "Lat": 24.9962699,
   "Lon": 121.5222562
 },
 {
   "Title": "瑞和車業行",
   "Tel": "02-29403142",
   "Address": "新北市中和區景新街230-1號",
   "Brand": "三陽",
   "Lat": 24.9941823,
   "Lon": 121.5084753
 },
 {
   "Title": "景發車業有限公司",
   "Tel": "02-22480269",
   "Address": "新北市中和區景安路116號1F",
   "Brand": "山葉",
   "Lat": 24.9951401,
   "Lon": 121.5053446
 },
 {
   "Title": "福和車業有限公司",
   "Tel": "02-22495773",
   "Address": "新北市中和區永和路78號",
   "Brand": "山葉",
   "Lat": 25.0051946,
   "Lon": 121.4975881
 },
 {
   "Title": "光里展業有限公司",
   "Tel": "02-29986949",
   "Address": "新北市新莊區中正路145-14號",
   "Brand": "光陽",
   "Lat": 25.037617,
   "Lon": 121.4588106
 },
 {
   "Title": "東明車業有限公司",
   "Tel": "02-29933321",
   "Address": "新北市新莊區中正路145-15號1F",
   "Brand": "台鈴",
   "Lat": 25.0375933,
   "Lon": 121.4587728
 },
 {
   "Title": "泓陽車業行",
   "Tel": "02-29020770",
   "Address": "新北市新莊區中正路867-8號1F",
   "Brand": "三陽",
   "Lat": 25.0271381,
   "Lon": 121.418361
 },
 {
   "Title": "永利車業行",
   "Tel": "02-29036361",
   "Address": "新北市新莊區裕民街132號",
   "Brand": "光陽",
   "Lat": 25.0223093,
   "Lon": 121.4178271
 },
 {
   "Title": "民益車業行",
   "Tel": "02-22025903",
   "Address": "新北市新莊區民安西路224號",
   "Brand": "光陽",
   "Lat": 25.0145262,
   "Lon": 121.4257855
 },
 {
   "Title": "迎光車業有限公司",
   "Tel": "02-22027193",
   "Address": "新北市新莊區民安西路233號",
   "Brand": "山葉",
   "Lat": 25.0140775,
   "Lon": 121.4261356
 },
 {
   "Title": "源福車業行",
   "Tel": "02-22042398",
   "Address": "新北市新莊區民安西路318號",
   "Brand": "三陽",
   "Lat": 25.0118495,
   "Lon": 121.4265369
 },
 {
   "Title": "必榮機車材料行",
   "Tel": "02-22030650",
   "Address": "新北市新莊區民安西路365號",
   "Brand": "光陽",
   "Lat": 25.010475,
   "Lon": 121.4287
 },
 {
   "Title": "政義機車有限公司",
   "Tel": "02-29933674",
   "Address": "新北市新莊區公園路102號",
   "Brand": "山葉",
   "Lat": 25.039649,
   "Lon": 121.4509169
 },
 {
   "Title": "寶祥機車行",
   "Tel": "02-29935725",
   "Address": "新北市新莊區中港路394之1號",
   "Brand": "山葉",
   "Lat": 25.049537,
   "Lon": 121.452396
 },
 {
   "Title": "新豐機車行",
   "Tel": "02-22015298",
   "Address": "新北市新莊區豐年街53巷8號",
   "Brand": "光陽",
   "Lat": 25.0316062,
   "Lon": 121.4465975
 },
 {
   "Title": "泓順車業行",
   "Tel": "02-22048298",
   "Address": "新北市新莊區建安街52號",
   "Brand": "光陽",
   "Lat": 25.0248879,
   "Lon": 121.427444
 },
 {
   "Title": "駿福車業行",
   "Tel": "02-22049321",
   "Address": "新北市新莊區富國路154號",
   "Brand": "三陽",
   "Lat": 25.0248173,
   "Lon": 121.4232177
 },
 {
   "Title": "強順機車行",
   "Tel": "02-29936284",
   "Address": "新北市新莊區中誠街67號",
   "Brand": "光陽",
   "Lat": 25.0478379,
   "Lon": 121.450685
 },
 {
   "Title": "巨陽車業行",
   "Tel": "02-29931021",
   "Address": "新北市新莊區中和街90號",
   "Brand": "三陽",
   "Lat": 25.0466478,
   "Lon": 121.4477811
 },
 {
   "Title": "暐達車業有限公司",
   "Tel": "02-29925636",
   "Address": "新北市新莊區新泰路218號",
   "Brand": "山葉",
   "Lat": 25.0390248,
   "Lon": 121.4468174
 },
 {
   "Title": "中信機車行",
   "Tel": "02-29965827",
   "Address": "新北市新莊區中信街39號",
   "Brand": "光陽",
   "Lat": 25.050703,
   "Lon": 121.450222
 },
 {
   "Title": "信寬有限公司",
   "Tel": "02-26713327",
   "Address": "新北市三峽區復興路293號",
   "Brand": "台鈴",
   "Lat": 24.9387925,
   "Lon": 121.3659011
 },
 {
   "Title": "佳晉車業有限公司",
   "Tel": "02-26711631",
   "Address": "新北市三峽區介壽路1段165號",
   "Brand": "三陽",
   "Lat": 24.9312416,
   "Lon": 121.3771285
 },
 {
   "Title": "長銘車業有限公司",
   "Tel": "02-26716156",
   "Address": "新北市三峽區介壽路1段230號",
   "Brand": "山葉",
   "Lat": 24.93027,
   "Lon": 121.378247
 },
 {
   "Title": "泰益車業行",
   "Tel": "02-26710872",
   "Address": "新北市三峽區中園街28號",
   "Brand": "光陽",
   "Lat": 24.926511,
   "Lon": 121.368162
 },
 {
   "Title": "新祥輪業有限公司",
   "Tel": "02-29110410",
   "Address": "新北市新店區光明街117號",
   "Brand": "三陽",
   "Lat": 24.961529,
   "Lon": 121.539175
 },
 {
   "Title": "國偉機車行",
   "Tel": "02-29153838",
   "Address": "新北市新店區中興路3段186號",
   "Brand": "山葉",
   "Lat": 24.981554,
   "Lon": 121.544172
 },
 {
   "Title": "昇宏車業有限公司",
   "Tel": "02-22158569",
   "Address": "新北市新店區安康路3段28號1F",
   "Brand": "三陽",
   "Lat": 24.9532903,
   "Lon": 121.493095
 },
 {
   "Title": "志欣車業行",
   "Tel": "02-22142306",
   "Address": "新北市新店區安康路2段389號",
   "Brand": "光陽",
   "Lat": 24.9543728,
   "Lon": 121.4947765
 },
 {
   "Title": "霸輪機車行",
   "Tel": "02-29473561",
   "Address": "新北市新店區安和路3段169號1F",
   "Brand": "三陽",
   "Lat": 24.9859508,
   "Lon": 121.5160428
 },
 {
   "Title": "國隆車業有限公司",
   "Tel": "02-29187467",
   "Address": "新北市新店區北新路1段121號",
   "Brand": "光陽",
   "Lat": 24.9627219,
   "Lon": 121.539164
 },
 {
   "Title": "進揚車業有限公司",
   "Tel": "02-29154555",
   "Address": "新北市新店區北新路1段287號1F",
   "Brand": "光陽",
   "Lat": 24.9671169,
   "Lon": 121.541003
 },
 {
   "Title": "良達機車行",
   "Tel": "02-29138135",
   "Address": "新北市新店區安康路2段438號1樓",
   "Brand": "光陽",
   "Lat": 24.954957,
   "Lon": 121.495708
 },
 {
   "Title": "永全輪業有限公司",
   "Tel": "02-29159675",
   "Address": "新北市新店區建國路12-1號",
   "Brand": "山葉",
   "Lat": 24.9736953,
   "Lon": 121.5401632
 },
 {
   "Title": "富元車業有限公司",
   "Tel": "02-29468675",
   "Address": "新北市永和區得和路26號1F",
   "Brand": "光陽",
   "Lat": 25.0002554,
   "Lon": 121.5154766
 },
 {
   "Title": "偉盛輪業行",
   "Tel": "02-29278735",
   "Address": "新北市永和區得和路249-4號",
   "Brand": "山葉",
   "Lat": 25.000149,
   "Lon": 121.520768
 },
 {
   "Title": "成和機車有限公司",
   "Tel": "02-29288538",
   "Address": "新北市永和區得和路313號1F",
   "Brand": "三陽",
   "Lat": 24.9996473,
   "Lon": 121.5231872
 },
 {
   "Title": "皇偉機車行",
   "Tel": "02-29284462",
   "Address": "新北市永和區成功路1段115號",
   "Brand": "山葉",
   "Lat": 25.0021641,
   "Lon": 121.5270244
 },
 {
   "Title": "昇鴻車業有限公司",
   "Tel": "02-29203504",
   "Address": "新北市永和區秀朗路2段167號",
   "Brand": "山葉",
   "Lat": 25.001672,
   "Lon": 121.52534
 },
 {
   "Title": "廣固機車行",
   "Tel": "02-29276545",
   "Address": "新北市永和區中正路522號",
   "Brand": "三陽",
   "Lat": 25.0049758,
   "Lon": 121.5173735
 },
 {
   "Title": "彥銘機車行",
   "Tel": "02-29218584",
   "Address": "新北市永和區福和路29號",
   "Brand": "三陽",
   "Lat": 25.0081244,
   "Lon": 121.5237937
 },
 {
   "Title": "裕祥車行",
   "Tel": "02-29232013",
   "Address": "新北市永和區永元路31號",
   "Brand": "光陽",
   "Lat": 25.0009424,
   "Lon": 121.5220495
 },
 {
   "Title": "福勝機車行",
   "Tel": "02-28093512",
   "Address": "新北市淡水區民權路183-2號",
   "Brand": "偉士伯",
   "Lat": 25.1334677,
   "Lon": 121.4592728
 },
 {
   "Title": "呈運機車行",
   "Tel": "02-29286290",
   "Address": "新北市永和區永亨路75號",
   "Brand": "光陽",
   "Lat": 25.0059108,
   "Lon": 121.5216439
 },
 {
   "Title": "永諭車行",
   "Tel": "02-29241721",
   "Address": "新北市永和區文化路105號",
   "Brand": "三陽",
   "Lat": 25.015172,
   "Lon": 121.512928
 },
 {
   "Title": "東政機車行",
   "Tel": "02-29272615",
   "Address": "新北市永和區文化路112號",
   "Brand": "山葉",
   "Lat": 25.01539,
   "Lon": 121.513426
 },
 {
   "Title": "宏聯機車行",
   "Tel": "02-22314318",
   "Address": "新北市永和區信義路106號",
   "Brand": "光陽",
   "Lat": 25.014185,
   "Lon": 121.51244
 },
 {
   "Title": "大輪車業有限公司",
   "Tel": "02-22631846",
   "Address": "新北市土城區中央路1段269-1號1F",
   "Brand": "台鈴",
   "Lat": 24.9851877,
   "Lon": 121.4449697
 },
 {
   "Title": "世煇車業有限公司",
   "Tel": "02-22631818",
   "Address": "新北市土城區中央路1段357號",
   "Brand": "光陽",
   "Lat": 24.9811211,
   "Lon": 121.4432298
 },
 {
   "Title": "鋐鉅車業有限公司",
   "Tel": "02-22675029",
   "Address": "新北市土城區中央路3段229號",
   "Brand": "光陽",
   "Lat": 24.9643535,
   "Lon": 121.4293761
 },
 {
   "Title": "永都機車行",
   "Tel": "02-22609707",
   "Address": "新北市中和區中山路三段109號",
   "Brand": "三陽",
   "Lat": 25.0058416,
   "Lon": 121.4748969
 },
 {
   "Title": "連揚機車行",
   "Tel": "02-22629984",
   "Address": "新北市土城區裕生路7號",
   "Brand": "光陽",
   "Lat": 24.9876102,
   "Lon": 121.4486092
 },
 {
   "Title": "自來車行",
   "Tel": "02-22616353",
   "Address": "新北市土城區裕民路270號1F",
   "Brand": "山葉",
   "Lat": 24.9825707,
   "Lon": 121.454802
 },
 {
   "Title": "長新機車行",
   "Tel": "02-22647762",
   "Address": "新北市土城區延平街14號",
   "Brand": "山葉",
   "Lat": 24.9909529,
   "Lon": 121.4684148
 },
 {
   "Title": "東泰發車業有限公司",
   "Tel": "02-22745955",
   "Address": "新北市土城區清水路240號",
   "Brand": "山葉",
   "Lat": 24.9827689,
   "Lon": 121.4613487
 },
 {
   "Title": "明展機車行",
   "Tel": "02-29626622",
   "Address": "新北市中和區民德路332號",
   "Brand": "山葉",
   "Lat": 24.994948,
   "Lon": 121.466333
 },
 {
   "Title": "協鑫車業行",
   "Tel": "02-22640569",
   "Address": "新北市土城區青雲路76號",
   "Brand": "山葉",
   "Lat": 24.9869854,
   "Lon": 121.4592959
 },
 {
   "Title": "萊萊車行",
   "Tel": "02-22632650",
   "Address": "新北市土城區青仁路19號",
   "Brand": "山葉",
   "Lat": 24.978708,
   "Lon": 121.4601473
 },
 {
   "Title": "日友機車行",
   "Tel": "02-22663810",
   "Address": "新北市土城區清水路180號",
   "Brand": "光陽",
   "Lat": 24.9815419,
   "Lon": 121.460206
 },
 {
   "Title": "昌新機車行",
   "Tel": "02-22617115",
   "Address": "新北市土城區延吉街127號",
   "Brand": "山葉",
   "Lat": 24.986383,
   "Lon": 121.470931
 },
 {
   "Title": "宇峯機車材料行",
   "Tel": "02-22656073",
   "Address": "新北市土城區延和路50號",
   "Brand": "光陽",
   "Lat": 24.988705,
   "Lon": 121.465404
 },
 {
   "Title": "欣泰機車行",
   "Tel": "02-22861227",
   "Address": "新北市三重區下竹圍街24號1F",
   "Brand": "三陽",
   "Lat": 25.0755543,
   "Lon": 121.4808089
 },
 {
   "Title": "廣明車業行",
   "Tel": "02-29887824",
   "Address": "新北市三重區仁義街211巷9號",
   "Brand": "台鈴",
   "Lat": 25.081921,
   "Lon": 121.497282
 },
 {
   "Title": "慶山機車行",
   "Tel": "02-29891756",
   "Address": "新北市三重區五華街122巷16號",
   "Brand": "山葉",
   "Lat": 25.0827993,
   "Lon": 121.4914386
 },
 {
   "Title": "鴻寶車業有限公司",
   "Tel": "02-29857833",
   "Address": "新北市三重區重安街102號1樓",
   "Brand": "山葉",
   "Lat": 25.0559199,
   "Lon": 121.4930022
 },
 {
   "Title": "泓發車行有限公司",
   "Tel": "02-29823458",
   "Address": "新北市三重區三和路3段160號1F",
   "Brand": "光陽",
   "Lat": 25.0729639,
   "Lon": 121.4927642
 },
 {
   "Title": "金和機車有限公司",
   "Tel": "02-29893783",
   "Address": "新北市三重區過圳街86號1F",
   "Brand": "山葉",
   "Lat": 25.0609034,
   "Lon": 121.487382
 },
 {
   "Title": "銘通機車有限公司",
   "Tel": "02-29863722",
   "Address": "新北市三重區重陽路1段104巷5號",
   "Brand": "山葉",
   "Lat": 25.059281,
   "Lon": 121.4861589
 },
 {
   "Title": "昇輝有限公司",
   "Tel": "02-89857347",
   "Address": "新北市三重區中正北路126號",
   "Brand": "三陽",
   "Lat": 25.065231,
   "Lon": 121.485344
 },
 {
   "Title": "上鈴機車行",
   "Tel": "02-82866575",
   "Address": "新北市蘆洲區長安街335號",
   "Brand": "台鈴",
   "Lat": 25.0866798,
   "Lon": 121.4572748
 },
 {
   "Title": "富松機車行",
   "Tel": "02-29818045",
   "Address": "新北市三重區重新路3段31號",
   "Brand": "山葉",
   "Lat": 25.061618,
   "Lon": 121.4941
 },
 {
   "Title": "太平洋車業有限公司",
   "Tel": "02-29958642",
   "Address": "新北市三重區重新路5段587號",
   "Brand": "山葉",
   "Lat": 25.046051,
   "Lon": 121.469839
 },
 {
   "Title": "順輪機車行",
   "Tel": "02-29782307",
   "Address": "新北市三重區環河南路223號1F",
   "Brand": "台鈴",
   "Lat": 25.0518037,
   "Lon": 121.4924857
 },
 {
   "Title": "弘祥機車有限公司",
   "Tel": "02-26793014",
   "Address": "新北市鶯歌區中正一路20號",
   "Brand": "山葉",
   "Lat": 24.9531561,
   "Lon": 121.3525969
 },
 {
   "Title": "陽全車業有限公司",
   "Tel": "02-26793098",
   "Address": "新北市鶯歌區文化路385號",
   "Brand": "光陽",
   "Lat": 24.9506424,
   "Lon": 121.3524474
 },
 {
   "Title": "金大機車有限公司",
   "Tel": "02-22819837",
   "Address": "新北市蘆洲區中山一路63號",
   "Brand": "光陽",
   "Lat": 25.081026,
   "Lon": 121.478364
 },
 {
   "Title": "謝氏機車業行",
   "Tel": "02-22826566",
   "Address": "新北市蘆洲區中山一路265號1F",
   "Brand": "山葉",
   "Lat": 25.0800177,
   "Lon": 121.4726852
 },
 {
   "Title": "銘曜機車行",
   "Tel": "02-22826838",
   "Address": "新北市蘆洲區中正路185巷5號",
   "Brand": "光陽",
   "Lat": 25.0850872,
   "Lon": 121.4678042
 },
 {
   "Title": "東興機車行",
   "Tel": "02-22857593",
   "Address": "新北市蘆洲區九芎街90巷23號",
   "Brand": "台鈴",
   "Lat": 25.0812562,
   "Lon": 121.4646489
 },
 {
   "Title": "偉鼎車業有限公司",
   "Tel": "02-26896687",
   "Address": "新北市樹林區中正路660號",
   "Brand": "山葉",
   "Lat": 25.028692,
   "Lon": 121.421141
 },
 {
   "Title": "松興機車行",
   "Tel": "02-86845848",
   "Address": "新北市樹林區八德街107號",
   "Brand": "光陽",
   "Lat": 24.9809264,
   "Lon": 121.4205214
 },
 {
   "Title": "益宏機車行",
   "Tel": "02-26821655",
   "Address": "新北市樹林區樹新路148號",
   "Brand": "三陽",
   "Lat": 24.998958,
   "Lon": 121.430583
 },
 {
   "Title": "慶旺車業行",
   "Tel": "02-22963892",
   "Address": "新北市泰山區明志路2段304號",
   "Brand": "光陽",
   "Lat": 25.0462826,
   "Lon": 121.4264554
 },
 {
   "Title": "榮泰機車行",
   "Tel": "02-29032160",
   "Address": "新北市泰山區明志路2段333號",
   "Brand": "山葉",
   "Lat": 25.0451947,
   "Lon": 121.4258538
 },
 {
   "Title": "暐達車業行",
   "Tel": "02-29001621",
   "Address": "新北市泰山區明志路2段265號",
   "Brand": "山葉",
   "Lat": 25.047478,
   "Lon": 121.4269589
 },
 {
   "Title": "大運車輛企業有限公司",
   "Tel": "02-29099223",
   "Address": "新北市泰山區泰林路2段178號",
   "Brand": "光陽",
   "Lat": 25.0605995,
   "Lon": 121.4337864
 },
 {
   "Title": "德隆機車行",
   "Tel": "02-29096082",
   "Address": "新北市泰山區泰林路2段418號",
   "Brand": "三陽",
   "Lat": 25.0642911,
   "Lon": 121.4271982
 },
 {
   "Title": "勝得機車行",
   "Tel": "02-22967566",
   "Address": "新北市泰山區泰林路2段568號",
   "Brand": "山葉",
   "Lat": 25.0635865,
   "Lon": 121.4224438
 },
 {
   "Title": "林口車業有限公司",
   "Tel": "02-26018540",
   "Address": "新北市林口區仁愛路1段310號1樓",
   "Brand": "台鈴",
   "Lat": 25.0762122,
   "Lon": 121.3925849
 },
 {
   "Title": "成發機車行",
   "Tel": "02-22914313",
   "Address": "新北市五股區成泰路3段593號",
   "Brand": "台鈴",
   "Lat": 25.1030161,
   "Lon": 121.4523757
 },
 {
   "Title": "民義機車行",
   "Tel": "02-22922697",
   "Address": "新北市五股區民義路1段158號",
   "Brand": "光陽",
   "Lat": 25.0870086,
   "Lon": 121.4334011
 },
 {
   "Title": "新盛車業有限公司",
   "Tel": "02-29812983",
   "Address": "新北市蘆洲區長安街272號",
   "Brand": "三陽",
   "Lat": 25.0870135,
   "Lon": 121.457385
 },
 {
   "Title": "高易福車業有限公司",
   "Tel": "02-26418407",
   "Address": "新北市汐止區新台五路2段68號",
   "Brand": "三陽",
   "Lat": 25.0666454,
   "Lon": 121.6638893
 },
 {
   "Title": "文陽車業有限公司",
   "Tel": "02-26423566",
   "Address": "新北市汐止區大同路2段483號1F",
   "Brand": "三陽",
   "Lat": 25.0684642,
   "Lon": 121.6606423
 },
 {
   "Title": "清波車業有限公司",
   "Tel": "02-26412258",
   "Address": "新北市汐止區忠孝東路273號",
   "Brand": "光陽",
   "Lat": 25.068327,
   "Lon": 121.6636723
 },
 {
   "Title": "利祥機車行",
   "Tel": "02-24901240",
   "Address": "新北市貢寮區仁和路244號",
   "Brand": "三陽",
   "Lat": 25.0511865,
   "Lon": 121.9230088
 },
 {
   "Title": "瑋達車業行",
   "Tel": "02-24951462",
   "Address": "新北市永和區福和路85號",
   "Brand": "山葉",
   "Lat": 25.0078657,
   "Lon": 121.5223665
 },
 {
   "Title": "頂立車業行",
   "Tel": "02-26103352",
   "Address": "新北市八里區龍米路二段192號",
   "Brand": "山葉",
   "Lat": 25.1583615,
   "Lon": 121.4337461
 },
 {
   "Title": "協勝車業行",
   "Tel": "02-26102388",
   "Address": "新北市八里區中山路二段117號",
   "Brand": "山葉",
   "Lat": 25.1519345,
   "Lon": 121.4054839
 },
 {
   "Title": "加益車業有限公司",
   "Tel": "02-26231239",
   "Address": "新北市淡水區中山北路1段307號",
   "Brand": "光陽",
   "Lat": 25.1807255,
   "Lon": 121.4446758
 },
 {
   "Title": "德欣車業有限公司",
   "Tel": "02-26298562",
   "Address": "新北市淡水區北新路74號",
   "Brand": "三陽",
   "Lat": 25.1783951,
   "Lon": 121.4465254
 },
 {
   "Title": "順億車業有限公司",
   "Tel": "02-26213503",
   "Address": "新北市淡水區學府路3號1樓",
   "Brand": "山葉",
   "Lat": 25.1678118,
   "Lon": 121.4472533
 },
 {
   "Title": "義山車業有限公司",
   "Tel": "02-26234819",
   "Address": "新北市淡水區淡金路三段313號",
   "Brand": "三陽",
   "Lat": 25.2057008,
   "Lon": 121.4488216
 },
 {
   "Title": "正新機車材料行",
   "Tel": "02-26362233",
   "Address": "新北市三芝區淡金路二段18號",
   "Brand": "台鈴",
   "Lat": 25.2597162,
   "Lon": 121.502644
 },
 {
   "Title": "銓利機車行",
   "Tel": "02-26624154",
   "Address": "新北市深坑區北深路一段114號",
   "Brand": "三陽",
   "Lat": 25.0107645,
   "Lon": 121.6354785
 },
 {
   "Title": "大祥盛車業行",
   "Tel": "02-26648971",
   "Address": "新北市深坑區文化街118號",
   "Brand": "光陽",
   "Lat": 25.00197,
   "Lon": 121.6156973
 },
 {
   "Title": "祥義車業有限公司",
   "Tel": "02-22117954",
   "Address": "新北市新店區碧安街7巷9號",
   "Brand": "光陽",
   "Lat": 24.9680038,
   "Lon": 121.5167049
 },
 {
   "Title": "新建興車業行",
   "Tel": "02-22832014",
   "Address": "新北市蘆洲區三民路183號",
   "Brand": "山葉",
   "Lat": 25.0873538,
   "Lon": 121.4707149
 },
 {
   "Title": "立全機車行",
   "Tel": "02-22116317",
   "Address": "新北市新店區安民街191號1樓",
   "Brand": "三陽",
   "Lat": 24.9710702,
   "Lon": 121.5169138
 },
 {
   "Title": "鴻川機車行",
   "Tel": "02-29614036",
   "Address": "新北市板橋區民生路1段67號",
   "Brand": "光陽",
   "Lat": 25.013361,
   "Lon": 121.475083
 },
 {
   "Title": "龍坐機車行",
   "Tel": "02-29668067",
   "Address": "新北市板橋區僑中一街124巷18弄2號",
   "Brand": "三陽",
   "Lat": 25.0136938,
   "Lon": 121.4462288
 },
 {
   "Title": "冠麟機車行",
   "Tel": "02-29520950",
   "Address": "新北市板橋區三民路二段7號",
   "Brand": "三陽",
   "Lat": 25.01854,
   "Lon": 121.479441
 },
 {
   "Title": "福城車業行",
   "Tel": "02-22837784",
   "Address": "新北市蘆洲區光榮路36號1樓",
   "Brand": "山葉",
   "Lat": 25.0882857,
   "Lon": 121.460907
 },
 {
   "Title": "眾益機車行",
   "Tel": "02-29822768",
   "Address": "新北市三重區中正北路348號1樓",
   "Brand": "自由",
   "Lat": 25.0692557,
   "Lon": 121.4776213
 },
 {
   "Title": "高昇機車行",
   "Tel": "02-86665597",
   "Address": "新北市新店區安民街311號",
   "Brand": "三陽",
   "Lat": 24.9740635,
   "Lon": 121.517513
 },
 {
   "Title": "嘉成機車行",
   "Tel": "02-22110246",
   "Address": "新北市新店區安康路2段278號",
   "Brand": "三陽",
   "Lat": 24.9587705,
   "Lon": 121.5082799
 },
 {
   "Title": "景泰車業行",
   "Tel": "02-22113507",
   "Address": "新北市新店區安忠路21號",
   "Brand": "山葉",
   "Lat": 24.962315,
   "Lon": 121.5147103
 },
 {
   "Title": "昱安車業行",
   "Tel": "02-29834628",
   "Address": "新北市三重區頂崁街199號1樓",
   "Brand": "台鈴",
   "Lat": 25.0667445,
   "Lon": 121.4775232
 },
 {
   "Title": "金新機車行",
   "Tel": "02-24989396",
   "Address": "新北市金山區中山路258號",
   "Brand": "山葉",
   "Lat": 25.2222993,
   "Lon": 121.6368295
 },
 {
   "Title": "鑫隆車業行",
   "Tel": "02-22175335",
   "Address": "新北市新店區北宜路二段98號",
   "Brand": "光陽",
   "Lat": 24.9535159,
   "Lon": 121.555371
 },
 {
   "Title": "儀芳機車行",
   "Tel": "02-26470266",
   "Address": "新北市汐止區連興街144號",
   "Brand": "山葉",
   "Lat": 25.061452,
   "Lon": 121.6539639
 },
 {
   "Title": "松祥機車行",
   "Tel": "02-26958284",
   "Address": "新北市汐止區康寧街510號1樓",
   "Brand": "山葉",
   "Lat": 25.0684679,
   "Lon": 121.633249
 },
 {
   "Title": "德旺機車行",
   "Tel": "02-26945592",
   "Address": "新北市汐止區中興路159號",
   "Brand": "三陽",
   "Lat": 25.0660579,
   "Lon": 121.6311088
 },
 {
   "Title": "進全機車行",
   "Tel": "02-26923503",
   "Address": "新北市汐止區康寧街506號1樓",
   "Brand": "光陽",
   "Lat": 25.068423,
   "Lon": 121.633115
 },
 {
   "Title": "辰偉機車行",
   "Tel": "02-29893093",
   "Address": "新北市三重區大仁街122號1樓",
   "Brand": "山葉",
   "Lat": 25.0660537,
   "Lon": 121.49338
 },
 {
   "Title": "新才源機車行",
   "Tel": "02-22128062",
   "Address": "新北市新店區安和路二段199號1樓",
   "Brand": "山葉",
   "Lat": 24.9750455,
   "Lon": 121.5178306
 },
 {
   "Title": "文海機車行",
   "Tel": "02-26804644",
   "Address": "新北市樹林區佳園路2段114號",
   "Brand": "光陽",
   "Lat": 24.9571353,
   "Lon": 121.3897815
 },
 {
   "Title": "和興車業行",
   "Tel": "02-26805688",
   "Address": "新北市樹林區佳園路一段7號",
   "Brand": "光陽",
   "Lat": 24.9717552,
   "Lon": 121.3927966
 },
 {
   "Title": "仁人機車行",
   "Tel": "02-22813052",
   "Address": "新北市蘆洲區民義街38號1樓",
   "Brand": "台鈴",
   "Lat": 25.0887476,
   "Lon": 121.4714644
 },
 {
   "Title": "暘展機車行",
   "Tel": "02-22893631",
   "Address": "新北市蘆洲區民義街63號1樓",
   "Brand": "台鈴",
   "Lat": 25.0899722,
   "Lon": 121.472961
 },
 {
   "Title": "欣龍機車行",
   "Tel": "02-22819580",
   "Address": "新北市蘆洲區民權路63號1樓",
   "Brand": "台鈴",
   "Lat": 25.0882,
   "Lon": 121.4736918
 },
 {
   "Title": "正龍車業行",
   "Tel": "02-22891588",
   "Address": "新北市蘆洲區信義路315號",
   "Brand": "山葉",
   "Lat": 25.0863147,
   "Lon": 121.4783421
 },
 {
   "Title": "大大機車行",
   "Tel": "02-86683962",
   "Address": "新北市新店區新和街87號1樓",
   "Brand": "光陽",
   "Lat": 24.9864226,
   "Lon": 121.5207752
 },
 {
   "Title": "裕晟機車有限公司",
   "Tel": "02-86868900",
   "Address": "新北市樹林區太元街64號",
   "Brand": "光陽",
   "Lat": 24.978701,
   "Lon": 121.4190348
 },
 {
   "Title": "裕正機車行",
   "Tel": "02-29187207",
   "Address": "新北市新店區民族路245號1樓",
   "Brand": "三陽",
   "Lat": 24.9753555,
   "Lon": 121.5365489
 },
 {
   "Title": "東泓車業行",
   "Tel": "02-82623511",
   "Address": "新北市土城區學府路1段42號",
   "Brand": "光陽",
   "Lat": 24.9886143,
   "Lon": 121.4578997
 },
 {
   "Title": "益泰機車行",
   "Tel": "02-22606518",
   "Address": "新北市土城區中正路63號1樓",
   "Brand": "三陽",
   "Lat": 24.97563,
   "Lon": 121.4444371
 },
 {
   "Title": "成泰車業行",
   "Tel": "02-29925649",
   "Address": "新北市新莊區幸福路25號1樓",
   "Brand": "台鈴",
   "Lat": 25.04924,
   "Lon": 121.4589599
 },
 {
   "Title": "永興機車行",
   "Tel": "02-26861955",
   "Address": "新北市板橋區溪崑二街22巷20號1-2樓",
   "Brand": "台鈴",
   "Lat": 24.9916969,
   "Lon": 121.428345
 },
 {
   "Title": "隆運機車行",
   "Tel": "02-29656157",
   "Address": "新北市板橋區南雅南路1段105號1樓",
   "Brand": "自由",
   "Lat": 25.0050452,
   "Lon": 121.4555027
 },
 {
   "Title": "文輝機車行",
   "Tel": "02-22912243",
   "Address": "新北市五股區凌雲路1段148號1樓",
   "Brand": "自由",
   "Lat": 25.1023533,
   "Lon": 121.4492456
 },
 {
   "Title": "民興車業行",
   "Tel": "02-82010706",
   "Address": "新北市新莊區建安街43號1樓",
   "Brand": "自由",
   "Lat": 25.0249135,
   "Lon": 121.4276434
 },
 {
   "Title": "展雄機車行",
   "Tel": "02-22855994",
   "Address": "新北市蘆洲區長安街349號1樓",
   "Brand": "自由",
   "Lat": 25.0870943,
   "Lon": 121.4571758
 },
 {
   "Title": "祥利車業企業社",
   "Tel": "02-22703507",
   "Address": "新北市土城區延平街73號",
   "Brand": "自由",
   "Lat": 24.9930642,
   "Lon": 121.4676092
 },
 {
   "Title": "良生機車行",
   "Tel": "02-29292286",
   "Address": "新北市永和區仁愛路112號",
   "Brand": "自由",
   "Lat": 25.0132399,
   "Lon": 121.511837
 },
 {
   "Title": "晉豐機車展業行",
   "Tel": "02-22523913",
   "Address": "新北市板橋區莊敬路155號",
   "Brand": "自由",
   "Lat": 25.0247038,
   "Lon": 121.4716121
 },
 {
   "Title": "任峰機車行",
   "Tel": "02-22625619",
   "Address": "新北市土城區學府路一段16號1樓",
   "Brand": "自由",
   "Lat": 24.9885903,
   "Lon": 121.4590097
 },
 {
   "Title": "錦良機車行",
   "Tel": "02-29400592",
   "Address": "新北市中和區景平路147號",
   "Brand": "自由",
   "Lat": 24.992018,
   "Lon": 121.514035
 },
 {
   "Title": "進鑫機車行",
   "Tel": "02-22427508",
   "Address": "新北市中和區中興街156號",
   "Brand": "自由",
   "Lat": 24.991883,
   "Lon": 121.4998017
 },
 {
   "Title": "積躍車業行",
   "Tel": "02-29512379",
   "Address": "新北市板橋區貴興路37號",
   "Brand": "自由",
   "Lat": 25.003745,
   "Lon": 121.457665
 },
 {
   "Title": "順展車業有限公司",
   "Tel": "02-89933312",
   "Address": "新北市新莊區昌平街7號1樓",
   "Brand": "自由",
   "Lat": 25.0524835,
   "Lon": 121.4548632
 },
 {
   "Title": "明德機車行",
   "Tel": "02-29681854",
   "Address": "新北市板橋區大仁街41號",
   "Brand": "自由",
   "Lat": 25.0165049,
   "Lon": 121.454912
 },
 {
   "Title": "亞澤車業行",
   "Tel": "02-26833772",
   "Address": "新北市樹林區中山路一段284號",
   "Brand": "自由",
   "Lat": 24.986905,
   "Lon": 121.420475
 },
 {
   "Title": "立冠車業有限公司",
   "Tel": "02-26227166",
   "Address": "新北市淡水區中山路137-1號1樓",
   "Brand": "自由",
   "Lat": 25.1714611,
   "Lon": 121.4408363
 },
 {
   "Title": "萬吉機車行",
   "Tel": "02-26231379",
   "Address": "新北市淡水區中山路103號1樓",
   "Brand": "自由",
   "Lat": 25.170682,
   "Lon": 121.441892
 },
 {
   "Title": "益成機車行",
   "Tel": "02-29434817",
   "Address": "新北市永和區成功路2段152號1樓",
   "Brand": "自由",
   "Lat": 24.9968082,
   "Lon": 121.5264466
 },
 {
   "Title": "泰有機車行",
   "Tel": "02-28575375",
   "Address": "新北市三重區碧華街272號",
   "Brand": "三陽",
   "Lat": 25.0829541,
   "Lon": 121.488788
 },
 {
   "Title": "鑫輝機車行",
   "Tel": "02-22830030",
   "Address": "新北市蘆洲區復興路125號",
   "Brand": "台鈴",
   "Lat": 25.0883848,
   "Lon": 121.4774994
 },
 {
   "Title": "正龍機車行",
   "Tel": "02-22873216",
   "Address": "新北市三重區車路頭街139巷4號1樓",
   "Brand": "自由",
   "Lat": 25.07642,
   "Lon": 121.484066
 },
 {
   "Title": "全星機車行",
   "Tel": "02-29893846",
   "Address": "新北市三重區忠孝路2段152號",
   "Brand": "三陽",
   "Lat": 25.0683574,
   "Lon": 121.499473
 },
 {
   "Title": "富順車業行",
   "Tel": "02-29845869",
   "Address": "新北市三重區大仁街46號1樓",
   "Brand": "自由",
   "Lat": 25.06451,
   "Lon": 121.491556
 },
 {
   "Title": "展昱機車行",
   "Tel": "02-22627168",
   "Address": "新北市土城區裕民路204號1樓",
   "Brand": "自由",
   "Lat": 24.9845138,
   "Lon": 121.453117
 },
 {
   "Title": "順達機車行",
   "Tel": "02-29237716",
   "Address": "新北市永和區永利路58號",
   "Brand": "台鈴",
   "Lat": 25.005062,
   "Lon": 121.5191473
 },
 {
   "Title": "宏健機車行",
   "Tel": "02-89282338",
   "Address": "新北市永和區竹林路177號1樓",
   "Brand": "自由",
   "Lat": 25.009879,
   "Lon": 121.520746
 },
 {
   "Title": "宏億機車行",
   "Tel": "02-89218921",
   "Address": "新北市永和區文化路165號1樓",
   "Brand": "自由",
   "Lat": 25.01651,
   "Lon": 121.510056
 },
 {
   "Title": "尚森車業行",
   "Tel": "02-85215674",
   "Address": "新北市新莊區化成路421號1樓",
   "Brand": "山葉",
   "Lat": 25.0593339,
   "Lon": 121.464798
 },
 {
   "Title": "日利車行",
   "Tel": "02-29549370",
   "Address": "新北市板橋區實踐路60號1樓",
   "Brand": "自由",
   "Lat": 25.005911,
   "Lon": 121.463749
 },
 {
   "Title": "金展機車行",
   "Tel": "02-86850686",
   "Address": "新北市樹林區鎮前街427號1樓",
   "Brand": "自由",
   "Lat": 24.982703,
   "Lon": 121.413535
 },
 {
   "Title": "育賢車業行",
   "Tel": "02-86778524",
   "Address": "新北市鶯歌區育智路59號1樓",
   "Brand": "自由",
   "Lat": 24.9531062,
   "Lon": 121.3454529
 },
 {
   "Title": "金馴車業行",
   "Tel": "02-22211005",
   "Address": "新北市中和區員山路372號1樓",
   "Brand": "自由",
   "Lat": 25.0041518,
   "Lon": 121.4808134
 },
 {
   "Title": "宏萬車業行",
   "Tel": "02-22040675",
   "Address": "新北市新莊區民安路156號",
   "Brand": "自由",
   "Lat": 25.024648,
   "Lon": 121.424631
 },
 {
   "Title": "統一機車行",
   "Tel": "02-29282459",
   "Address": "新北市永和區永貞路410號",
   "Brand": "自由",
   "Lat": 25.008008,
   "Lon": 121.508816
 },
 {
   "Title": "展輝車業行",
   "Tel": "02-89112306",
   "Address": "新北市新店區光明街103號1樓",
   "Brand": "三陽",
   "Lat": 24.9612389,
   "Lon": 121.539049
 },
 {
   "Title": "明奇機車行",
   "Tel": "02-26231033",
   "Address": "新北市淡水區大忠街67號",
   "Brand": "三陽",
   "Lat": 25.1770856,
   "Lon": 121.4453552
 },
 {
   "Title": "新順達車業行",
   "Tel": "02-22821226",
   "Address": "新北市蘆洲區信義路200號1樓",
   "Brand": "自由",
   "Lat": 25.0846551,
   "Lon": 121.4791762
 },
 {
   "Title": "鑫川吉機車行",
   "Tel": "02-82458506",
   "Address": "新北市中和區莊敬路49巷4號1樓",
   "Brand": "自由",
   "Lat": 25.005526,
   "Lon": 121.501502
 },
 {
   "Title": "金翼詮有限公司",
   "Tel": "02-22873815",
   "Address": "新北市三重區三和路4段87號",
   "Brand": "自由",
   "Lat": 25.075545,
   "Lon": 121.48897
 },
 {
   "Title": "照來機車行",
   "Tel": "02-26796388",
   "Address": "新北市鶯歌區鶯桃路2段54號",
   "Brand": "自由",
   "Lat": 24.9729309,
   "Lon": 121.3250967
 },
 {
   "Title": "健富機車行",
   "Tel": "02-22872769",
   "Address": "新北市三重區永福街84號1樓",
   "Brand": "自由",
   "Lat": 25.0764156,
   "Lon": 121.4789139
 },
 {
   "Title": "益昌車業行",
   "Tel": "02-29690230",
   "Address": "新北市板橋區西門街24號",
   "Brand": "自由",
   "Lat": 25.010959,
   "Lon": 121.453716
 },
 {
   "Title": "榮益車業行",
   "Tel": "02-22054051",
   "Address": "新北市新莊區民安東路4號1樓",
   "Brand": "自由",
   "Lat": 25.020854,
   "Lon": 121.427839
 },
 {
   "Title": "鴻福機車有限公司",
   "Tel": "02-22809725",
   "Address": "新北市三重區永福街237號1樓",
   "Brand": "自由",
   "Lat": 25.0743038,
   "Lon": 121.4806966
 },
 {
   "Title": "日日興車業行",
   "Tel": "02-29660591",
   "Address": "新北市板橋區林園街40號1樓",
   "Brand": "自由",
   "Lat": 25.010222,
   "Lon": 121.453746
 },
 {
   "Title": "豪友機車行",
   "Tel": "02-86723136",
   "Address": "新北市三峽區永安街43號1樓",
   "Brand": "光陽",
   "Lat": 24.930065,
   "Lon": 121.376244
 },
 {
   "Title": "日欣機車行",
   "Tel": "02-29652570",
   "Address": "新北市板橋區民權路178號1樓",
   "Brand": "自由",
   "Lat": 25.0132633,
   "Lon": 121.4595864
 },
 {
   "Title": "玉新機車行",
   "Tel": "02-29122958",
   "Address": "新北市新店區建國路90號",
   "Brand": "三陽",
   "Lat": 24.9773272,
   "Lon": 121.5404821
 },
 {
   "Title": "天達機車行",
   "Tel": "02-26713953",
   "Address": "新北市三峽區中正路一段121號1樓",
   "Brand": "三陽",
   "Lat": 24.9290986,
   "Lon": 121.3737924
 },
 {
   "Title": "永泰利車業行",
   "Tel": "02-86852377",
   "Address": "新北市樹林區太元街36號",
   "Brand": "三陽",
   "Lat": 24.9800388,
   "Lon": 121.4181099
 },
 {
   "Title": "旺昇機車行",
   "Tel": "02-29673210",
   "Address": "新北市板橋區國光路180號1樓",
   "Brand": "光陽",
   "Lat": 25.0182479,
   "Lon": 121.4607778
 },
 {
   "Title": "欣立昌機車行",
   "Tel": "02-29554505",
   "Address": "新北市板橋區廣權路89號",
   "Brand": "光陽",
   "Lat": 24.9924584,
   "Lon": 121.4641391
 },
 {
   "Title": "天勝機車行",
   "Tel": "02-29140712",
   "Address": "新北市新店區寶橋路156之1號1樓",
   "Brand": "光陽",
   "Lat": 24.9772577,
   "Lon": 121.5489506
 },
 {
   "Title": "春哥機車行",
   "Tel": "02-29121128",
   "Address": "新北市新店區寶中路59號",
   "Brand": "三陽",
   "Lat": 24.9804521,
   "Lon": 121.54694
 },
 {
   "Title": "世勇車行",
   "Tel": "02-24972326",
   "Address": "新北市瑞芳區明燈路2段36號",
   "Brand": "三陽",
   "Lat": 25.1078382,
   "Lon": 121.8102561
 },
 {
   "Title": "順益機車行",
   "Tel": "02-26710345",
   "Address": "新北市三峽區國光街14號",
   "Brand": "自由",
   "Lat": 24.937269,
   "Lon": 121.375628
 },
 {
   "Title": "溪洲機車行",
   "Tel": "02-26819192",
   "Address": "新北市板橋區滿平街118號1樓",
   "Brand": "台鈴",
   "Lat": 24.988422,
   "Lon": 121.428421
 },
 {
   "Title": "新明興車業行",
   "Tel": "02-22775788",
   "Address": "新北市新莊區公園路3號1樓",
   "Brand": "自由",
   "Lat": 25.0385898,
   "Lon": 121.4473343
 },
 {
   "Title": "松盛機車行",
   "Tel": "02-26192525",
   "Address": "新北市八里區訊塘路17號",
   "Brand": "自由",
   "Lat": 25.1451394,
   "Lon": 121.3979142
 },
 {
   "Title": "勝國機車行",
   "Tel": "02-22560829",
   "Address": "新北市板橋區四維路176號",
   "Brand": "自由",
   "Lat": 25.026612,
   "Lon": 121.464549
 },
 {
   "Title": "信豪機車行",
   "Tel": "02-26845728",
   "Address": "新北市板橋區存德街96號1樓",
   "Brand": "自由",
   "Lat": 24.9909413,
   "Lon": 121.4324833
 },
 {
   "Title": "益和機車行",
   "Tel": "02-24986604",
   "Address": "新北市萬里區加投191之10號",
   "Brand": "自由",
   "Lat": 25.2162579,
   "Lon": 121.6427221
 },
 {
   "Title": "鴻鎰車業行",
   "Tel": "02-29102765",
   "Address": "新北市新店區順安街83號",
   "Brand": "自由",
   "Lat": 24.9864579,
   "Lon": 121.5408423
 },
 {
   "Title": "中央車業行",
   "Tel": "02-22193383",
   "Address": "新北市新店區中央路226號1樓",
   "Brand": "自由",
   "Lat": 24.9729042,
   "Lon": 121.5294412
 },
 {
   "Title": "益泰機車行",
   "Tel": "02-22606518",
   "Address": "新北市土城區中正路63號1樓",
   "Brand": "三陽",
   "Lat": 24.975661,
   "Lon": 121.444435
 }
]
