[
 {
   "Title": "光億車業行",
   "Tel": "06-9278126",
   "Address": "澎湖縣馬公市中華路151號",
   "Brand": "光陽",
   "Lat": 23.5716036,
   "Lon": 119.5735133
 },
 {
   "Title": "鴻隆機車行",
   "Tel": "06-9272863",
   "Address": "澎湖縣馬公市治平路4-2號",
   "Brand": "山葉",
   "Lat": 23.5694446,
   "Lon": 119.569624
 },
 {
   "Title": "鈤立車行",
   "Tel": "06-9270888",
   "Address": "澎湖縣馬公市中華路49-1號",
   "Brand": "三陽",
   "Lat": 23.5696031,
   "Lon": 119.5699892
 },
 {
   "Title": "東泰車業行",
   "Tel": "06-9273962",
   "Address": "澎湖縣馬公市陽明里中華路130號",
   "Brand": "山葉",
   "Lat": 23.5715938,
   "Lon": 119.5741581
 },
 {
   "Title": "新保輪車行",
   "Tel": "06-9274321",
   "Address": "澎湖縣馬公市民福路91號",
   "Brand": "台鈴",
   "Lat": 23.56729,
   "Lon": 119.5688949
 },
 {
   "Title": "西北行",
   "Tel": "06-9272486",
   "Address": "澎湖縣馬公市新生路72號",
   "Brand": "光陽",
   "Lat": 23.5689006,
   "Lon": 119.5707904
 },
 {
   "Title": "保輪商行",
   "Tel": "06-9272061",
   "Address": "澎湖縣馬公市新生路4號",
   "Brand": "三陽",
   "Lat": 23.5676094,
   "Lon": 119.5681761
 },
 {
   "Title": "寶獅車行",
   "Tel": "06-9262127",
   "Address": "澎湖縣馬公市中華路246號",
   "Brand": "摩特",
   "Lat": 23.5716133,
   "Lon": 119.5788715
 },
 {
   "Title": "全能機車行",
   "Tel": "06-9981081",
   "Address": "88591澎湖縣西嶼鄉赤馬村111-9號",
   "Brand": "光陽",
   "Lat": 23.5796917,
   "Lon": 119.5078705
 },
 {
   "Title": "勁揚機車行",
   "Tel": "06-9213003",
   "Address": "澎湖縣馬公市西文里新店路361號",
   "Brand": "山葉",
   "Lat": 23.563439,
   "Lon": 119.5807025
 },
 {
   "Title": "新志成機車行",
   "Tel": "06-9276556",
   "Address": "澎湖縣馬公市中華路119號1樓",
   "Brand": "三陽",
   "Lat": 23.5713274,
   "Lon": 119.5729604
 }
]