[
 {
   "Title": "勝發車行",
   "Tel": "08-7790384",
   "Address": "屏東縣內埔鄉內田村自強路7號",
   "Brand": "三陽",
   "Lat": 22.616194,
   "Lon": 120.565425
 },
 {
   "Title": "日欣車業行",
   "Tel": "08-7792329",
   "Address": "屏東縣內埔鄉東寧村南寧路102號",
   "Brand": "光陽",
   "Lat": 22.618598,
   "Lon": 120.5640695
 },
 {
   "Title": "福元車業有限公司",
   "Tel": "08-7757795",
   "Address": "屏東縣里港鄉永春村中山路72號",
   "Brand": "光陽",
   "Lat": 22.7779539,
   "Lon": 120.4945229
 },
 {
   "Title": "成隆機車行",
   "Tel": "08-8781006",
   "Address": "屏東縣枋寮鄉安樂村中山路15號1樓",
   "Brand": "三陽",
   "Lat": 22.3578987,
   "Lon": 120.6001875
 },
 {
   "Title": "三泰輪業行",
   "Tel": "08-8712555",
   "Address": "屏東縣枋寮鄉地利村臨海路25號",
   "Brand": "三陽",
   "Lat": 22.3875535,
   "Lon": 120.5936055
 },
 {
   "Title": "永興機車行",
   "Tel": "08-8323319",
   "Address": "屏東縣東港鎮中山路4-1號",
   "Brand": "三陽",
   "Lat": 22.4657316,
   "Lon": 120.4524825
 },
 {
   "Title": "龍昇機車行",
   "Tel": "08-8322410",
   "Address": "屏東縣東港鎮中正路一段57號",
   "Brand": "光陽",
   "Lat": 22.4711695,
   "Lon": 120.4543724
 },
 {
   "Title": "新慶祥機車行",
   "Tel": "08-8752327",
   "Address": "屏東縣林邊鄉永樂村美華路160號",
   "Brand": "三陽",
   "Lat": 22.4376923,
   "Lon": 120.517348
 },
 {
   "Title": "昭興車業行",
   "Tel": "08-7368846",
   "Address": "屏東縣長治鄉潭頭路4號",
   "Brand": "山葉",
   "Lat": 22.6769615,
   "Lon": 120.5276508
 },
 {
   "Title": "中山機車行",
   "Tel": "08-7652088",
   "Address": "屏東縣屏東市中山路153號",
   "Brand": "山葉",
   "Lat": 22.6829945,
   "Lon": 120.4843353
 },
 {
   "Title": "和成車業行",
   "Tel": "08-7372509",
   "Address": "屏東市太平里中正路166號",
   "Brand": "三陽",
   "Lat": 22.6775766,
   "Lon": 120.4907532
 },
 {
   "Title": "永祥機車行",
   "Tel": "08-7331496",
   "Address": "屏東縣屏東市中正路215號",
   "Brand": "光陽",
   "Lat": 22.6812549,
   "Lon": 120.4915501
 },
 {
   "Title": "明一拓有限公司",
   "Tel": "08-7323490",
   "Address": "屏東縣屏東市中正路58號1樓",
   "Brand": "山葉",
   "Lat": 22.6733593,
   "Lon": 120.4894207
 },
 {
   "Title": "振輪車業行",
   "Tel": "08-7365728",
   "Address": "屏東縣屏東市中正路654-1號",
   "Brand": "三陽",
   "Lat": 22.6882847,
   "Lon": 120.4981146
 },
 {
   "Title": "陽輪車業有限公司",
   "Tel": "08-7329958",
   "Address": "屏東縣屏東市公園西路48號",
   "Brand": "山葉",
   "Lat": 22.6756431,
   "Lon": 120.4817917
 },
 {
   "Title": "盟昌機車有限公司",
   "Tel": "08-7322373",
   "Address": "屏東縣屏東市民生路178號",
   "Brand": "山葉",
   "Lat": 22.6694041,
   "Lon": 120.4943635
 },
 {
   "Title": "明展車業行",
   "Tel": "08-7234586",
   "Address": "屏東縣屏東市民生路32號1F",
   "Brand": "光陽",
   "Lat": 22.6674661,
   "Lon": 120.4981936
 },
 {
   "Title": "行福車業有限公司",
   "Tel": "08-7373355",
   "Address": "屏東縣屏東市自由路381-3號",
   "Brand": "光陽",
   "Lat": 22.680653,
   "Lon": 120.495237
 },
 {
   "Title": "屏宏機車行",
   "Tel": "08-7365202",
   "Address": "屏東縣屏東市自由路462號",
   "Brand": "三陽",
   "Lat": 22.6831546,
   "Lon": 120.4914086
 },
 {
   "Title": "泰昌機車行",
   "Tel": "08-7529860",
   "Address": "屏東縣屏東市復興路110號 (復興陸橋下)",
   "Brand": "三陽",
   "Lat": 22.6667162,
   "Lon": 120.488901
 },
 {
   "Title": "東億機車行",
   "Tel": "08-8892051",
   "Address": "屏東縣恆春鎮西門路115號",
   "Brand": "山葉",
   "Lat": 22.0081813,
   "Lon": 120.7433915
 },
 {
   "Title": "振興機車行",
   "Tel": "08-8891528",
   "Address": "屏東縣恆春鎮山腳里恆南路64號1樓",
   "Brand": "光陽",
   "Lat": 21.9946822,
   "Lon": 120.7460009
 },
 {
   "Title": "順寶車業有限公司",
   "Tel": "08-8892308",
   "Address": "屏東縣恆春鎮省北路109號",
   "Brand": "台鈴",
   "Lat": 22.0114585,
   "Lon": 120.7442326
 },
 {
   "Title": "振東車業行",
   "Tel": "08-7962818",
   "Address": "屏東縣高樹鄉高樹村南興路2-7號",
   "Brand": "光陽",
   "Lat": 22.8161643,
   "Lon": 120.6037818
 },
 {
   "Title": "永發機車行",
   "Tel": "08-7962232",
   "Address": "屏東縣高樹鄉長榮村興中路178號",
   "Brand": "三陽",
   "Lat": 22.8250532,
   "Lon": 120.60021
 },
 {
   "Title": "雄偉車業有限公司",
   "Tel": "08-8682298",
   "Address": "屏東縣新園鄉仙吉路41號",
   "Brand": "三陽",
   "Lat": 22.541472,
   "Lon": 120.459949
 },
 {
   "Title": "盈發車業行",
   "Tel": "08-8325639",
   "Address": "屏東縣新園鄉南興路187號",
   "Brand": "光陽",
   "Lat": 22.4864024,
   "Lon": 120.458286
 },
 {
   "Title": "豪輪企業有限公司",
   "Tel": "08-7775641",
   "Address": "屏東縣萬丹鄉寶厝村中興路二段441號1樓",
   "Brand": "山葉",
   "Lat": 22.580409,
   "Lon": 120.485441
 },
 {
   "Title": "幸福車業行",
   "Tel": "08-7771607",
   "Address": "屏東縣萬丹鄉新鍾村萬新路329號",
   "Brand": "光陽",
   "Lat": 22.5614315,
   "Lon": 120.4865274
 },
 {
   "Title": "三龍機車行",
   "Tel": "08-7850116",
   "Address": "屏東縣萬巒鄉新置村新隆路2號",
   "Brand": "三陽",
   "Lat": 22.5258881,
   "Lon": 120.6263932
 },
 {
   "Title": "協原機車行",
   "Tel": "08-7885103",
   "Address": "屏東縣潮州鎮介壽路133號1F",
   "Brand": "山葉",
   "Lat": 22.5432181,
   "Lon": 120.5361562
 },
 {
   "Title": "全成機車行",
   "Tel": "08-7885318",
   "Address": "屏東縣潮州鎮延平路174號",
   "Brand": "光陽",
   "Lat": 22.555747,
   "Lon": 120.540598
 },
 {
   "Title": "新玄車業有限公司",
   "Tel": "08-7883836",
   "Address": "屏東縣潮州鎮新生路60號",
   "Brand": "山葉",
   "Lat": 22.548717,
   "Lon": 120.5386
 },
 {
   "Title": "永福車業有限公司",
   "Tel": "08-7222733",
   "Address": "屏東縣麟洛鄉麟趾村中山路443號",
   "Brand": "光陽",
   "Lat": 22.6520715,
   "Lon": 120.5248218
 },
 {
   "Title": "昭明興車業行",
   "Tel": "08-7932470",
   "Address": "屏東縣鹽埔鄉鹽南村勝利路66-2號",
   "Brand": "光陽",
   "Lat": 22.7559771,
   "Lon": 120.5752029
 },
 {
   "Title": "生揚車業有限公司",
   "Tel": "08-7933213",
   "Address": "屏東縣鹽埔鄉新二村維新路177號",
   "Brand": "三陽",
   "Lat": 22.742858,
   "Lon": 120.557841
 },
 {
   "Title": "宏偉機車行",
   "Tel": "08-7936369",
   "Address": "屏東縣鹽埔鄉維新路81-7號",
   "Brand": "山葉",
   "Lat": 22.7391435,
   "Lon": 120.5554601
 },
 {
   "Title": "志誠機車行",
   "Tel": "08-7391825",
   "Address": "屏東縣九如鄉九清村九如路二段108號1樓",
   "Brand": "光陽",
   "Lat": 22.7306022,
   "Lon": 120.4890392
 },
 {
   "Title": "昭慶車業有限公司",
   "Tel": "08-7791274",
   "Address": "屏東縣內埔鄉內田村學人路737號1樓",
   "Brand": "山葉",
   "Lat": 22.608288,
   "Lon": 120.564334
 },
 {
   "Title": "進吉機車行",
   "Tel": "08-7791876",
   "Address": "屏東縣內埔鄉老埤村通安路98號",
   "Brand": "三陽",
   "Lat": 22.6334746,
   "Lon": 120.5992528
 },
 {
   "Title": "安興機車行",
   "Tel": "08-7791613",
   "Address": "屏東縣內埔鄉老埤村壽比路229號",
   "Brand": "台鈴",
   "Lat": 22.632261,
   "Lon": 120.595719
 },
 {
   "Title": "清進機車行",
   "Tel": "08-7524945",
   "Address": "屏東縣屏東市前進里清進巷128號1樓",
   "Brand": "山葉",
   "Lat": 22.650201,
   "Lon": 120.464477
 },
 {
   "Title": "萬里順機車行",
   "Tel": "08-7701540",
   "Address": "屏東縣內埔鄉龍泉村中勝路298號",
   "Brand": "三陽",
   "Lat": 22.6693513,
   "Lon": 120.600545
 },
 {
   "Title": "萬興機車行",
   "Tel": "08-7701805",
   "Address": "屏東縣內埔鄉龍潭村昭勝路196號",
   "Brand": "山葉",
   "Lat": 22.6730869,
   "Lon": 120.6004894
 },
 {
   "Title": "三福機車行",
   "Tel": "08-7784058",
   "Address": "屏東縣內埔鄉和興村學人路624號",
   "Brand": "摩特",
   "Lat": 22.605506,
   "Lon": 120.563129
 },
 {
   "Title": "盛興機車行",
   "Tel": "08-7701616",
   "Address": "屏東縣內埔鄉龍潭村昭勝路230號",
   "Brand": "光陽",
   "Lat": 22.6737707,
   "Lon": 120.6006122
 },
 {
   "Title": "金興機車行",
   "Tel": "08-7712281",
   "Address": "屏東縣竹田鄉竹田村中正路133號",
   "Brand": "山葉",
   "Lat": 22.585339,
   "Lon": 120.544267
 },
 {
   "Title": "隆昇車行",
   "Tel": "08-8781266",
   "Address": "屏東縣枋寮鄉隆山村中山路132號",
   "Brand": "山葉",
   "Lat": 22.3633681,
   "Lon": 120.5979527
 },
 {
   "Title": "盈利昇輪業有限公司",
   "Tel": "08-8322366",
   "Address": "屏東縣東港鎮中正路219號",
   "Brand": "台鈴",
   "Lat": 22.4843055,
   "Lon": 120.4705067
 },
 {
   "Title": "慶益機車行",
   "Tel": "08-8322001",
   "Address": "屏東縣東港鎮中正路243號",
   "Brand": "三陽",
   "Lat": 22.4842871,
   "Lon": 120.4704893
 },
 {
   "Title": "高連憶機車行",
   "Tel": "08-8752688",
   "Address": "屏東縣林邊鄉忠孝路8號",
   "Brand": "山葉",
   "Lat": 22.4338078,
   "Lon": 120.5182924
 },
 {
   "Title": "錦輝機車行",
   "Tel": "08-7622150",
   "Address": "屏東縣長治鄉崙上村中興路427號",
   "Brand": "山葉",
   "Lat": 22.6910595,
   "Lon": 120.5344297
 },
 {
   "Title": "城友機車行",
   "Tel": "08-7360169",
   "Address": "屏東縣長治鄉進興村復興路19-9號",
   "Brand": "光陽",
   "Lat": 22.6770767,
   "Lon": 120.5301365
 },
 {
   "Title": "欣益機車行",
   "Tel": "08-7321663",
   "Address": "屏東縣屏東市中山路61-7號",
   "Brand": "台鈴",
   "Lat": 22.6753308,
   "Lon": 120.4848257
 },
 {
   "Title": "永宏機車行",
   "Tel": "08-7361698",
   "Address": "屏東市仁愛路156號",
   "Brand": "山葉",
   "Lat": 22.6793467,
   "Lon": 120.4951699
 },
 {
   "Title": "峰裕機車行",
   "Tel": "08-7364642",
   "Address": "屏東縣屏東市仁愛路77-15號1樓",
   "Brand": "台鈴",
   "Lat": 22.6791235,
   "Lon": 120.494928
 },
 {
   "Title": "阿侯機車行",
   "Tel": "08-7336577",
   "Address": "屏東縣屏東市公園西路19-2號",
   "Brand": "光陽",
   "Lat": 22.6755949,
   "Lon": 120.4835584
 },
 {
   "Title": "財發機車行",
   "Tel": "08-7521325",
   "Address": "屏東縣屏東市新生里復興南路一段176號1樓",
   "Brand": "三陽",
   "Lat": 22.6519632,
   "Lon": 120.4858508
 },
 {
   "Title": "勝興機車行",
   "Tel": "08-7524164",
   "Address": "屏東縣屏東市建民路62號1樓",
   "Brand": "三陽",
   "Lat": 22.6671745,
   "Lon": 120.4812676
 },
 {
   "Title": "聖發機車行",
   "Tel": "08-7654319",
   "Address": "屏東縣屏東市勝利路208號",
   "Brand": "三陽",
   "Lat": 22.679057,
   "Lon": 120.4788783
 },
 {
   "Title": "鑫鈴車業行",
   "Tel": "08-7216360",
   "Address": "屏東市林森路30-10號",
   "Brand": "台鈴",
   "Lat": 22.6714611,
   "Lon": 120.4976017
 },
 {
   "Title": "茂達車業行",
   "Tel": "08-7368896",
   "Address": "屏東縣屏東市瑞光路二段450號",
   "Brand": "三陽",
   "Lat": 22.6825812,
   "Lon": 120.5052821
 },
 {
   "Title": "平安車業有限公司",
   "Tel": "08-7370180",
   "Address": "屏東縣屏東市廣東路434號",
   "Brand": "山葉",
   "Lat": 22.6794539,
   "Lon": 120.5017633
 },
 {
   "Title": "光得輪業有限公司",
   "Tel": "08-8681345",
   "Address": "屏東縣新園鄉仙吉村仙吉路121號",
   "Brand": "三陽",
   "Lat": 22.545116,
   "Lon": 120.461905
 },
 {
   "Title": "振吉車業行",
   "Tel": "08-8683123",
   "Address": "屏東縣新園鄉平和路295號",
   "Brand": "光陽",
   "Lat": 22.5270355,
   "Lon": 120.4530488
 },
 {
   "Title": "龍吉機車行",
   "Tel": "08-8328631",
   "Address": "屏東縣新園鄉烏龍村南興路374-1號",
   "Brand": "三陽",
   "Lat": 22.4936688,
   "Lon": 120.4597014
 },
 {
   "Title": "裕豐機車行",
   "Tel": "08-7772559",
   "Address": "屏東縣萬丹鄉萬全村丹榮路727號",
   "Brand": "山葉",
   "Lat": 22.5914048,
   "Lon": 120.4923821
 },
 {
   "Title": "慶隆機車行",
   "Tel": "08-7773300",
   "Address": "屏東縣萬丹鄉萬金村萬丹路一段408號",
   "Brand": "三陽",
   "Lat": 22.591522,
   "Lon": 120.4703258
 },
 {
   "Title": "威信機車行",
   "Tel": "08-7810222",
   "Address": "屏東縣萬巒鄉萬和村南進路23-7號",
   "Brand": "山葉",
   "Lat": 22.5708171,
   "Lon": 120.569791
 },
 {
   "Title": "丘吉珥騎士之家商行",
   "Tel": "08-7894018",
   "Address": "屏東縣潮州鎮光華路64號",
   "Brand": "三陽",
   "Lat": 22.5434122,
   "Lon": 120.5450636
 },
 {
   "Title": "永詰機車行",
   "Tel": "08-7888912",
   "Address": "屏東縣潮州鎮新榮里新生路22號1樓",
   "Brand": "三陽",
   "Lat": 22.547871,
   "Lon": 120.5378949
 },
 {
   "Title": "義和車業有限公司",
   "Tel": "08-7221066",
   "Address": "屏東縣麟洛鄉麟蹄村中山路274號",
   "Brand": "山葉",
   "Lat": 22.6527886,
   "Lon": 120.5240419
 },
 {
   "Title": "正大機車行",
   "Tel": "08-7517119",
   "Address": "屏東市大武里永大路193號1樓",
   "Brand": "三陽",
   "Lat": 22.6586813,
   "Lon": 120.4772024
 },
 {
   "Title": "祥發機車行",
   "Tel": "08-7555118",
   "Address": "屏東市和平路28號",
   "Brand": "山葉",
   "Lat": 22.6660017,
   "Lon": 120.4788401
 },
 {
   "Title": "聯榮機車行",
   "Tel": "08-7225747",
   "Address": "屏東市湖南里歸義巷26號1樓",
   "Brand": "光陽",
   "Lat": 22.6544215,
   "Lon": 120.5051177
 },
 {
   "Title": "安全車業",
   "Tel": "08-7341361",
   "Address": "屏東市廣東路780之1號",
   "Brand": "光陽",
   "Lat": 22.687421,
   "Lon": 120.4923599
 },
 {
   "Title": "光興機車行",
   "Tel": "08-7224988",
   "Address": "屏東市瑞光里民生路37號",
   "Brand": "山葉",
   "Lat": 22.6621513,
   "Lon": 120.5070088
 },
 {
   "Title": "國際機車行",
   "Tel": "08-7392878",
   "Address": "屏東縣九如鄉九如路二段29號",
   "Brand": "山葉",
   "Lat": 22.7293975,
   "Lon": 120.4886506
 },
 {
   "Title": "建興機車行",
   "Tel": "08-7752167",
   "Address": "屏東縣里港鄉里港路57號及59號1樓",
   "Brand": "山葉",
   "Lat": 22.5519759,
   "Lon": 120.5487597
 },
 {
   "Title": "盛隆機車有限公司",
   "Tel": "08-8338338",
   "Address": "屏東縣東港鎮共和里光復路三段57號",
   "Brand": "光陽",
   "Lat": 22.4652073,
   "Lon": 120.4518506
 },
 {
   "Title": "尚新車業行",
   "Tel": "08-7075257",
   "Address": "屏東縣萬丹鄉社中村社皮路3段350號",
   "Brand": "三陽",
   "Lat": 22.6198258,
   "Lon": 120.4718006
 },
 {
   "Title": "新興機車行",
   "Tel": "08-8611054",
   "Address": "屏東縣琉球鄉中福村三民路126-1號",
   "Brand": "光陽",
   "Lat": 22.3496415,
   "Lon": 120.3863638
 },
 {
   "Title": "鴻展機車行",
   "Tel": "08-8646136",
   "Address": "屏東縣南州鄉仁里村人和路40-1號",
   "Brand": "光陽",
   "Lat": 22.489189,
   "Lon": 120.5103
 },
 {
   "Title": "壕順機車行",
   "Tel": "08-7220269",
   "Address": "屏東市廣東路94-2號",
   "Brand": "三陽",
   "Lat": 22.6723613,
   "Lon": 120.4995157
 },
 {
   "Title": "協利機車行",
   "Tel": "08-8753095",
   "Address": "屏東縣林邊鄉仁和村和平路20號",
   "Brand": "三陽",
   "Lat": 22.4344634,
   "Lon": 120.5139308
 },
 {
   "Title": "新龍泉機車行",
   "Tel": "08-7702759",
   "Address": "屏東縣內埔鄉龍泉村原勝路16號",
   "Brand": "三陽",
   "Lat": 22.667676,
   "Lon": 120.6000346
 },
 {
   "Title": "名成車業行",
   "Tel": "08-7799859",
   "Address": "屏東縣內埔鄉東寧村南寧路187號",
   "Brand": "三陽",
   "Lat": 22.619538,
   "Lon": 120.5620908
 },
 {
   "Title": "易成機車行",
   "Tel": "08-7350022",
   "Address": "屏東市大連里大連路7-7號",
   "Brand": "三陽",
   "Lat": 22.6840527,
   "Lon": 120.5087194
 },
 {
   "Title": "正益車業行",
   "Tel": "08-7372031",
   "Address": "屏東市建豐路182號",
   "Brand": "三陽",
   "Lat": 22.6761326,
   "Lon": 120.5050342
 },
 {
   "Title": "新吉興車業行",
   "Tel": "08-7883429",
   "Address": "屏東縣潮州鎮三共里四維路309-1號1樓",
   "Brand": "山葉",
   "Lat": 22.5562465,
   "Lon": 120.548771
 },
 {
   "Title": "富祐車業行",
   "Tel": "08-7360260",
   "Address": "屏東市大連里建豐路198號",
   "Brand": "光陽",
   "Lat": 22.6763264,
   "Lon": 120.5044559
 },
 {
   "Title": "福源車業行",
   "Tel": "08-7888179",
   "Address": "屏東縣潮州鎮富春里光春路215-2號1樓",
   "Brand": "山葉",
   "Lat": 22.5391828,
   "Lon": 120.5391232
 },
 {
   "Title": "統一輪業行",
   "Tel": "08-8752286",
   "Address": "屏東縣林邊鄉仁和村中山路293號",
   "Brand": "山葉",
   "Lat": 22.435152,
   "Lon": 120.513996
 },
 {
   "Title": "泰原機車行",
   "Tel": "08-7394038",
   "Address": "屏東縣九如鄉九明村九龍路22號",
   "Brand": "山葉",
   "Lat": 22.7312139,
   "Lon": 120.4832047
 },
 {
   "Title": "天成機車行",
   "Tel": "08-7531440",
   "Address": "屏東市新興里公興路228號",
   "Brand": "山葉",
   "Lat": 22.6407625,
   "Lon": 120.4804206
 },
 {
   "Title": "銘順車業",
   "Tel": "08-7514902",
   "Address": "屏東縣屏東市廣東南路110號",
   "Brand": "山葉",
   "Lat": 22.664366,
   "Lon": 120.492261
 },
 {
   "Title": "安發車行",
   "Tel": "08-7070120",
   "Address": "屏東縣萬丹鄉厦南村安和路421號1樓",
   "Brand": "光陽",
   "Lat": 22.5943758,
   "Lon": 120.4610071
 },
 {
   "Title": "永大機車行",
   "Tel": "08-7367207",
   "Address": "屏東縣屏東市三山里海豐街15號",
   "Brand": "光陽",
   "Lat": 22.7000065,
   "Lon": 120.5095592
 },
 {
   "Title": "忠興機車行",
   "Tel": "08-7333822",
   "Address": "屏東市大埔里民族路244號",
   "Brand": "光陽",
   "Lat": 22.6717694,
   "Lon": 120.4791066
 },
 {
   "Title": "玉春成車行",
   "Tel": "08-7663715",
   "Address": "屏東市勝利里中山路94號",
   "Brand": "光陽",
   "Lat": 22.6808009,
   "Lon": 120.4847474
 },
 {
   "Title": "新鴻機車行",
   "Tel": "08-7667519",
   "Address": "屏東縣屏東市光復路111-3號",
   "Brand": "光陽",
   "Lat": 22.6700414,
   "Lon": 120.4818346
 },
 {
   "Title": "金展車業行",
   "Tel": "08-7789997",
   "Address": "屏東縣內埔鄉內田村廣濟路13號",
   "Brand": "光陽",
   "Lat": 22.6091524,
   "Lon": 120.5648778
 },
 {
   "Title": "有福車業有限公司",
   "Tel": "08-7778131",
   "Address": "屏東縣萬丹鄉萬後村西環路586號",
   "Brand": "光陽",
   "Lat": 22.5913121,
   "Lon": 120.4878401
 },
 {
   "Title": "昇輝機車行",
   "Tel": "08-7364497",
   "Address": "屏東市中正路672、674號",
   "Brand": "光陽",
   "Lat": 22.6885039,
   "Lon": 120.4983511
 },
 {
   "Title": "飛宏機車行",
   "Tel": "08-7076269",
   "Address": "屏東縣萬丹鄉社中村社皮路三段216號",
   "Brand": "光陽",
   "Lat": 22.618242,
   "Lon": 120.4703264
 },
 {
   "Title": "益祥機車行",
   "Tel": "08-7666456",
   "Address": "屏東市廣東路854號",
   "Brand": "光陽",
   "Lat": 22.6879067,
   "Lon": 120.4888337
 },
 {
   "Title": "如利機車行",
   "Tel": "08-7352286",
   "Address": "屏東市豐田里建豐路137號",
   "Brand": "光陽",
   "Lat": 22.6756648,
   "Lon": 120.5059458
 },
 {
   "Title": "盈利機車行",
   "Tel": "08-7754072",
   "Address": "屏東縣里港鄉大平村四維路46號",
   "Brand": "光陽",
   "Lat": 22.7752622,
   "Lon": 120.4931908
 },
 {
   "Title": "濟人機車行",
   "Tel": "08-7752232",
   "Address": "屏東縣里港鄉春林村里港路89號",
   "Brand": "三陽",
   "Lat": 22.7767308,
   "Lon": 120.4960993
 },
 {
   "Title": "鴻利汽機車精品材料行",
   "Tel": "08-8328466",
   "Address": "屏東縣東港鎮中山路6號",
   "Brand": "台鈴",
   "Lat": 22.465842,
   "Lon": 120.4522821
 },
 {
   "Title": "金龍機車行",
   "Tel": "08-7832338",
   "Address": "屏東縣萬巒鄉佳和村光明路7號",
   "Brand": "三陽",
   "Lat": 22.5729563,
   "Lon": 120.6028383
 },
 {
   "Title": "証冠車業行",
   "Tel": "08-7235128",
   "Address": "屏東市瑞光里民生路57之16號1樓",
   "Brand": "山葉",
   "Lat": 22.6637621,
   "Lon": 120.504177
 },
 {
   "Title": "中一機車行",
   "Tel": "08-7532891",
   "Address": "屏東市大武里武愛街92號",
   "Brand": "山葉",
   "Lat": 22.6579189,
   "Lon": 120.4785586
 },
 {
   "Title": "全和車業",
   "Tel": "08-7931830",
   "Address": "屏東縣鹽埔鄉高朗村三民路61-3號1樓",
   "Brand": "山葉",
   "Lat": 22.7404569,
   "Lon": 120.5838895
 },
 {
   "Title": "千和車業行",
   "Tel": "08-7225613",
   "Address": "屏東市林森路5-5號",
   "Brand": "光陽",
   "Lat": 22.670498,
   "Lon": 120.500587
 },
 {
   "Title": "源成機車行",
   "Tel": "08-7752873",
   "Address": "屏東縣里港鄉大平村中山路89號",
   "Brand": "光陽",
   "Lat": 22.7785744,
   "Lon": 120.4944366
 },
 {
   "Title": "高豐機車行",
   "Tel": "08-7233983",
   "Address": "屏東縣麟洛鄉麟趾村中山路349.351號",
   "Brand": "光陽",
   "Lat": 22.6504822,
   "Lon": 120.5269491
 },
 {
   "Title": "信正車業行",
   "Tel": "08-7861761",
   "Address": "屏東縣潮州鎮永春里中洲路165號1樓",
   "Brand": "光陽",
   "Lat": 22.542145,
   "Lon": 120.540952
 },
 {
   "Title": "金馳車業行",
   "Tel": "08-8351653",
   "Address": "屏東縣東港鎮興東里沿海路237號",
   "Brand": "光陽",
   "Lat": 22.4738317,
   "Lon": 120.4629638
 },
 {
   "Title": "亨達機車行",
   "Tel": "08-8821303",
   "Address": "屏東縣車城鄉田中村中山路110-7號1樓",
   "Brand": "光陽",
   "Lat": 22.078574,
   "Lon": 120.7139534
 },
 {
   "Title": "連福機車店",
   "Tel": "08-8632172",
   "Address": "924屏東縣崁頂鄉力社村舊店路12號",
   "Brand": "光陽",
   "Lat": 22.5414878,
   "Lon": 120.5130344
 },
 {
   "Title": "豐隆輪業行",
   "Tel": "08-8891059",
   "Address": "屏東縣恆春鎮城北里中正路246號壹樓貳樓",
   "Brand": "三陽",
   "Lat": 22.006427,
   "Lon": 120.743419
 },
 {
   "Title": "新友車業行",
   "Tel": "08-7372752",
   "Address": "屏東縣長治鄉潭頭村潭頭路152之6號",
   "Brand": "山葉",
   "Lat": 22.6742237,
   "Lon": 120.5248053
 },
 {
   "Title": "順天機車行",
   "Tel": "08-8712575",
   "Address": "屏東縣枋寮鄉天時村復興路190號",
   "Brand": "山葉",
   "Lat": 22.3888651,
   "Lon": 120.5945543
 },
 {
   "Title": "鴻華行",
   "Tel": "08-8782138",
   "Address": "屏東縣枋寮鄉安樂村中山路167號",
   "Brand": "光陽",
   "Lat": 22.3633673,
   "Lon": 120.5979537
 },
 {
   "Title": "博仁機車行",
   "Tel": "08-7959177",
   "Address": "屏東縣高樹鄉南華村世一路29-1號1樓",
   "Brand": "光陽",
   "Lat": 22.7729971,
   "Lon": 120.594306
 },
 {
   "Title": "豐陞機車行",
   "Tel": "08-7957126",
   "Address": "屏東縣高樹鄉泰山村山下路70-2號",
   "Brand": "三陽",
   "Lat": 22.7870544,
   "Lon": 120.6153827
 }
]