[
 {
   "Title": "新富國輪業有限公司",
   "Tel": "04-23015360",
   "Address": "臺中市西區昇平里向上路一段118號1樓",
   "Brand": "光陽",
   "Lat": 24.1467184,
   "Lon": 120.6629805
 },
 {
   "Title": "一二車業有限公司",
   "Tel": "04-23899474",
   "Address": "臺中市南屯區黎明路一段1094號一樓",
   "Brand": "光陽",
   "Lat": 24.1406692,
   "Lon": 120.6384418
 },
 {
   "Title": "東和車業商行",
   "Tel": "04-22606199",
   "Address": "臺中市南區工學里工學路179號1樓",
   "Brand": "光陽",
   "Lat": 24.1172192,
   "Lon": 120.6583775
 },
 {
   "Title": "證達企業有限公司",
   "Tel": "04-22916766",
   "Address": "臺中市北區賴興里山西路二段135號一樓",
   "Brand": "摩特動力",
   "Lat": 24.1721331,
   "Lon": 120.6759521
 },
 {
   "Title": "光賜機車店",
   "Tel": "04-22319337",
   "Address": "台中市北區梅豐街88號(靠進化路）",
   "Brand": "三陽",
   "Lat": 24.1567589,
   "Lon": 120.6949455
 },
 {
   "Title": "海蔦輪業有限公司",
   "Tel": "04-22310822",
   "Address": "臺中市北屯區北屯路236之6號1樓",
   "Brand": "山葉",
   "Lat": 24.169869,
   "Lon": 120.6976183
 },
 {
   "Title": "國瑋機車商行",
   "Tel": "04-23130848",
   "Address": "台中市西屯區何厝街17號",
   "Brand": "三陽",
   "Lat": 24.1613002,
   "Lon": 120.6537279
 },
 {
   "Title": "明風車業有限公司",
   "Tel": "04-27022165",
   "Address": "臺中市西屯區西屯路三段33號",
   "Brand": "山葉",
   "Lat": 24.180468,
   "Lon": 120.638243
 },
 {
   "Title": "元輪機車有限公司",
   "Tel": "04-23147471",
   "Address": "台中市西區西屯路二段9-1號",
   "Brand": "台鈴",
   "Lat": 24.1633711,
   "Lon": 120.6625882
 },
 {
   "Title": "昇興機車行",
   "Tel": "04-27017352",
   "Address": "臺中市西屯區上石里西屯路二段271之2號1樓",
   "Brand": "光陽",
   "Lat": 24.1749064,
   "Lon": 120.6441575
 },
 {
   "Title": "水湳車業有限公司",
   "Tel": "04-22929587",
   "Address": "臺中市北屯區大德里中清路二段378號",
   "Brand": "光陽",
   "Lat": 24.1851631,
   "Lon": 120.6644506
 },
 {
   "Title": "光雄輪業有限公司",
   "Tel": "04-23724408",
   "Address": "臺中市西區公民里五權路1之43號1樓（四街口）",
   "Brand": "三陽",
   "Lat": 24.1375142,
   "Lon": 120.6654821
 },
 {
   "Title": "儷豐輪業有限公司",
   "Tel": "04-22616045",
   "Address": "臺中市南區江川里五權南路280號1樓",
   "Brand": "三陽",
   "Lat": 24.1232919,
   "Lon": 120.6702243
 },
 {
   "Title": "鴻鼎車行",
   "Tel": "04-22958551",
   "Address": "臺中市北屯區水湳里大連路一段29號1樓",
   "Brand": "山葉",
   "Lat": 24.1756836,
   "Lon": 120.672103
 },
 {
   "Title": "勁葉輪業行",
   "Tel": "04-22061813",
   "Address": "臺中市北區邱厝里中清路一段216號",
   "Brand": "山葉",
   "Lat": 24.1587972,
   "Lon": 120.6758358
 },
 {
   "Title": "坤發輪業行",
   "Tel": "04-24226667",
   "Address": "臺中市北屯區仁和里水湳路142之1號",
   "Brand": "光陽",
   "Lat": 24.1900502,
   "Lon": 120.6809759
 },
 {
   "Title": "富貴輪輪業有限公司",
   "Tel": "04-22417949",
   "Address": "臺中市北屯區松竹里昌平路二段9之13號1樓",
   "Brand": "山葉",
   "Lat": 24.1802047,
   "Lon": 120.689601
 },
 {
   "Title": "盛泰機車行",
   "Tel": "04-22923823",
   "Address": "臺中市北屯區新平里中清路二段375號",
   "Brand": "三陽",
   "Lat": 24.1841749,
   "Lon": 120.6648444
 },
 {
   "Title": "永鑫輪業行",
   "Tel": "04-24364306",
   "Address": "臺中市北屯區三和里東光路742號1樓",
   "Brand": "三陽",
   "Lat": 24.166184,
   "Lon": 120.7005415
 },
 {
   "Title": "金冠輪車業有限公司",
   "Tel": "04-22339374",
   "Address": "臺中市北屯區進化北路65號1樓",
   "Brand": "光陽",
   "Lat": 24.162808,
   "Lon": 120.6896868
 },
 {
   "Title": "先輪機車商號",
   "Tel": "04-22321919",
   "Address": "臺中市北區金龍里三民路三段337號1樓",
   "Brand": "山葉",
   "Lat": 24.1577587,
   "Lon": 120.6894819
 },
 {
   "Title": "錦陽車業商行",
   "Tel": "04-22010606",
   "Address": "臺中市北區五常里五權路385號1樓",
   "Brand": "三陽",
   "Lat": 24.1529325,
   "Lon": 120.6796895
 },
 {
   "Title": "同陽機車行",
   "Tel": "04-27067071",
   "Address": "臺中市西屯區西墩里西屯路三段57之7號1樓",
   "Brand": "三陽",
   "Lat": 24.1816674,
   "Lon": 120.6360279
 },
 {
   "Title": "泰豪車業有限公司",
   "Tel": "04-22050556",
   "Address": "臺中市北區賴村里進化北路421號",
   "Brand": "三陽",
   "Lat": 24.1630324,
   "Lon": 120.6763574
 },
 {
   "Title": "新永福輪業商行",
   "Tel": "04-27015976",
   "Address": "臺中市西屯區西安里光明路170號1樓",
   "Brand": "三陽",
   "Lat": 24.182063,
   "Lon": 120.639655
 },
 {
   "Title": "富全機車行",
   "Tel": "04-23129391",
   "Address": "臺中市西屯區西屯路二段24號",
   "Brand": "山葉",
   "Lat": 24.1640228,
   "Lon": 120.6615369
 },
 {
   "Title": "逢甲輪業行",
   "Tel": "04-27016864",
   "Address": "臺中市西屯區上石里西屯路二段285之7號1樓",
   "Brand": "三陽",
   "Lat": 24.176447,
   "Lon": 120.6433421
 },
 {
   "Title": "高明車業有限公司",
   "Tel": "04-23029090",
   "Address": "臺中市西區中興里中美街232號1樓",
   "Brand": "山葉",
   "Lat": 24.1482064,
   "Lon": 120.6603725
 },
 {
   "Title": "鉪億車業有限公司",
   "Tel": "04-22221755",
   "Address": "臺中市西區平和里中華路一段29號",
   "Brand": "光陽",
   "Lat": 24.1423027,
   "Lon": 120.673658
 },
 {
   "Title": "榮信機車行",
   "Tel": "04-23291383",
   "Address": "臺中市西區公正里大墩十街2號1樓",
   "Brand": "三陽",
   "Lat": 24.1478583,
   "Lon": 120.6549397
 },
 {
   "Title": "千晟車業有限公司",
   "Tel": "04-22233366",
   "Address": "臺中市西區民權路157號",
   "Brand": "山葉",
   "Lat": 24.1423965,
   "Lon": 120.6745657
 },
 {
   "Title": "弘國機車行",
   "Tel": "04-23027315",
   "Address": "臺中市西區昇平里美村路一段385號1樓",
   "Brand": "三陽",
   "Lat": 24.1445768,
   "Lon": 120.661849
 },
 {
   "Title": "永盛車業有限公司",
   "Tel": "04-23715940",
   "Address": "臺中市西區吉龍里美村路一段731號1樓",
   "Brand": "山葉",
   "Lat": 24.1344102,
   "Lon": 120.6617752
 },
 {
   "Title": "國華機車行",
   "Tel": "04-23058355",
   "Address": "臺中市西區公益里華美街208號",
   "Brand": "三陽",
   "Lat": 24.1471032,
   "Lon": 120.6589982
 },
 {
   "Title": "宥任車業有限公司",
   "Tel": "04-22139139",
   "Address": "臺中市東區自由路三段225號1樓",
   "Brand": "三陽",
   "Lat": 24.1429056,
   "Lon": 120.6925657
 },
 {
   "Title": "宏笙福車業有限公司",
   "Tel": "04-22822088",
   "Address": "臺中市東區東興里仁和路425號1樓",
   "Brand": "光陽",
   "Lat": 24.126619,
   "Lon": 120.689692
 },
 {
   "Title": "興冠輪業有限公司",
   "Tel": "04-22125777",
   "Address": "臺中市東區建成路350之1號1樓",
   "Brand": "光陽",
   "Lat": 24.1390084,
   "Lon": 120.696393
 },
 {
   "Title": "忠信機車行",
   "Tel": "04-22210729",
   "Address": "台中市南區國光路15號1樓",
   "Brand": "山葉",
   "Lat": 24.1321651,
   "Lon": 120.6766553
 },
 {
   "Title": "國暉輪業有限公司",
   "Tel": "04-22125370",
   "Address": "臺中市東區十甲里精武東路127號1樓",
   "Brand": "三陽",
   "Lat": 24.149674,
   "Lon": 120.7102284
 },
 {
   "Title": "元裕輪車業有限公司",
   "Tel": "04-23833267",
   "Address": "臺中市南屯區春社里永春南路17號1樓",
   "Brand": "三陽",
   "Lat": 24.1385736,
   "Lon": 120.6131327
 },
 {
   "Title": "新昇輪機車行",
   "Tel": "04-22813325",
   "Address": "臺中市南區南門里忠明南路1242號1樓",
   "Brand": "山葉",
   "Lat": 24.1189498,
   "Lon": 120.6812783
 },
 {
   "Title": "功利輪業商行",
   "Tel": "04-22273897",
   "Address": "臺中市南區國光路31號",
   "Brand": "光陽",
   "Lat": 24.131449,
   "Lon": 120.6769586
 },
 {
   "Title": "順駿車業有限公司",
   "Tel": "04-22862508",
   "Address": "臺中市南區南門里國光路483號",
   "Brand": "三陽",
   "Lat": 24.1180215,
   "Lon": 120.6795891
 },
 {
   "Title": "新弘機車行",
   "Tel": "04-22332785",
   "Address": "臺中市北屯區太原路三段130號",
   "Brand": "光陽",
   "Lat": 24.1649005,
   "Lon": 120.6896696
 },
 {
   "Title": "尚達輪業有限公司",
   "Tel": "04-22302260",
   "Address": "臺中市北屯區三光里北屯路208號1樓",
   "Brand": "光陽",
   "Lat": 24.1671666,
   "Lon": 120.6957042
 },
 {
   "Title": "忠耘車業有限公司",
   "Tel": "04-22347173",
   "Address": "臺中市北屯區平昌里昌平路一段172號1樓",
   "Brand": "光陽",
   "Lat": 24.1690327,
   "Lon": 120.692335
 },
 {
   "Title": "駿成機車行",
   "Tel": "04-24223769",
   "Address": "臺中市北屯區昌平路二段158之5之6號1樓",
   "Brand": "山葉",
   "Lat": 24.1951426,
   "Lon": 120.6826224
 },
 {
   "Title": "瑞山機車業有限公司",
   "Tel": "04-22437159",
   "Address": "臺中市北屯區東光里東山路一段23之2號1樓",
   "Brand": "台鈴",
   "Lat": 24.1704233,
   "Lon": 120.6985405
 },
 {
   "Title": "永章機車行",
   "Tel": "04-24367706",
   "Address": "臺中市北屯區軍功里東山路一段249之3號1樓",
   "Brand": "山葉",
   "Lat": 24.1756669,
   "Lon": 120.7178409
 },
 {
   "Title": "順發車行",
   "Tel": "04-22420047",
   "Address": "臺中市北屯區松安里興安路二段407號一樓",
   "Brand": "三陽",
   "Lat": 24.1825512,
   "Lon": 120.6949751
 },
 {
   "Title": "中森輪業有限公司",
   "Tel": "04-22230109",
   "Address": "臺中市北區新北里三民路三段212之2號1樓",
   "Brand": "光陽",
   "Lat": 24.1543283,
   "Lon": 120.6861626
 },
 {
   "Title": "國輪車業行",
   "Tel": "04-22323533",
   "Address": "臺中市北區金龍里三民路三段443號1樓",
   "Brand": "三陽",
   "Lat": 24.1592358,
   "Lon": 120.6911352
 },
 {
   "Title": "進德機車行",
   "Tel": "04-22033646",
   "Address": "臺中市北區淡溝里西屯路一段234號",
   "Brand": "山葉",
   "Lat": 24.1556409,
   "Lon": 120.6690409
 },
 {
   "Title": "吉順機車行",
   "Tel": "04-22388172",
   "Address": "臺中市北區建德里富強街1號1樓",
   "Brand": "山葉",
   "Lat": 24.158198,
   "Lon": 120.698554
 },
 {
   "Title": "啟揚機車行",
   "Tel": "04-23504818",
   "Address": "臺中市西屯區中工二路26號1樓",
   "Brand": "三陽",
   "Lat": 24.181441,
   "Lon": 120.6164789
 },
 {
   "Title": "長慶輪業商行",
   "Tel": "04-23582410",
   "Address": "臺中市西屯區中工三路228號一樓",
   "Brand": "台鈴",
   "Lat": 24.1746339,
   "Lon": 120.6172402
 },
 {
   "Title": "樺揚機車行",
   "Tel": "04-22956725",
   "Address": "臺中市西屯區大鵬里中清西二街169號1樓",
   "Brand": "光陽",
   "Lat": 24.1760239,
   "Lon": 120.664016
 },
 {
   "Title": "景順機車行",
   "Tel": "04-24258943",
   "Address": "臺中市西屯區港尾里中清路二段1236號1樓",
   "Brand": "三陽",
   "Lat": 24.1934944,
   "Lon": 120.659345
 },
 {
   "Title": "耕源車業有限公司",
   "Tel": "04-24254996",
   "Address": "臺中市西屯區中清路二段1469號",
   "Brand": "光陽",
   "Lat": 24.199438,
   "Lon": 120.6559013
 },
 {
   "Title": "佑新車業行",
   "Tel": "04-23131482",
   "Address": "臺中市西屯區何仁里文心路三段226號1樓",
   "Brand": "光陽",
   "Lat": 24.1692622,
   "Lon": 120.6561724
 },
 {
   "Title": "德新車行",
   "Tel": "04-23285758",
   "Address": "臺中市西屯區何南里臺灣大道二段815號1樓",
   "Brand": "光陽",
   "Lat": 24.1602891,
   "Lon": 120.6531289
 },
 {
   "Title": "弘新輪業行",
   "Tel": "04-24625235",
   "Address": "臺中市西屯區永福路182巷2號",
   "Brand": "光陽",
   "Lat": 24.185959,
   "Lon": 120.621894
 },
 {
   "Title": "卓越機車行",
   "Tel": "04-24612801",
   "Address": "臺中市西屯區福林里玉門路94號1樓",
   "Brand": "光陽",
   "Lat": 24.186638,
   "Lon": 120.610361
 },
 {
   "Title": "富仁機車行",
   "Tel": "04-22510577",
   "Address": "臺中市西屯區潮洋里黎明路二段969號一樓",
   "Brand": "光陽",
   "Lat": 24.1707729,
   "Lon": 120.6363666
 },
 {
   "Title": "承昌機車有限公司",
   "Tel": "04-27027238",
   "Address": "臺中市西屯區西墩里黎明路三段65號1樓",
   "Brand": "山葉",
   "Lat": 24.1727639,
   "Lon": 120.636991
 },
 {
   "Title": "協進機車行",
   "Tel": "04-23110211",
   "Address": "臺中市西屯區惠來里西屯路二段150-2號1樓",
   "Brand": "三陽",
   "Lat": 24.1676189,
   "Lon": 120.6503091
 },
 {
   "Title": "詠全機車行",
   "Tel": "04-23142093",
   "Address": "臺中市西屯區何德里甘肅路一段111號1樓",
   "Brand": "光陽",
   "Lat": 24.1669549,
   "Lon": 120.6580492
 },
 {
   "Title": "中信機車行",
   "Tel": "04-22928416",
   "Address": "臺中市西屯區大河里中平路132號1樓",
   "Brand": "三陽",
   "Lat": 24.1761425,
   "Lon": 120.6619884
 },
 {
   "Title": "享順機車行",
   "Tel": "04-27061259",
   "Address": "臺中市西屯區西平里福星路312號1樓",
   "Brand": "山葉",
   "Lat": 24.1814072,
   "Lon": 120.644836
 },
 {
   "Title": "明德車行",
   "Tel": "04-22524398",
   "Address": "臺中市西屯區潮洋里黎明路二段894號",
   "Brand": "光陽",
   "Lat": 24.16408,
   "Lon": 120.634589
 },
 {
   "Title": "弘源輪業行",
   "Tel": "04-27065896",
   "Address": "臺中市西屯區西墩里黎明路三段250號1樓",
   "Brand": "光陽",
   "Lat": 24.179907,
   "Lon": 120.637739
 },
 {
   "Title": "展億車業",
   "Tel": "04-23722542",
   "Address": "臺中市西區藍興里三民路一段76號1樓",
   "Brand": "山葉",
   "Lat": 24.1316896,
   "Lon": 120.6686017
 },
 {
   "Title": "崑輪機車行",
   "Tel": "04-22016172",
   "Address": "臺中市西區民權路242號1樓",
   "Brand": "光陽",
   "Lat": 24.1454709,
   "Lon": 120.671491
 },
 {
   "Title": "大統機車行",
   "Tel": "04-24755868",
   "Address": "臺中市西區公正里向上南路一段198號",
   "Brand": "光陽",
   "Lat": 24.1451191,
   "Lon": 120.6522138
 },
 {
   "Title": "元隆車業有限公司",
   "Tel": "04-22020060",
   "Address": "臺中市西區五權路183號1樓",
   "Brand": "光陽",
   "Lat": 24.1486431,
   "Lon": 120.67417879999994
 },
 {
   "Title": "勤益機車行",
   "Tel": "04-23299020",
   "Address": "臺中市西區公正里東興路三段59號1樓",
   "Brand": "三陽",
   "Lat": 24.146873,
   "Lon": 120.652754
 },
 {
   "Title": "南裕車業有限公司",
   "Tel": "04-23714638",
   "Address": "臺中市西區公舘里南屯路一段79之1號1樓",
   "Brand": "光陽",
   "Lat": 24.1320656,
   "Lon": 120.663839
 },
 {
   "Title": "慶達機車行",
   "Tel": "04-22654967",
   "Address": "臺中市南區樹德里大慶街二段29-1號1樓、29-2號1樓",
   "Brand": "光陽",
   "Lat": 24.1159544,
   "Lon": 120.6499888
 },
 {
   "Title": "興泰機車行",
   "Tel": "04-23725402",
   "Address": "臺中市西區吉龍里美村路一段641號1樓",
   "Brand": "光陽",
   "Lat": 24.136332,
   "Lon": 120.6618332
 },
 {
   "Title": "榮田機車行",
   "Tel": "04-22139607",
   "Address": "臺中市東區十甲里十甲路136之2號1樓",
   "Brand": "三陽",
   "Lat": 24.1443931,
   "Lon": 120.7015159
 },
 {
   "Title": "通順機車行",
   "Tel": "04-22816576",
   "Address": "臺中市東區東橋里大智路445號1樓",
   "Brand": "光陽",
   "Lat": 24.126596,
   "Lon": 120.6905961
 },
 {
   "Title": "榮豐機車行",
   "Tel": "04-22832435",
   "Address": "臺中市東區振興里忠孝路469號1樓",
   "Brand": "三陽",
   "Lat": 24.1335181,
   "Lon": 120.6908659
 },
 {
   "Title": "瑞鎰車業商行",
   "Tel": "04-23602043",
   "Address": "臺中市東區東勢里進化路207之4號",
   "Brand": "三陽",
   "Lat": 24.149424,
   "Lon": 120.6942454
 },
 {
   "Title": "福興機車行",
   "Tel": "04-22268222",
   "Address": "臺中市東區新庄里復興路4段9號1樓",
   "Brand": "山葉",
   "Lat": 24.1381794,
   "Lon": 120.6897428
 },
 {
   "Title": "順利機車行",
   "Tel": "04-22131240",
   "Address": "臺中市東區樂成里樂業路257號1樓",
   "Brand": "山葉",
   "Lat": 24.139036,
   "Lon": 120.6999146
 },
 {
   "Title": "三元機車行",
   "Tel": "04-23897478",
   "Address": "臺中市南屯區田心里五權西路二段540號1樓",
   "Brand": "光陽",
   "Lat": 24.1410908,
   "Lon": 120.6421466
 },
 {
   "Title": "祥發機車行",
   "Tel": "04-23829747",
   "Address": "臺中市南屯區文山里嶺東路842號1樓",
   "Brand": "山葉",
   "Lat": 24.151828,
   "Lon": 120.612812
 },
 {
   "Title": "南美機車行",
   "Tel": "04-23852658",
   "Address": "臺中市南屯區田心里向心路53號1樓",
   "Brand": "三陽",
   "Lat": 24.1392275,
   "Lon": 120.6442385
 },
 {
   "Title": "玉鼎機車行",
   "Tel": "04-24723427",
   "Address": "臺中市南屯區大同里東興路二段182號1樓",
   "Brand": "台鈴",
   "Lat": 24.1411258,
   "Lon": 120.6531738
 },
 {
   "Title": "答穩輪業有限公司",
   "Tel": "04-23891710",
   "Address": "臺中市南屯區永定里南屯路二段689號",
   "Brand": "山葉",
   "Lat": 24.140493,
   "Lon": 120.636767
 },
 {
   "Title": "上陽機車行",
   "Tel": "04-23811505",
   "Address": "臺中市南屯區寶山里五權西路三段89號1樓",
   "Brand": "三陽",
   "Lat": 24.1534841,
   "Lon": 120.6147291
 },
 {
   "Title": "源福興機車行",
   "Tel": "04-24790456",
   "Address": "臺中市南屯區楓樹里黎明路一段196號",
   "Brand": "三陽",
   "Lat": 24.116439,
   "Lon": 120.627172
 },
 {
   "Title": "富源行",
   "Tel": "04-22225747",
   "Address": "臺中市中區柳川里臺灣大道一段396號1樓",
   "Brand": "光陽",
   "Lat": 24.1432327,
   "Lon": 120.6787971
 },
 {
   "Title": "聯福機車行",
   "Tel": "04-22875020",
   "Address": "臺中市南區城隍里忠孝路120號1樓",
   "Brand": "光陽",
   "Lat": 24.1290249,
   "Lon": 120.6810964
 },
 {
   "Title": "元貴機車行",
   "Tel": "04-23754117",
   "Address": "臺中市南區忠明南路681號1樓",
   "Brand": "光陽",
   "Lat": 24.1290924,
   "Lon": 120.6580286
 },
 {
   "Title": "瑞安輪業商行",
   "Tel": "04-22627522",
   "Address": "臺中市南區南和路136號1樓",
   "Brand": "三陽",
   "Lat": 24.1185291,
   "Lon": 120.6688108
 },
 {
   "Title": "展昌車行",
   "Tel": "04-22870252",
   "Address": "臺中市南區江川里建成路1802號",
   "Brand": "三陽",
   "Lat": 24.126631,
   "Lon": 120.673626
 },
 {
   "Title": "國光車業行",
   "Tel": "04-22878048",
   "Address": "臺中市南區南門里國光路375號1樓",
   "Brand": "山葉",
   "Lat": 24.1202969,
   "Lon": 120.679612
 },
 {
   "Title": "吉豐車行",
   "Tel": "04-22610387",
   "Address": "臺中市南區和平里復興路二段36之6號1樓",
   "Brand": "三陽",
   "Lat": 24.1195082,
   "Lon": 120.6601614
 },
 {
   "Title": "昇旺機車行",
   "Tel": "04-22371715",
   "Address": "臺中市北屯區平安里北平路四段36號",
   "Brand": "光陽",
   "Lat": 24.170557,
   "Lon": 120.6870069
 },
 {
   "Title": "良翊輪業商行",
   "Tel": "04-22361127",
   "Address": "臺中市北區永興街178號1樓",
   "Brand": "光陽",
   "Lat": 24.1636331,
   "Lon": 120.6824909
 },
 {
   "Title": "振發機車行",
   "Tel": "04-23846488",
   "Address": "臺中市南屯區田心里北4巷1之1號1樓",
   "Brand": "三陽",
   "Lat": 24.140963,
   "Lon": 120.64465
 },
 {
   "Title": "新民車業有限公司",
   "Tel": "04-22920555",
   "Address": "臺中市北屯區平陽里大連路一段391號1樓",
   "Brand": "光陽",
   "Lat": 24.176559,
   "Lon": 120.68093
 },
 {
   "Title": "大連機車專業商行",
   "Tel": "04-22450338",
   "Address": "臺中市北屯區平福里大連路二段251號1樓",
   "Brand": "光陽",
   "Lat": 24.1756967,
   "Lon": 120.6893839
 },
 {
   "Title": "廣昌機車行",
   "Tel": "04-22527224",
   "Address": "臺中市南屯區三義里黎明路二段480號1樓",
   "Brand": "光陽",
   "Lat": 24.1529859,
   "Lon": 120.635011
 },
 {
   "Title": "富達機車行",
   "Tel": "04-22428597",
   "Address": "臺中市北屯區舊社里遼寧路一段446號1樓",
   "Brand": "光陽",
   "Lat": 24.1782631,
   "Lon": 120.6967562
 },
 {
   "Title": "坤益車業機車行",
   "Tel": "04-22434163",
   "Address": "臺中市北屯區平順里大連路三段72號1樓",
   "Brand": "光陽",
   "Lat": 24.1748329,
   "Lon": 120.6927827
 },
 {
   "Title": "鴻昌機車行",
   "Tel": "04-24210530",
   "Address": "臺中市北屯區仁和里崇德路三段319號",
   "Brand": "山葉",
   "Lat": 24.1882583,
   "Lon": 120.6862214
 },
 {
   "Title": "黎明機車行",
   "Tel": "04-22523887",
   "Address": "臺中市南屯區三和里黎明路二段347號1樓",
   "Brand": "台鈴",
   "Lat": 24.1499126,
   "Lon": 120.6352697
 },
 {
   "Title": "燁群輪業行",
   "Tel": "04-22301865",
   "Address": "臺中市北區崇德里進化北路120號1樓",
   "Brand": "山葉",
   "Lat": 24.1631707,
   "Lon": 120.687529
 },
 {
   "Title": "昌興機車行",
   "Tel": "04-24790197",
   "Address": "臺中市南屯區楓樹里黎明路一段226號1樓",
   "Brand": "山葉",
   "Lat": 24.1170068,
   "Lon": 120.6271779
 },
 {
   "Title": "吉佑機車行",
   "Tel": "04-27016229",
   "Address": "臺中市西屯區廣福里廣福路322號",
   "Brand": "三陽",
   "Lat": 24.202284,
   "Lon": 120.644512
 },
 {
   "Title": "五元車行",
   "Tel": "04-23897522",
   "Address": "臺中市南屯區南屯里南屯路二段746號",
   "Brand": "山葉",
   "Lat": 24.139752,
   "Lon": 120.6384619
 },
 {
   "Title": "東峰機車行",
   "Tel": "04-22067999",
   "Address": "臺中市北區育德里美德街209號1樓",
   "Brand": "三陽",
   "Lat": 24.1580404,
   "Lon": 120.6790911
 },
 {
   "Title": "上益機車行",
   "Tel": "04-22454838",
   "Address": "臺中市北屯區昌平路一段147號",
   "Brand": "三陽",
   "Lat": 24.1761487,
   "Lon": 120.6902599
 },
 {
   "Title": "全億機車行",
   "Tel": "04-22058189",
   "Address": "臺中市北區明德里太原路一段374號1樓",
   "Brand": "三陽",
   "Lat": 24.1646418,
   "Lon": 120.6649705
 },
 {
   "Title": "暉凡車業有限公司",
   "Tel": "04-22630575",
   "Address": "臺中市南區樹義里大慶街二段1之7號1樓",
   "Brand": "三陽",
   "Lat": 24.113994,
   "Lon": 120.6530378
 },
 {
   "Title": "暉祥汽車有限公司",
   "Tel": "04-23112388",
   "Address": "臺中市西屯區大河里甘肅路二段122號",
   "Brand": "三陽",
   "Lat": 24.1742738,
   "Lon": 120.655509
 },
 {
   "Title": "聯宏輪業行",
   "Tel": "04-22113888",
   "Address": "臺中市東區東信里十甲東路397號1樓",
   "Brand": "光陽",
   "Lat": 24.1355056,
   "Lon": 120.7057363
 },
 {
   "Title": "宏恩機車行",
   "Tel": "04-24619967",
   "Address": "台中市西屯區西屯路三段164-24號",
   "Brand": "三陽",
   "Lat": 24.188669,
   "Lon": 120.617113
 },
 {
   "Title": "凱旭機車行",
   "Tel": "04-22354874",
   "Address": "臺中市北區建興里崇德路一段254號1樓",
   "Brand": "山葉",
   "Lat": 24.1611781,
   "Lon": 120.6852031
 },
 {
   "Title": "崑松機車行",
   "Tel": "04-22477847",
   "Address": "台中市北屯區松竹里松竹路2段437號1樓",
   "Brand": "山葉",
   "Lat": 24.181774,
   "Lon": 120.688248
 },
 {
   "Title": "金和機車行",
   "Tel": "04-22124386",
   "Address": "台中市東區振興路369之28號",
   "Brand": "山葉",
   "Lat": 24.132111,
   "Lon": 120.701519
 },
 {
   "Title": "星旺機車行",
   "Tel": "04-22270979",
   "Address": "臺中市西區平和里民生路116號1樓",
   "Brand": "山葉",
   "Lat": 24.141168,
   "Lon": 120.6730572
 },
 {
   "Title": "弘永發車業",
   "Tel": "04-25663069",
   "Address": "臺中市大雅區員林里中清路四段289號1樓、291號1樓",
   "Brand": "三陽",
   "Lat": 24.2328923,
   "Lon": 120.6385884
 },
 {
   "Title": "新動力車業",
   "Tel": "04-25678794",
   "Address": "臺中市大雅區員林里雅環路三段121號1樓",
   "Brand": "山葉",
   "Lat": 24.2284045,
   "Lon": 120.6437285
 },
 {
   "Title": "成泰機車行",
   "Tel": "04-26800708",
   "Address": "臺中市外埔區大東里甲后路725號1樓",
   "Brand": "三陽",
   "Lat": 24.3425607,
   "Lon": 120.637375
 },
 {
   "Title": "飛力機車行",
   "Tel": "04-26352436",
   "Address": "臺中市沙鹿區興安里興安路50-2號1樓",
   "Brand": "光陽",
   "Lat": 24.2323291,
   "Lon": 120.5561769
 },
 {
   "Title": "東岡機車行",
   "Tel": "04-26362803",
   "Address": "臺中市龍井區山腳里沙田路六段231號",
   "Brand": "三陽",
   "Lat": 24.2099135,
   "Lon": 120.5502856
 },
 {
   "Title": "駿成車業行",
   "Tel": "04-23303982",
   "Address": "臺中市霧峰區本鄉里草湖路1號1樓",
   "Brand": "光陽",
   "Lat": 24.081581,
   "Lon": 120.6909675
 },
 {
   "Title": "宏益機車行",
   "Tel": "04-23397511",
   "Address": "臺中市霧峰區萊園路15-8號1樓",
   "Brand": "山葉",
   "Lat": 24.064453,
   "Lon": 120.6993777
 },
 {
   "Title": "東森輪業行",
   "Tel": "04-22016838",
   "Address": "臺中市北區中達里篤行路338號1、2樓",
   "Brand": "光陽",
   "Lat": 24.1555642,
   "Lon": 120.673758
 },
 {
   "Title": "展裕輪業行",
   "Tel": "04-22938959",
   "Address": "臺中市北區賴旺里青島路一段24號1樓",
   "Brand": "三陽",
   "Lat": 24.172714,
   "Lon": 120.673998
 },
 {
   "Title": "亞慶機車行",
   "Tel": "04-24369097",
   "Address": "臺中市北屯區水景里東山路一段145之14號1樓",
   "Brand": "光陽",
   "Lat": 24.1697465,
   "Lon": 120.7066551
 },
 {
   "Title": "合意機車行",
   "Tel": "04-24931607",
   "Address": "臺中市大里區金城里塗城路792號1樓",
   "Brand": "光陽",
   "Lat": 24.0905928,
   "Lon": 120.6968918
 },
 {
   "Title": "台力機車行",
   "Tel": "04-24811229",
   "Address": "臺中市大里區長榮里大里路108之2號",
   "Brand": "光陽",
   "Lat": 24.1041851,
   "Lon": 120.6862276
 },
 {
   "Title": "忠政機車行",
   "Tel": "04-26933118",
   "Address": "臺中市大肚區福山里沙田路一段519之2號",
   "Brand": "三陽",
   "Lat": 24.1239944,
   "Lon": 120.5632035
 },
 {
   "Title": "建達機車行",
   "Tel": "04-22768297",
   "Address": "臺中市太平區宜昌里宜昌路540號1樓",
   "Brand": "山葉",
   "Lat": 24.1471887,
   "Lon": 120.7153249
 },
 {
   "Title": "振武機車行",
   "Tel": "04-23952358",
   "Address": "臺中市太平區新光里振武路10號1樓、12號1樓",
   "Brand": "光陽",
   "Lat": 24.1543055,
   "Lon": 120.7085363
 },
 {
   "Title": "狄勇機車行",
   "Tel": "04-23731758",
   "Address": "臺中市南區崇倫里建國北路一段257號1樓",
   "Brand": "光陽",
   "Lat": 24.125703,
   "Lon": 120.658219
 },
 {
   "Title": "新日陽車業行",
   "Tel": "04-23373323",
   "Address": "臺中市烏日區九德里中山路一段180號1樓",
   "Brand": "三陽",
   "Lat": 24.1092771,
   "Lon": 120.6426771
 },
 {
   "Title": "速可達車業行",
   "Tel": "04-24629368",
   "Address": "臺中市西屯區福聯里福科路899號1樓、2樓",
   "Brand": "綜合",
   "Lat": 24.1871492,
   "Lon": 120.6072399
 },
 {
   "Title": "泰峰車業行",
   "Tel": "04-25293700",
   "Address": "臺中市豐原區豐東路66號",
   "Brand": "台灣山葉",
   "Lat": 24.246642,
   "Lon": 120.729377
 },
 {
   "Title": "富暉車業有限公司",
   "Tel": "04-25268665",
   "Address": "臺中市豐原區圓環北路2段121號1樓",
   "Brand": "台灣山葉",
   "Lat": 24.260864,
   "Lon": 120.722927
 },
 {
   "Title": "富達輪業行",
   "Tel": "04-25233696",
   "Address": "臺中市豐原區向陽路370號",
   "Brand": "光陽",
   "Lat": 24.2500784,
   "Lon": 120.7302932
 },
 {
   "Title": "大晉機車零件社",
   "Tel": "04-25221783",
   "Address": "臺中市豐原區南嵩里水源路233號1樓",
   "Brand": "三陽",
   "Lat": 24.2557005,
   "Lon": 120.739259
 },
 {
   "Title": "愛車機車行",
   "Tel": "04-25601988",
   "Address": "臺中市大雅區神林南路195號",
   "Brand": "光陽",
   "Lat": 24.2251925,
   "Lon": 120.6570987
 },
 {
   "Title": "東祐機車行",
   "Tel": "04-23982618",
   "Address": "臺中市太平區樹德路85之1號",
   "Brand": "台灣山葉",
   "Lat": 24.1521819,
   "Lon": 120.7111645
 },
 {
   "Title": "十甲車業行",
   "Tel": "04-22138643",
   "Address": "臺中市東區十甲路357號",
   "Brand": "三陽",
   "Lat": 24.1446119,
   "Lon": 120.7066242
 },
 {
   "Title": "春源機車行",
   "Tel": "04-23015213",
   "Address": "臺中市西區模範街52號",
   "Brand": "三陽",
   "Lat": 24.149969,
   "Lon": 120.666827
 },
 {
   "Title": "速可達車業有限公司",
   "Tel": "04-27083448",
   "Address": "臺中市西屯區上石里西屯路二段269之46號1樓、269之47號1樓",
   "Brand": "多品牌",
   "Lat": 24.1744235,
   "Lon": 120.6442666
 },
 {
   "Title": "飛帆車業有限公司",
   "Tel": "04-23898852",
   "Address": "臺中市南屯區永定里黎明路2段107號1樓",
   "Brand": "三陽",
   "Lat": 24.1447929,
   "Lon": 120.636709
 },
 {
   "Title": "五同輪業有限公司",
   "Tel": "04-24752666",
   "Address": "臺中市南屯區大墩路71號",
   "Brand": "光陽",
   "Lat": 24.1387433,
   "Lon": 120.6497764
 },
 {
   "Title": "佳陸車業有限公司",
   "Tel": "04-25264886",
   "Address": "臺中市豐原區田心里中山路230號",
   "Brand": "山葉",
   "Lat": 24.242159,
   "Lon": 120.713501
 },
 {
   "Title": "通陽車業股份有限公司",
   "Tel": "04-25264698",
   "Address": "臺中市豐原區豐原大道四段265號",
   "Brand": "三陽",
   "Lat": 24.2490014,
   "Lon": 120.7371609
 },
 {
   "Title": "台一機車行",
   "Tel": "04-25264895",
   "Address": "臺中市豐原區田心里成功路34號1樓",
   "Brand": "三陽",
   "Lat": 24.242396,
   "Lon": 120.712129
 },
 {
   "Title": "東生機車行",
   "Tel": "04-25227673",
   "Address": "臺中市豐原區南陽里永康路5號1樓",
   "Brand": "光陽",
   "Lat": 24.2443491,
   "Lon": 120.728136
 },
 {
   "Title": "新東機車行",
   "Tel": "04-25233458",
   "Address": "臺中市神岡區岸裡里中山路41號",
   "Brand": "山葉",
   "Lat": 24.2486573,
   "Lon": 120.6981435
 },
 {
   "Title": "元春機車行",
   "Tel": "04-25624106",
   "Address": "臺中市神岡區北庄里中山路1186號",
   "Brand": "三陽",
   "Lat": 24.2569327,
   "Lon": 120.6697161
 },
 {
   "Title": "昆明機車行",
   "Tel": "04-25872680",
   "Address": "臺中市東勢區南平里豐勢路346號",
   "Brand": "山葉",
   "Lat": 24.254456,
   "Lon": 120.829681
 },
 {
   "Title": "泉宏機車行",
   "Tel": "04-25873033",
   "Address": "臺中市東勢區新盛里東關路640之12號1樓",
   "Brand": "光陽",
   "Lat": 24.245966,
   "Lon": 120.832265
 },
 {
   "Title": "信泰機車行",
   "Tel": "04-25875776",
   "Address": "臺中市東勢區北興里豐勢路621號",
   "Brand": "山葉",
   "Lat": 24.260901,
   "Lon": 120.8248214
 },
 {
   "Title": "元富機車有限公司",
   "Tel": "04-25336959",
   "Address": "臺中市潭子區頭家東里中山路一段328號",
   "Brand": "山葉",
   "Lat": 24.1948288,
   "Lon": 120.7025555
 },
 {
   "Title": "大龍機車行",
   "Tel": "04-25325585",
   "Address": "臺中市潭子區潭秀里中山路二段578、582號",
   "Brand": "三陽",
   "Lat": 24.2186812,
   "Lon": 120.7058861
 },
 {
   "Title": "大明輪業商行",
   "Tel": "04-25367072",
   "Address": "臺中市潭子區潭陽里潭子街二段59號",
   "Brand": "三陽",
   "Lat": 24.2148319,
   "Lon": 120.7064605
 },
 {
   "Title": "坤發機車行",
   "Tel": "04-25322776",
   "Address": "臺中市潭子區潭秀里中山路二段570號",
   "Brand": "光陽",
   "Lat": 24.2186812,
   "Lon": 120.7058861
 },
 {
   "Title": "祥僑輪業有限公司",
   "Tel": "04-22795078",
   "Address": "臺中市太平區平安里太平路120號",
   "Brand": "山葉",
   "Lat": 24.1199413,
   "Lon": 120.721477
 },
 {
   "Title": "全陽輪業有限公司",
   "Tel": "04-22797002",
   "Address": "臺中市太平區永平里中興東路5號1樓",
   "Brand": "三陽",
   "Lat": 24.1292076,
   "Lon": 120.7186757
 },
 {
   "Title": "旺泰益車業有限公司",
   "Tel": "04-25664073",
   "Address": "臺中市大雅區中清東路5號",
   "Brand": "光陽",
   "Lat": 24.2192148,
   "Lon": 120.6487019
 },
 {
   "Title": "吉富機車行",
   "Tel": "04-25668239",
   "Address": "臺中市大雅區大雅里中清東路162、166號",
   "Brand": "山葉",
   "Lat": 24.2229308,
   "Lon": 120.6480256
 },
 {
   "Title": "霧峰伯祥車業有限公司",
   "Tel": "04-23325586",
   "Address": "臺中市霧峰區本鄉里林森路910號",
   "Brand": "山葉",
   "Lat": 24.0696421,
   "Lon": 120.6967629
 },
 {
   "Title": "振森輪業有限公司",
   "Tel": "04-23394245",
   "Address": "臺中市霧峰區本堂里中正路669號1樓",
   "Brand": "光陽",
   "Lat": 24.0581257,
   "Lon": 120.6977928
 },
 {
   "Title": "誠豐車行有限公司",
   "Tel": "04-23393151",
   "Address": "臺中市霧峰區中正路1157號",
   "Brand": "三陽",
   "Lat": 24.0705606,
   "Lon": 120.6992476
 },
 {
   "Title": "復輪達輪業有限公司",
   "Tel": "04-23377117",
   "Address": "臺中市烏日區仁德里中山路一段395號1樓",
   "Brand": "光陽",
   "Lat": 24.1077099,
   "Lon": 120.6386093
 },
 {
   "Title": "新萬來輪業有限公司",
   "Tel": "04-24818355",
   "Address": "臺中市大里區東興里益民路二段337號",
   "Brand": "光陽",
   "Lat": 24.1132444,
   "Lon": 120.6838361
 },
 {
   "Title": "偉達車業有限公司",
   "Tel": "04-24860003",
   "Address": "臺中市大里區日新里中興路二段612號1樓",
   "Brand": "山葉",
   "Lat": 24.1155622,
   "Lon": 120.6897682
 },
 {
   "Title": "宏勝機車行",
   "Tel": "04-24951666",
   "Address": "臺中市大里區金城里塗城路622號",
   "Brand": "三陽",
   "Lat": 24.0890858,
   "Lon": 120.7002377
 },
 {
   "Title": "和昌機車行",
   "Tel": "04-24950375",
   "Address": "臺中市大里區塗城里塗城路329、331號1樓",
   "Brand": "三陽",
   "Lat": 24.0860794,
   "Lon": 120.7106823
 },
 {
   "Title": "幸福車行",
   "Tel": "04-24921726",
   "Address": "臺中市大里區東湖里中興路一段203號",
   "Brand": "三陽",
   "Lat": 24.090168,
   "Lon": 120.6929538
 },
 {
   "Title": "新建龍車業行",
   "Tel": "04-26237181",
   "Address": "臺中市清水區橋頭里中華路530號1樓",
   "Brand": "三陽",
   "Lat": 24.275645,
   "Lon": 120.572014
 },
 {
   "Title": "吉雄輪業商行",
   "Tel": "04-26225643",
   "Address": "臺中市清水區西社里海濱路111之1號",
   "Brand": "三陽",
   "Lat": 24.2717954,
   "Lon": 120.5687242
 },
 {
   "Title": "金財輪業行",
   "Tel": "04-26222763",
   "Address": "臺中市清水區清水里中山路96號1樓",
   "Brand": "光陽",
   "Lat": 24.2670666,
   "Lon": 120.5747408
 },
 {
   "Title": "德源輪業有限公司",
   "Tel": "04-26234558",
   "Address": "臺中市清水區下湳里中山路396之29號",
   "Brand": "山葉",
   "Lat": 24.276778,
   "Lon": 120.578174
 },
 {
   "Title": "光倫輪業有限公司",
   "Tel": "04-25562602",
   "Address": "臺中市后里區墩東里民生路187號",
   "Brand": "光陽",
   "Lat": 24.3059294,
   "Lon": 120.7144834
 },
 {
   "Title": "良發車業有限公司",
   "Tel": "04-26563950",
   "Address": "臺中市梧棲區下寮里居仁街350巷16號",
   "Brand": "山葉",
   "Lat": 24.2595436,
   "Lon": 120.5310582
 },
 {
   "Title": "新輪車業行",
   "Tel": "04-26363212",
   "Address": "臺中市沙鹿區福興里鎮南路二段413號",
   "Brand": "三陽",
   "Lat": 24.229445,
   "Lon": 120.566497
 },
 {
   "Title": "成建機車行",
   "Tel": "04-26397373",
   "Address": "臺中市龍井區龍津里中央路1段262號1樓",
   "Brand": "三陽",
   "Lat": 24.2024387,
   "Lon": 120.523441
 },
 {
   "Title": "志翔車業行",
   "Tel": "04-26980057",
   "Address": "臺中市大肚區頂街里沙田路二段750號1樓",
   "Brand": "三陽",
   "Lat": 24.1534771,
   "Lon": 120.5446236
 },
 {
   "Title": "國暐輪業有限公司",
   "Tel": "04-26861320",
   "Address": "臺中市大安區海墘里大安港路1105號",
   "Brand": "山葉",
   "Lat": 24.3790852,
   "Lon": 120.5878658
 },
 {
   "Title": "永傳輪業有限公司",
   "Tel": "04-26882233",
   "Address": "臺中市大甲區岷山里中山路一段896號",
   "Brand": "山葉",
   "Lat": 24.3485392,
   "Lon": 120.6276712
 },
 {
   "Title": "明德輪業商行",
   "Tel": "04-26875618",
   "Address": "臺中市大甲區薰風里順天路44號1樓",
   "Brand": "山葉",
   "Lat": 24.3428202,
   "Lon": 120.6211761
 },
 {
   "Title": "新益機車行",
   "Tel": "04-26862103",
   "Address": "臺中市大甲區文武里信義路275號1樓",
   "Brand": "三陽",
   "Lat": 24.3526048,
   "Lon": 120.6213206
 },
 {
   "Title": "億豐機車行",
   "Tel": "04-26876607",
   "Address": "臺中市大甲區頂店里中山路一段1243號1樓",
   "Brand": "三陽",
   "Lat": 24.355286,
   "Lon": 120.631469
 },
 {
   "Title": "久田機車行",
   "Tel": "04-26876183",
   "Address": "臺中市大甲區頂店里中山路一段1265號1樓",
   "Brand": "三陽",
   "Lat": 24.3556869,
   "Lon": 120.6322524
 },
 {
   "Title": "三富輪業行",
   "Tel": "04-26877986",
   "Address": "臺中市大甲區新美里順天路5號1樓",
   "Brand": "光陽",
   "Lat": 24.3421573,
   "Lon": 120.6203446
 },
 {
   "Title": "吉源機車行",
   "Tel": "04-26992960",
   "Address": "臺中市大肚區頂街里沙田路三段89號1樓",
   "Brand": "山葉",
   "Lat": 24.1563754,
   "Lon": 120.5439819
 },
 {
   "Title": "草湖機車行",
   "Tel": "04-24938848",
   "Address": "臺中市大里區東湖里中興路一段153號",
   "Brand": "光陽",
   "Lat": 24.0845894,
   "Lon": 120.6967899
 },
 {
   "Title": "盛偉車業有限公司",
   "Tel": "04-24939526",
   "Address": "臺中市大里區金城里中興路一段344號一樓",
   "Brand": "山葉",
   "Lat": 24.0910825,
   "Lon": 120.6927757
 },
 {
   "Title": "嘉信機車行",
   "Tel": "04-24914745",
   "Address": "臺中市大里區仁德里仁化路529號",
   "Brand": "台鈴",
   "Lat": 24.0962346,
   "Lon": 120.6997647
 },
 {
   "Title": "德寶機車行",
   "Tel": "04-24952714",
   "Address": "臺中市大里區瑞城里成功路397號1樓",
   "Brand": "山葉",
   "Lat": 24.0888999,
   "Lon": 120.7029221
 },
 {
   "Title": "嘉慶車業有限公司",
   "Tel": "04-24064356",
   "Address": "臺中市大里區大里里長興一街20號1樓",
   "Brand": "山葉",
   "Lat": 24.0988826,
   "Lon": 120.6793015
 },
 {
   "Title": "瑞欣機車行",
   "Tel": "04-24811150",
   "Address": "臺中市大里區東興里益民路二段330號",
   "Brand": "三陽",
   "Lat": 24.1124054,
   "Lon": 120.6839788
 },
 {
   "Title": "松岳車業有限公司",
   "Tel": "04-24925080",
   "Address": "臺中市大里區瑞城里塗城路491號1樓",
   "Brand": "光陽",
   "Lat": 24.0873146,
   "Lon": 120.7064876
 },
 {
   "Title": "正成車行",
   "Tel": "04-25662066",
   "Address": "臺中市大雅區大雅里中清東路111號",
   "Brand": "台鈴",
   "Lat": 24.2219067,
   "Lon": 120.6481852
 },
 {
   "Title": "太三車業有限公司",
   "Tel": "04-25660150",
   "Address": "臺中市大雅區雅楓里民生路三段115號",
   "Brand": "光陽",
   "Lat": 24.2311786,
   "Lon": 120.6587327
 },
 {
   "Title": "源順機車行",
   "Tel": "04-23931236",
   "Address": "臺中市太平區坪林里中山路二段134號1樓",
   "Brand": "三陽",
   "Lat": 24.1490831,
   "Lon": 120.7343246
 },
 {
   "Title": "鴻騏車行",
   "Tel": "04-23910738",
   "Address": "臺中市太平區新吉里中山路三段134號1樓",
   "Brand": "三陽",
   "Lat": 24.1488817,
   "Lon": 120.7185943
 },
 {
   "Title": "尚億機車行",
   "Tel": "04-23951611",
   "Address": "臺中市太平區新福里中山路四段158號1樓",
   "Brand": "光陽",
   "Lat": 24.1482697,
   "Lon": 120.7035726
 },
 {
   "Title": "嘉欣機車行",
   "Tel": "04-22704770",
   "Address": "臺中市太平區興隆里光興路1438號",
   "Brand": "台鈴",
   "Lat": 24.118526,
   "Lon": 120.733507
 },
 {
   "Title": "直興輪業有限公司",
   "Tel": "04-22796713",
   "Address": "臺中市太平區長億里長億路60號1樓",
   "Brand": "三陽",
   "Lat": 24.1176824,
   "Lon": 120.7190232
 },
 {
   "Title": "吉隆輪業商行",
   "Tel": "04-22777726",
   "Address": "臺中市太平區宜佳里新平路二段93號1樓",
   "Brand": "光陽",
   "Lat": 24.138202,
   "Lon": 120.714954
 },
 {
   "Title": "葳晟車業有限公司",
   "Tel": "04-25564641",
   "Address": "臺中市后里區廣福里三豐路38-10號",
   "Brand": "三陽",
   "Lat": 24.3002833,
   "Lon": 120.7231507
 },
 {
   "Title": "福聯車業行",
   "Tel": "04-25560960",
   "Address": "臺中市后里區墩東里文明路101號",
   "Brand": "三陽",
   "Lat": 24.3068437,
   "Lon": 120.7172741
 },
 {
   "Title": "永益機車行",
   "Tel": "04-25565042",
   "Address": "臺中市后里區墩北里甲后路699號1樓",
   "Brand": "三陽",
   "Lat": 24.3109932,
   "Lon": 120.7095692
 },
 {
   "Title": "高輪機車行",
   "Tel": "04-26368329",
   "Address": "臺中市沙鹿區興仁里沙田路71號",
   "Brand": "綜合",
   "Lat": 24.233739,
   "Lon": 120.5584751
 },
 {
   "Title": "吳金龍機車行",
   "Tel": "04-26355604",
   "Address": "臺中市沙鹿區福興里鎮南路二段243號1樓",
   "Brand": "三陽",
   "Lat": 24.2234126,
   "Lon": 120.5685445
 },
 {
   "Title": "坤晁車業有限公司",
   "Tel": "04-25873066",
   "Address": "臺中市東勢區延平里豐勢路300號",
   "Brand": "光陽",
   "Lat": 24.25266,
   "Lon": 120.829901
 },
 {
   "Title": "永鴻輪業商行",
   "Tel": "04-23371718",
   "Address": "臺中市烏日區烏日里中山路二段162號1樓",
   "Brand": "山葉",
   "Lat": 24.1063175,
   "Lon": 120.6244609
 },
 {
   "Title": "萬豐機車行",
   "Tel": "04-25623702",
   "Address": "臺中市神岡區北庄里中山路1303號",
   "Brand": "光陽",
   "Lat": 24.2580914,
   "Lon": 120.6646919
 },
 {
   "Title": "華南輪業行",
   "Tel": "04-25625275",
   "Address": "臺中市神岡區社南里民生路32-1號1樓",
   "Brand": "三陽",
   "Lat": 24.2455275,
   "Lon": 120.6817226
 },
 {
   "Title": "良安機車有限公司",
   "Tel": "04-26563267",
   "Address": "臺中市梧棲區安仁里民生街93號",
   "Brand": "三陽",
   "Lat": 24.2543981,
   "Lon": 120.5289354
 },
 {
   "Title": "祥益機車行",
   "Tel": "04-26560098",
   "Address": "臺中市梧棲區大庄里臺灣大道八段525巷40號1樓",
   "Brand": "山葉",
   "Lat": 24.2449018,
   "Lon": 120.5460649
 },
 {
   "Title": "東昌機車行",
   "Tel": "04-26565688",
   "Address": "臺中市梧棲區大庄里臺灣大道八段716號",
   "Brand": "台鈴",
   "Lat": 24.2475932,
   "Lon": 120.5432569
 },
 {
   "Title": "大展機車行",
   "Tel": "04-26561349",
   "Address": "臺中市梧棲區大庄里文昌路551號",
   "Brand": "山葉",
   "Lat": 24.2453128,
   "Lon": 120.537356
 },
 {
   "Title": "金倫車業有限公司",
   "Tel": "04-26261919",
   "Address": "臺中市清水區橋頭里五權路28號1樓",
   "Brand": "光陽",
   "Lat": 24.2763947,
   "Lon": 120.5701758
 },
 {
   "Title": "興松機車行",
   "Tel": "04-25817668",
   "Address": "臺中市新社區新社里興安路39號1樓",
   "Brand": "三陽",
   "Lat": 24.2420676,
   "Lon": 120.8091188
 },
 {
   "Title": "岱億機車行",
   "Tel": "04-25320819",
   "Address": "臺中市潭子區頭家東里中山路一段272號1樓",
   "Brand": "山葉",
   "Lat": 24.1929631,
   "Lon": 120.7025421
 },
 {
   "Title": "協昌機車行",
   "Tel": "04-25321495",
   "Address": "臺中市潭子區潭秀里中山路二段465號",
   "Brand": "三陽",
   "Lat": 24.2164826,
   "Lon": 120.7055196
 },
 {
   "Title": "羽翔機車行",
   "Tel": "04-25368392",
   "Address": "臺中市潭子區潭陽里新興路一段391號1樓",
   "Brand": "山葉",
   "Lat": 24.2070033,
   "Lon": 120.7100278
 },
 {
   "Title": "德旺機車行",
   "Tel": "04-26395039",
   "Address": "臺中市龍井區三德里中央路二段107號1樓",
   "Brand": "光陽",
   "Lat": 24.2056848,
   "Lon": 120.523381
 },
 {
   "Title": "發成機車行",
   "Tel": "04-26310077",
   "Address": "臺中市龍井區新東里新興路79號1樓",
   "Brand": "山葉",
   "Lat": 24.1819337,
   "Lon": 120.584618
 },
 {
   "Title": "全德機車行",
   "Tel": "04-25226691",
   "Address": "臺中市豐原區西湳里文賢街201號1樓",
   "Brand": "三陽",
   "Lat": 24.257307,
   "Lon": 120.714278
 },
 {
   "Title": "福山輪業行",
   "Tel": "04-25270081",
   "Address": "臺中市豐原區豐田里豐田路35號1樓",
   "Brand": "山葉",
   "Lat": 24.2396671,
   "Lon": 120.7197399
 },
 {
   "Title": "海讌車業有限公司",
   "Tel": "04-25238382",
   "Address": "臺中市豐原區豐圳里成功路586號1樓、2樓",
   "Brand": "光陽",
   "Lat": 24.254381,
   "Lon": 120.705933
 },
 {
   "Title": "桐林機車行",
   "Tel": "04-25263572",
   "Address": "臺中市豐原區南陽里圓環東路209號1樓",
   "Brand": "三陽",
   "Lat": 24.2436378,
   "Lon": 120.7213156
 },
 {
   "Title": "萬國輪業商行",
   "Tel": "04-25294395",
   "Address": "臺中市豐原區南陽里南陽路261號1樓",
   "Brand": "台鈴",
   "Lat": 24.2380509,
   "Lon": 120.7296669
 },
 {
   "Title": "東億機車零件社",
   "Tel": "04-25272648",
   "Address": "臺中市豐原區翁子里豐勢路二段2號1樓",
   "Brand": "三陽",
   "Lat": 24.2606911,
   "Lon": 120.7365633
 },
 {
   "Title": "佳億機車行",
   "Tel": "04-26860866",
   "Address": "臺中市大甲區薰風里水源路2之15號1樓",
   "Brand": "光陽",
   "Lat": 24.3485983,
   "Lon": 120.631828
 },
 {
   "Title": "松承機車行",
   "Tel": "04-26812254",
   "Address": "臺中市大甲區西岐里順帆路92之2號1樓",
   "Brand": "山葉",
   "Lat": 24.419918,
   "Lon": 120.628971
 },
 {
   "Title": "豐盛機車行",
   "Tel": "04-26875957",
   "Address": "臺中市大甲區薰風里順天路30號",
   "Brand": "三陽",
   "Lat": 24.3426171,
   "Lon": 120.6210093
 },
 {
   "Title": "上弘機車行",
   "Tel": "04-26820888",
   "Address": "臺中市大甲區日南里黎明路3之1號",
   "Brand": "光陽",
   "Lat": 24.391014,
   "Lon": 120.653886
 },
 {
   "Title": "佳和輪業有限公司",
   "Tel": "04-26866153",
   "Address": "臺中市大甲區庄美里興安路54-1號",
   "Brand": "光陽",
   "Lat": 24.3476476,
   "Lon": 120.6156596
 },
 {
   "Title": "吉昌機車行",
   "Tel": "04-26873190",
   "Address": "臺中市大甲區平安里信義路105號",
   "Brand": "台鈴",
   "Lat": 24.3486121,
   "Lon": 120.619754
 },
 {
   "Title": "欣昌機車行",
   "Tel": "04-26712353",
   "Address": "臺中市大安區中庄里中山南路458號1樓",
   "Brand": "光陽",
   "Lat": 24.3495554,
   "Lon": 120.5842796
 },
 {
   "Title": "永任機車行",
   "Tel": "04-26933568",
   "Address": "臺中市大肚區王田里沙田路一段77號1樓",
   "Brand": "三陽",
   "Lat": 24.1184044,
   "Lon": 120.5773703
 },
 {
   "Title": "春成機車行",
   "Tel": "04-24064006",
   "Address": "臺中市大里區大元里國中路310號1樓",
   "Brand": "光陽",
   "Lat": 24.09552,
   "Lon": 120.679094
 },
 {
   "Title": "修平車業有限公司",
   "Tel": "04-24914290",
   "Address": "臺中市大里區仁化里仁化路516號1樓",
   "Brand": "山葉",
   "Lat": 24.096362,
   "Lon": 120.702153
 },
 {
   "Title": "样發機車行",
   "Tel": "04-24860171",
   "Address": "臺中市大里區內新里中興路二段554號",
   "Brand": "三陽",
   "Lat": 24.1138586,
   "Lon": 120.6899074
 },
 {
   "Title": "泰興車行",
   "Tel": "04-24866789",
   "Address": "臺中市大里區祥興里中興路二段866號",
   "Brand": "山葉",
   "Lat": 24.1213946,
   "Lon": 120.6860664
 },
 {
   "Title": "大暉輪業有限公司",
   "Tel": "04-24919956",
   "Address": "臺中市大里區仁化里仁化路392號",
   "Brand": "三陽",
   "Lat": 24.0955573,
   "Lon": 120.7060338
 },
 {
   "Title": "太山輪業商行",
   "Tel": "04-24061489",
   "Address": "臺中市大里區大里里東里路18號1樓",
   "Brand": "三陽",
   "Lat": 24.0968671,
   "Lon": 120.6786438
 },
 {
   "Title": "高士車業行",
   "Tel": "04-24820061",
   "Address": "臺中市大里區東興里國光路2段386號1樓",
   "Brand": "山葉",
   "Lat": 24.1087385,
   "Lon": 120.6801085
 },
 {
   "Title": "昌隆機車行",
   "Tel": "04-25660637",
   "Address": "臺中市大雅區四德里中清路三段838號",
   "Brand": "光陽",
   "Lat": 24.2181905,
   "Lon": 120.6486444
 },
 {
   "Title": "志昌機車行",
   "Tel": "04-23927705",
   "Address": "臺中市太平區中山里大源2街30號",
   "Brand": "三陽",
   "Lat": 24.1402914,
   "Lon": 120.7230105
 },
 {
   "Title": "宏威機車行",
   "Tel": "04-23925968",
   "Address": "臺中市太平區坪林里中山路二段67號1樓",
   "Brand": "光陽",
   "Lat": 24.1470808,
   "Lon": 120.7337355
 },
 {
   "Title": "成龍機車行",
   "Tel": "04-23933028",
   "Address": "臺中市太平區坪林里中山路二段175號",
   "Brand": "摩特動力",
   "Lat": 24.1494913,
   "Lon": 120.7343198
 },
 {
   "Title": "信豪機車行",
   "Tel": "04-23923923",
   "Address": "臺中市太平區中山里中山路二段539號1樓",
   "Brand": "山葉",
   "Lat": 24.1496376,
   "Lon": 120.7249549
 },
 {
   "Title": "永久機車行",
   "Tel": "04-23918375",
   "Address": "臺中市太平區新城里中山路三段180號",
   "Brand": "台鈴",
   "Lat": 24.148877,
   "Lon": 120.717214
 },
 {
   "Title": "建利機車行",
   "Tel": "04-22784369",
   "Address": "臺中市太平區中興里太平路628號",
   "Brand": "山葉",
   "Lat": 24.126378,
   "Lon": 120.712157
 },
 {
   "Title": "三和機車行",
   "Tel": "04-22707302",
   "Address": "臺中市太平區中政里中興路89號1樓",
   "Brand": "台鈴",
   "Lat": 24.1274959,
   "Lon": 120.71618
 },
 {
   "Title": "捍族機車商行",
   "Tel": "04-22762611",
   "Address": "臺中市太平區成功里中興東路348號1樓",
   "Brand": "光陽",
   "Lat": 24.1337894,
   "Lon": 120.7265669
 },
 {
   "Title": "旭鴻機車行",
   "Tel": "04-22763726",
   "Address": "臺中市太平區永成里太平路241號1樓",
   "Brand": "光陽",
   "Lat": 24.121487,
   "Lon": 120.719388
 },
 {
   "Title": "弘盛機車行",
   "Tel": "04-23924109",
   "Address": "臺中市太平區光華里大興路187號",
   "Brand": "公會",
   "Lat": 24.1560617,
   "Lon": 120.7340294
 },
 {
   "Title": "正大機車行",
   "Tel": "04-22782967",
   "Address": "臺中市太平區光隆里光興路1038號1樓",
   "Brand": "山葉",
   "Lat": 24.111437,
   "Lon": 120.730713
 },
 {
   "Title": "千億車業",
   "Tel": "04-22731158",
   "Address": "臺中市太平區宜欣里宜昌路391號1樓",
   "Brand": "山葉",
   "Lat": 24.1452902,
   "Lon": 120.7139626
 },
 {
   "Title": "立成機車行",
   "Tel": "04-26874835",
   "Address": "臺中市外埔區大東里甲后路711號1樓",
   "Brand": "無",
   "Lat": 24.3418999,
   "Lon": 120.6386258
 },
 {
   "Title": "忠益機車行",
   "Tel": "04-25722281",
   "Address": "臺中市石岡區萬安里豐勢路1131號1樓",
   "Brand": "山葉",
   "Lat": 24.2765041,
   "Lon": 120.77635
 },
 {
   "Title": "光輝機車行",
   "Tel": "04-25562809",
   "Address": "臺中市后里區后里里三豐路287號",
   "Brand": "山葉",
   "Lat": 24.3129026,
   "Lon": 120.7235319
 },
 {
   "Title": "明輝機車行",
   "Tel": "04-25563042",
   "Address": "臺中市后里區厚里里民生路35號1樓",
   "Brand": "山葉",
   "Lat": 24.3088531,
   "Lon": 120.7167881
 },
 {
   "Title": "明元機車行",
   "Tel": "04-25564776",
   "Address": "臺中市后里區厚里里甲后路514號1樓",
   "Brand": "三陽",
   "Lat": 24.3094381,
   "Lon": 120.7190511
 },
 {
   "Title": "正峰機車行",
   "Tel": "04-25563651",
   "Address": "臺中市后里區眉山里甲后路867號1樓",
   "Brand": "三陽",
   "Lat": 24.3137037,
   "Lon": 120.6933146
 },
 {
   "Title": "內埔機車行",
   "Tel": "04-25563797",
   "Address": "臺中市后里區墩東里文化路43號1樓",
   "Brand": "三陽",
   "Lat": 24.3071031,
   "Lon": 120.714491
 },
 {
   "Title": "尚旺機車行",
   "Tel": "04-26529996",
   "Address": "臺中市沙鹿區北勢里北勢東路523號",
   "Brand": "摩特動力",
   "Lat": 24.2261117,
   "Lon": 120.5754168
 },
 {
   "Title": "大統機車行",
   "Tel": "04-26652729",
   "Address": "臺中市沙鹿區鹿寮里光華路320號1樓",
   "Brand": "光陽",
   "Lat": 24.2419111,
   "Lon": 120.5651567
 },
 {
   "Title": "全營機車行",
   "Tel": "04-25881630",
   "Address": "臺中市東勢區福隆里東坑路353號1樓",
   "Brand": "光陽",
   "Lat": 24.2448915,
   "Lon": 120.8398807
 },
 {
   "Title": "正揚機車行",
   "Tel": "04-25888317",
   "Address": "臺中市東勢區泰昌里東崎路五段456號1樓",
   "Brand": "山葉",
   "Lat": 24.2514089,
   "Lon": 120.8317469
 },
 {
   "Title": "昭通機車行",
   "Tel": "04-25872851",
   "Address": "臺中市東勢區粵寧里豐勢路574號1樓",
   "Brand": "光陽",
   "Lat": 24.2601546,
   "Lon": 120.8269476
 },
 {
   "Title": "進昌輪業商行",
   "Tel": "04-23372265",
   "Address": "臺中市烏日區九德里中山路一段490號",
   "Brand": "山葉",
   "Lat": 24.1071489,
   "Lon": 120.6357771
 },
 {
   "Title": "正荃機車行",
   "Tel": "04-23370717",
   "Address": "臺中市烏日區九德里興祥街103、105號1樓",
   "Brand": "山葉",
   "Lat": 24.1086826,
   "Lon": 120.6377954
 },
 {
   "Title": "榮泰輪業商行",
   "Tel": "04-23371714",
   "Address": "臺中市烏日區五光里五光路141號1樓",
   "Brand": "山葉",
   "Lat": 24.0949477,
   "Lon": 120.6541915
 },
 {
   "Title": "煌原機車行",
   "Tel": "04-23353396",
   "Address": "臺中市烏日區溪埧里溪南路一段730號1樓",
   "Brand": "三陽",
   "Lat": 24.0749081,
   "Lon": 120.6428892
 },
 {
   "Title": "新傑機車行",
   "Tel": "04-25621780",
   "Address": "臺中市神岡區社口里中山路776之1號",
   "Brand": "山葉",
   "Lat": 24.2489288,
   "Lon": 120.6798165
 },
 {
   "Title": "三献機車行",
   "Tel": "04-25628258",
   "Address": "臺中市神岡區社南里中山路719-5號1樓",
   "Brand": "光陽",
   "Lat": 24.2492938,
   "Lon": 120.6789649
 },
 {
   "Title": "宏隆機車行",
   "Tel": "04-25616282",
   "Address": "臺中市神岡區神岡里神岡路57號",
   "Brand": "三陽",
   "Lat": 24.2575192,
   "Lon": 120.6608795
 },
 {
   "Title": "和炳車業行",
   "Tel": "04-26562678",
   "Address": "臺中市梧棲區文化里中和街23號1樓",
   "Brand": "三陽",
   "Lat": 24.2541292,
   "Lon": 120.5308224
 },
 {
   "Title": "伸發車業有限公司",
   "Tel": "04-26234222",
   "Address": "臺中市清水區南寧里鰲峰路36號1樓",
   "Brand": "山葉",
   "Lat": 24.2695419,
   "Lon": 120.5724028
 },
 {
   "Title": "信揮機車行",
   "Tel": "04-26222032",
   "Address": "臺中市清水區北寧里中山路226號1樓",
   "Brand": "山葉",
   "Lat": 24.2718331,
   "Lon": 120.5765785
 },
 {
   "Title": "瑞明車業行",
   "Tel": "04-26230615",
   "Address": "臺中市清水區北寧里中山路306巷5號1樓",
   "Brand": "三陽",
   "Lat": 24.273878,
   "Lon": 120.577857
 },
 {
   "Title": "鑫輪車業行",
   "Tel": "04-26271949",
   "Address": "臺中市清水區南社里鰲峰路373號1樓",
   "Brand": "三陽",
   "Lat": 24.2665758,
   "Lon": 120.5586153
 },
 {
   "Title": "昌平車行",
   "Tel": "04-25328736",
   "Address": "臺中市潭子區潭秀里中山路二段508號",
   "Brand": "三陽",
   "Lat": 24.2169965,
   "Lon": 120.7056476
 },
 {
   "Title": "侑輪機車行",
   "Tel": "04-25323431",
   "Address": "臺中市潭子區潭秀里中山路二段532號",
   "Brand": "山葉",
   "Lat": 24.2169965,
   "Lon": 120.7056476
 },
 {
   "Title": "益新機車行",
   "Tel": "04-25327270",
   "Address": "臺中市潭子區潭秀里中山路二段522號",
   "Brand": "山葉",
   "Lat": 24.2169965,
   "Lon": 120.7056476
 },
 {
   "Title": "正全宏輪業行",
   "Tel": "04-25368084",
   "Address": "臺中市潭子區嘉仁里光陽路226號1樓",
   "Brand": "山葉",
   "Lat": 24.214802,
   "Lon": 120.7105064
 },
 {
   "Title": "三發機車行",
   "Tel": "04-25362199",
   "Address": "臺中市潭子區栗林里祥和路126號",
   "Brand": "三陽",
   "Lat": 24.2297354,
   "Lon": 120.7110499
 },
 {
   "Title": "國洲機車行",
   "Tel": "04-25373336",
   "Address": "臺中市潭子區栗林里祥和路177號1樓",
   "Brand": "山葉",
   "Lat": 24.2297365,
   "Lon": 120.7106835
 },
 {
   "Title": "崑崙車行",
   "Tel": "04-25325817",
   "Address": "臺中市潭子區東寶里大豐路二段9號1樓",
   "Brand": "三陽",
   "Lat": 24.2163789,
   "Lon": 120.6912766
 },
 {
   "Title": "源通機車行",
   "Tel": "04-25350400",
   "Address": "臺中市潭子區潭陽里圓通南路199號1樓",
   "Brand": "光陽",
   "Lat": 24.2071625,
   "Lon": 120.704353
 },
 {
   "Title": "永新機車行",
   "Tel": "04-25323580",
   "Address": "臺中市潭子區甘蔗里潭興路三段128號1樓",
   "Brand": "光陽",
   "Lat": 24.2116798,
   "Lon": 120.7007995
 },
 {
   "Title": "江龍機車行",
   "Tel": "04-26352647",
   "Address": "臺中市龍井區龍崗里沙田路四段598巷3號1樓",
   "Brand": "光陽",
   "Lat": 24.1745149,
   "Lon": 120.543543
 },
 {
   "Title": "合順機車行",
   "Tel": "04-26321056",
   "Address": "臺中市龍井區新東里新興路42號1樓",
   "Brand": "三陽",
   "Lat": 24.1814356,
   "Lon": 120.5872199
 },
 {
   "Title": "承旺機車行",
   "Tel": "04-26319040",
   "Address": "臺中市龍井區新東里新興路51之3號",
   "Brand": "光陽",
   "Lat": 24.181554,
   "Lon": 120.5864505
 },
 {
   "Title": "永達機車行",
   "Tel": "04-25238069",
   "Address": "臺中市豐原區社皮里大豐路五段465號",
   "Brand": "三陽",
   "Lat": 24.2475933,
   "Lon": 120.6991381
 },
 {
   "Title": "毅泰輪業行",
   "Tel": "04-25223538",
   "Address": "臺中市豐原區豐西里三豐路21號",
   "Brand": "三陽",
   "Lat": 24.2520805,
   "Lon": 120.7152164
 },
 {
   "Title": "東光車業有限公司",
   "Tel": "04-25154255",
   "Address": "臺中市豐原區社皮里成功路306號1樓",
   "Brand": "光陽",
   "Lat": 24.24805,
   "Lon": 120.706741
 },
 {
   "Title": "金瓏機車行",
   "Tel": "04-25224680",
   "Address": "臺中市豐原區西湳里三豐路783號1樓",
   "Brand": "光陽",
   "Lat": 24.267032,
   "Lon": 120.72043
 },
 {
   "Title": "大春機車行",
   "Tel": "04-25268503",
   "Address": "臺中市豐原區東勢里中山路382號",
   "Brand": "光陽",
   "Lat": 24.2463787,
   "Lon": 120.7149567
 },
 {
   "Title": "東平機車行",
   "Tel": "04-25243600",
   "Address": "臺中市豐原區圳寮里中山路579號",
   "Brand": "山葉",
   "Lat": 24.255451,
   "Lon": 120.713004
 },
 {
   "Title": "定成機車零件廠",
   "Tel": "04-25228727",
   "Address": "臺中市豐原區南村里水源路305號",
   "Brand": "光陽",
   "Lat": 24.2557167,
   "Lon": 120.7374908
 },
 {
   "Title": "茂盛工業社",
   "Tel": "04-25261855",
   "Address": "臺中市豐原區西安里西勢路160號",
   "Brand": "山葉",
   "Lat": 24.2445622,
   "Lon": 120.7074514
 },
 {
   "Title": "祥興機車行",
   "Tel": "04-25272391",
   "Address": "臺中市豐原區圳寮里圓環北路一段30號1樓",
   "Brand": "光陽",
   "Lat": 24.2556573,
   "Lon": 120.7134718
 },
 {
   "Title": "正興機車行",
   "Tel": "04-25232675",
   "Address": "臺中市豐原區圓環東路351號1樓",
   "Brand": "三陽",
   "Lat": 24.2453272,
   "Lon": 120.7241368
 },
 {
   "Title": "綸泰企業(股)公司豐原分公司",
   "Tel": "04-25240756",
   "Address": "臺中市豐原區圓環南路239號1樓",
   "Brand": "山葉",
   "Lat": 24.2498366,
   "Lon": 120.7089643
 },
 {
   "Title": "偉昌機車行",
   "Tel": "04-25241398",
   "Address": "臺中市豐原區中陽里豐陽路58號1樓",
   "Brand": "三陽",
   "Lat": 24.2505029,
   "Lon": 120.7227309
 },
 {
   "Title": "源龍機車行",
   "Tel": "04-25372222",
   "Address": "臺中市豐原區鎌村里鎌村路561號1樓",
   "Brand": "光陽",
   "Lat": 24.223897,
   "Lon": 120.724489
 },
 {
   "Title": "長益車業有限公司",
   "Tel": "04-23397115",
   "Address": "臺中市霧峰區中正路606號1樓",
   "Brand": "光陽",
   "Lat": 24.0462345,
   "Lon": 120.6924896
 },
 {
   "Title": "玉豐機車行",
   "Tel": "04-23300928",
   "Address": "臺中市霧峰區甲寅里中正路1179號1樓",
   "Brand": "光陽",
   "Lat": 24.0712782,
   "Lon": 120.6993737
 },
 {
   "Title": "勝鴻車業行",
   "Tel": "04-25361488",
   "Address": "臺中市潭子區潭陽里復興路二段114號1樓",
   "Brand": "光陽",
   "Lat": 24.2096585,
   "Lon": 120.7070651
 },
 {
   "Title": "見來機車行",
   "Tel": "04-26628734",
   "Address": "臺中市沙鹿區興仁里沙田路132號1樓",
   "Brand": "山葉",
   "Lat": 24.2359835,
   "Lon": 120.559378
 },
 {
   "Title": "大勝機車行",
   "Tel": "04-22780762",
   "Address": "臺中市大里區立德里立仁路158號",
   "Brand": "三陽",
   "Lat": 24.1074131,
   "Lon": 120.7035702
 },
 {
   "Title": "懿宏機車有限公司",
   "Tel": "04-24854199",
   "Address": "臺中市大里區內新里益民路一段209號1樓",
   "Brand": "山葉",
   "Lat": 24.1065214,
   "Lon": 120.6923378
 },
 {
   "Title": "建長機車行",
   "Tel": "04-25811165",
   "Address": "臺中市新社區大南里中和街二段298號1樓",
   "Brand": "三陽",
   "Lat": 24.2284081,
   "Lon": 120.7989287
 },
 {
   "Title": "大維機車行",
   "Tel": "04-23337788",
   "Address": "臺中市霧峰區本堂里中正路767之7號1樓",
   "Brand": "無",
   "Lat": 24.0608847,
   "Lon": 120.6980985
 },
 {
   "Title": "文政機車行",
   "Tel": "04-25355119",
   "Address": "臺中市潭子區大豐里潭富路2段189號",
   "Brand": "三陽",
   "Lat": 24.2246524,
   "Lon": 120.6929199
 },
 {
   "Title": "永一機車行",
   "Tel": "04-26993798",
   "Address": "臺中市大肚區頂街里沙田路三段234號1樓",
   "Brand": "三陽",
   "Lat": 24.1592174,
   "Lon": 120.5437423
 }
]