[
 {
   "Title": "騎久樂車業有限公司",
   "Tel": "06-2567097",
   "Address": "臺南市安南區海佃路二段796號",
   "Brand": "光陽",
   "Lat": 23.0464044,
   "Lon": 120.1846
 },
 {
   "Title": "金谷機車有限公司",
   "Tel": "06-2141869",
   "Address": "臺南市東區大同路一段137號",
   "Brand": "光陽",
   "Lat": 22.9857228,
   "Lon": 120.2113258
 },
 {
   "Title": "新三宏車業行",
   "Tel": "06-2378761",
   "Address": "臺南市東區育樂街156-1號1樓",
   "Brand": "山葉",
   "Lat": 22.9955117,
   "Lon": 120.2146261
 },
 {
   "Title": "統宇車業有限公司",
   "Tel": "06-2511623",
   "Address": "臺南市北區公園路595-7號",
   "Brand": "山葉",
   "Lat": 23.0133594,
   "Lon": 120.2117705
 },
 {
   "Title": "龍忻車業有限公司",
   "Tel": "06-2684843",
   "Address": "臺南市南區大同路二段502號",
   "Brand": "山葉",
   "Lat": 22.972131,
   "Lon": 120.214534
 },
 {
   "Title": "茂發車業行",
   "Tel": "06-2621257",
   "Address": "臺南市南區明興路1350號",
   "Brand": "山葉",
   "Lat": 22.9226182,
   "Lon": 120.1845825
 },
 {
   "Title": "金益車業有限公司",
   "Tel": "06-2633300",
   "Address": "臺南市南區新興路433號",
   "Brand": "山葉",
   "Lat": 22.9750418,
   "Lon": 120.189968
 },
 {
   "Title": "三億車業行",
   "Tel": "06-2238377",
   "Address": "臺南市中西區金華路四段68號1、2樓",
   "Brand": "山葉",
   "Lat": 22.9976683,
   "Lon": 120.194641
 },
 {
   "Title": "永豐機車行",
   "Tel": "06-3556529",
   "Address": "臺南市安南區安和路五段159號",
   "Brand": "三陽",
   "Lat": 23.066107,
   "Lon": 120.2177916
 },
 {
   "Title": "展暉機車行",
   "Tel": "06-2477720",
   "Address": "臺南市安南區本原街三段137號",
   "Brand": "三陽",
   "Lat": 23.0526527,
   "Lon": 120.1759961
 },
 {
   "Title": "新明弘機車行",
   "Tel": "06-2591568",
   "Address": "臺南市安南區海佃路一段217號1樓",
   "Brand": "三陽",
   "Lat": 23.0251043,
   "Lon": 120.1911996
 },
 {
   "Title": "東慶機車行",
   "Tel": "06-2672730",
   "Address": "臺南市東區崇德三十街88號1樓",
   "Brand": "山葉",
   "Lat": 22.961025,
   "Lon": 120.229829
 },
 {
   "Title": "龍達車業行",
   "Tel": "06-2232552",
   "Address": "臺南市中西區府前路一段164號1樓",
   "Brand": "山葉",
   "Lat": 22.9892124,
   "Lon": 120.2068558
 },
 {
   "Title": "見昌車業行",
   "Tel": "06-2204058",
   "Address": "臺南市北區公園路281號1樓",
   "Brand": "光陽",
   "Lat": 23.0015663,
   "Lon": 120.2088851
 },
 {
   "Title": "國勝車業有限公司",
   "Tel": "06-2610668",
   "Address": "臺南市南區金華路二段78號",
   "Brand": "光陽",
   "Lat": 22.9777082,
   "Lon": 120.1912761
 },
 {
   "Title": "銘慶車業行",
   "Tel": "06-2680108",
   "Address": "臺南市東區中華東路二段133巷26號1樓",
   "Brand": "光陽",
   "Lat": 22.9851068,
   "Lon": 120.2337557
 },
 {
   "Title": "國龍機車行",
   "Tel": "06-2521527",
   "Address": "臺南市北區北門路2段598號1樓",
   "Brand": "光陽",
   "Lat": 23.0110875,
   "Lon": 120.2163925
 },
 {
   "Title": "東昌機車有限公司",
   "Tel": "06-2259673",
   "Address": "臺南市中西區中山路87號1樓",
   "Brand": "三陽",
   "Lat": 22.9942004,
   "Lon": 120.2072921
 },
 {
   "Title": "振盛機車行",
   "Tel": "06-2957015",
   "Address": "臺南市安平區慶平路429號1樓",
   "Brand": "三陽",
   "Lat": 22.9967173,
   "Lon": 120.1751538
 },
 {
   "Title": "勁揚車業有限公司",
   "Tel": "06-2269977",
   "Address": "臺南市北區忠義路3段43號1樓",
   "Brand": "光陽",
   "Lat": 22.9995458,
   "Lon": 120.2052273
 },
 {
   "Title": "漢達車業行",
   "Tel": "06-2137227",
   "Address": "臺南市中區南門路183號1樓",
   "Brand": "光陽",
   "Lat": 22.9778304,
   "Lon": 120.2035347
 },
 {
   "Title": "福吉實業股份有限公司",
   "Tel": "06-2365293",
   "Address": "臺南市北區東興里小東路297-3號",
   "Brand": "三陽",
   "Lat": 22.9993949,
   "Lon": 120.2301839
 },
 {
   "Title": "鑫龍車業有限公司",
   "Tel": "06-2233588",
   "Address": "臺南市北區公園路287號1樓",
   "Brand": "三陽",
   "Lat": 23.0016927,
   "Lon": 120.2089615
 },
 {
   "Title": "擎匠機車行",
   "Tel": "06-2583331",
   "Address": "臺南市北區文元里文賢路1164號1樓",
   "Brand": "三陽",
   "Lat": 23.0169798,
   "Lon": 120.1933385
 },
 {
   "Title": "群芳機車行",
   "Tel": "06-2211731",
   "Address": "臺南市安平區安平路666號1樓",
   "Brand": "光陽",
   "Lat": 22.9993633,
   "Lon": 120.1672116
 },
 {
   "Title": "安成車業有限公司",
   "Tel": "06-2509979",
   "Address": "臺南市安平區安平路84號",
   "Brand": "光陽",
   "Lat": 22.9982246,
   "Lon": 120.184522
 },
 {
   "Title": "聯興機車行",
   "Tel": "06-2567628",
   "Address": "臺南市安南區公學路四段426號1樓",
   "Brand": "三陽",
   "Lat": 23.0650906,
   "Lon": 120.1708993
 },
 {
   "Title": "尚昌機車有限公司",
   "Tel": "06-3557789",
   "Address": "臺南市安南區安和路三段64號",
   "Brand": "光陽",
   "Lat": 23.0448901,
   "Lon": 120.217451
 },
 {
   "Title": "慶川機車行",
   "Tel": "06-2682009",
   "Address": "臺南市東區東門路二段254號1樓",
   "Brand": "山葉",
   "Lat": 22.9844478,
   "Lon": 120.2247269
 },
 {
   "Title": "慶發機車行",
   "Tel": "06-2688773",
   "Address": "臺南市東區崇明路3號1樓",
   "Brand": "三陽",
   "Lat": 22.982002,
   "Lon": 120.216348
 },
 {
   "Title": "億峰車業股份有限公司",
   "Tel": "06-2693911",
   "Address": "臺南市東區仁和路66號1樓",
   "Brand": "光陽",
   "Lat": 22.9762862,
   "Lon": 120.230271
 },
 {
   "Title": "興東發機車行",
   "Tel": "06-2964116",
   "Address": "臺南市南區明興路1283號1樓",
   "Brand": "光陽",
   "Lat": 22.9233965,
   "Lon": 120.1849483
 },
 {
   "Title": "泉利機車行",
   "Tel": "06-2284191",
   "Address": "臺南市南區建南路87號之5(1樓)",
   "Brand": "三陽",
   "Lat": 22.9847914,
   "Lon": 120.1922305
 },
 {
   "Title": "銘進車業",
   "Tel": "06-2644282",
   "Address": "臺南市南區健康路一段381號1樓",
   "Brand": "光陽",
   "Lat": 22.981367,
   "Lon": 120.1994143
 },
 {
   "Title": "貫德車業行",
   "Tel": "06-2588636",
   "Address": "臺南市北區大和路211號1樓",
   "Brand": "三陽",
   "Lat": 23.013141,
   "Lon": 120.1898194
 },
 {
   "Title": "六德開發股份有限公司",
   "Tel": "06-2355717",
   "Address": "臺南市北區小東路281號1樓",
   "Brand": "台鈴(原摩特97年1月轉)",
   "Lat": 22.9997814,
   "Lon": 120.2290642
 },
 {
   "Title": "啟成車業有限公司",
   "Tel": "06-2521037",
   "Address": "臺南市北區公園路1004號1樓",
   "Brand": "光陽",
   "Lat": 23.0169886,
   "Lon": 120.2150983
 },
 {
   "Title": "金初機車行",
   "Tel": "06-2269351",
   "Address": "臺南市北區成功路80號1樓",
   "Brand": "山葉",
   "Lat": 22.9982473,
   "Lon": 120.2063069
 },
 {
   "Title": "三安泰車業有限公司",
   "Tel": "06-2810104",
   "Address": "臺南市北區西門路四段362號1樓",
   "Brand": "光陽",
   "Lat": 23.0141266,
   "Lon": 120.2098265
 },
 {
   "Title": "明和機車行",
   "Tel": "06-2616342",
   "Address": "臺南市南區夏林路212號1樓",
   "Brand": "三陽",
   "Lat": 22.9796481,
   "Lon": 120.194791
 },
 {
   "Title": "瑞豐車業",
   "Tel": "06-3552765",
   "Address": "臺南市安南區新順里安和路3段109號1樓",
   "Brand": "山葉",
   "Lat": 23.0462127,
   "Lon": 120.2176241
 },
 {
   "Title": "佑晟機車行",
   "Tel": "06-2564231",
   "Address": "臺南市安南區長溪路一段1號1樓",
   "Brand": "台鈴",
   "Lat": 23.0409673,
   "Lon": 120.2046647
 },
 {
   "Title": "和昌機車行",
   "Tel": "06-2294447",
   "Address": "臺南市中西區忠義路2段136號1樓",
   "Brand": "山葉",
   "Lat": 22.995511,
   "Lon": 120.2039013
 },
 {
   "Title": "永信機車行",
   "Tel": "06-2906369",
   "Address": "臺南市東區崇德路130號1樓",
   "Brand": "山葉",
   "Lat": 22.979496,
   "Lon": 120.2194654
 },
 {
   "Title": "和順機車行",
   "Tel": "06-2378911",
   "Address": "臺南市東區東安路41號1樓",
   "Brand": "三陽",
   "Lat": 22.9917339,
   "Lon": 120.2260931
 },
 {
   "Title": "通達機車行",
   "Tel": "06-2359967",
   "Address": "臺南市東區東門路二段28號1樓",
   "Brand": "山葉",
   "Lat": 22.9862834,
   "Lon": 120.2194145
 },
 {
   "Title": "巨新車業有限公司",
   "Tel": "06-2369888",
   "Address": "臺南市東區東門路二段35號1樓",
   "Brand": "光陽",
   "Lat": 22.9865122,
   "Lon": 120.2197348
 },
 {
   "Title": "信國機車行",
   "Tel": "06-2382155",
   "Address": "臺南市東區東興路258號1樓",
   "Brand": "山葉",
   "Lat": 22.9950392,
   "Lon": 120.2298017
 },
 {
   "Title": "統利機車行",
   "Tel": "06-2355716",
   "Address": "臺南市東區林森路二段194號1樓",
   "Brand": "三陽",
   "Lat": 22.9895881,
   "Lon": 120.22431
 },
 {
   "Title": "炤輝機車行",
   "Tel": "06-2603628",
   "Address": "臺南市東區崇德路767號1樓",
   "Brand": "台鈴(原三陽97年1月轉)",
   "Lat": 22.9671731,
   "Lon": 120.227769
 },
 {
   "Title": "聖興機車行",
   "Tel": "06-3354069",
   "Address": "臺南市東區富農街一段131巷26號1樓",
   "Brand": "台鈴",
   "Lat": 22.982133,
   "Lon": 120.233853
 },
 {
   "Title": "協峰機車行",
   "Tel": "06-2683232",
   "Address": "臺南市東區裕農路618號1樓",
   "Brand": "光陽",
   "Lat": 22.9884984,
   "Lon": 120.235462
 },
 {
   "Title": "嘉亮機車行",
   "Tel": "06-2688256",
   "Address": "臺南市東區生產路297巷22號1樓",
   "Brand": "三陽",
   "Lat": 22.965667,
   "Lon": 120.229714
 },
 {
   "Title": "駿一機車行",
   "Tel": "06-2621580",
   "Address": "臺南市南區明興路1024號1樓",
   "Brand": "台鈴",
   "Lat": 22.9308475,
   "Lon": 120.1832997
 },
 {
   "Title": "大金益車館",
   "Tel": "06-2610909",
   "Address": "臺南市南區金華路一段399號1樓",
   "Brand": "山葉",
   "Lat": 22.9703351,
   "Lon": 120.1902633
 },
 {
   "Title": "浤安車業社",
   "Tel": "06-2643331",
   "Address": "臺南市南區永成路三段353號1樓",
   "Brand": "台鈴",
   "Lat": 22.9708611,
   "Lon": 120.1953334
 },
 {
   "Title": "金榮機車行",
   "Tel": "06-2649826",
   "Address": "臺南市南區金華路二段161號1樓",
   "Brand": "三陽",
   "Lat": 22.9810611,
   "Lon": 120.191184
 },
 {
   "Title": "通發機車行",
   "Tel": "06-2622403",
   "Address": "臺南市南區灣裡路385號1樓",
   "Brand": "三陽",
   "Lat": 22.9240202,
   "Lon": 120.1832785
 },
 {
   "Title": "大億車業行",
   "Tel": "06-2914333",
   "Address": "臺南市南區觀光城2號1樓",
   "Brand": "光陽",
   "Lat": 22.9751237,
   "Lon": 120.1876087
 },
 {
   "Title": "阿斌機車行",
   "Tel": "06-2581339",
   "Address": "臺南市安南區海佃里海佃路一段167號1樓",
   "Brand": "公會",
   "Lat": 23.0236326,
   "Lon": 120.1915172
 },
 {
   "Title": "慶原車業",
   "Tel": "06-2939003",
   "Address": "臺南市安平區慶平路163號",
   "Brand": "山葉",
   "Lat": 22.9970017,
   "Lon": 120.1805933
 },
 {
   "Title": "弘晟機車行",
   "Tel": "06-2951469",
   "Address": "臺南市安平區郡平路164號",
   "Brand": "光陽(原:三陽)",
   "Lat": 22.9892339,
   "Lon": 120.1681303
 },
 {
   "Title": "三信元機車行",
   "Tel": "06-2930832",
   "Address": "臺南市安平區府平路487號1樓",
   "Brand": "三陽",
   "Lat": 22.987127,
   "Lon": 120.1640476
 },
 {
   "Title": "專盛機車行",
   "Tel": "06-2266862",
   "Address": "臺南市中西區民權路三段305號",
   "Brand": "三陽",
   "Lat": 22.9978845,
   "Lon": 120.1913441
 },
 {
   "Title": "光隆車業行",
   "Tel": "06-2588170",
   "Address": "臺南市中西區民權路四段174號1樓",
   "Brand": "三陽",
   "Lat": 22.9993244,
   "Lon": 120.1814816
 },
 {
   "Title": "明春機車行",
   "Tel": "06-2551343",
   "Address": "臺南市安南區公學路二段221號1樓",
   "Brand": "三陽",
   "Lat": 23.0685512,
   "Lon": 120.1949731
 },
 {
   "Title": "金陽機車行",
   "Tel": "06-2571682",
   "Address": "臺南市安南區城西街一段48號1樓",
   "Brand": "三陽",
   "Lat": 23.0622826,
   "Lon": 120.128969
 },
 {
   "Title": "溪水車行",
   "Tel": "06-2571251",
   "Address": "臺南市安南區城北路157號",
   "Brand": "山葉",
   "Lat": 23.064976,
   "Lon": 120.1311356
 },
 {
   "Title": "進發機車行",
   "Tel": "06-3563560",
   "Address": "臺南市安南區安和路五段237號",
   "Brand": "山葉",
   "Lat": 23.0673462,
   "Lon": 120.2168892
 },
 {
   "Title": "晋暉機車行",
   "Tel": "06-3563617",
   "Address": "臺南市安南區安和路四段73號1樓",
   "Brand": "三陽",
   "Lat": 23.0520908,
   "Lon": 120.2186792
 },
 {
   "Title": "明宏機車行",
   "Tel": "06-2355056",
   "Address": "臺南市北區開元路354號",
   "Brand": "山葉",
   "Lat": 23.0097245,
   "Lon": 120.2243025
 },
 {
   "Title": "佳興機車行",
   "Tel": "06-2519789",
   "Address": "臺南市北區公園路387號1樓",
   "Brand": "三陽",
   "Lat": 23.0065606,
   "Lon": 120.2100032
 },
 {
   "Title": "上陽車業行",
   "Tel": "06-2466256",
   "Address": "臺南市安南區海佃路三段366號",
   "Brand": "光陽",
   "Lat": 23.0533516,
   "Lon": 120.1785957
 },
 {
   "Title": "建廷車業行",
   "Tel": "06-2566360",
   "Address": "臺南市安南區海佃路四段130號",
   "Brand": "山葉",
   "Lat": 23.0563897,
   "Lon": 120.1769643
 },
 {
   "Title": "富信機車行",
   "Tel": "06-2577188",
   "Address": "臺南市安南區安中路六段555號1樓",
   "Brand": "三陽",
   "Lat": 23.0617962,
   "Lon": 120.1303682
 },
 {
   "Title": "永揚機車行",
   "Tel": "06-2477887",
   "Address": "臺南市安南區安中路三段294號1樓",
   "Brand": "三陽",
   "Lat": 23.0488003,
   "Lon": 120.1766492
 },
 {
   "Title": "百吉冠機車行",
   "Tel": "06-2555500",
   "Address": "臺南市安南區同安路322巷42號1樓",
   "Brand": "三陽",
   "Lat": 23.042049,
   "Lon": 120.193263
 },
 {
   "Title": "大豪車業有限公司",
   "Tel": "06-2811838",
   "Address": "臺南市北區公園路595-10號",
   "Brand": "光陽",
   "Lat": 23.0135012,
   "Lon": 120.2119016
 },
 {
   "Title": "禾源機車行",
   "Tel": "06-2586029",
   "Address": "臺南市北區臨安路二段255之1號1樓",
   "Brand": "三陽",
   "Lat": 23.0044119,
   "Lon": 120.2010571
 },
 {
   "Title": "大展車業行",
   "Tel": "06-2149898",
   "Address": "臺南市中西區健康路一段70號1樓",
   "Brand": "三陽",
   "Lat": 22.981301,
   "Lon": 120.2099753
 },
 {
   "Title": "昇興機車行",
   "Tel": "06-2598025",
   "Address": "臺南市中西區文賢路164號1樓",
   "Brand": "三陽",
   "Lat": 23.0025588,
   "Lon": 120.1942993
 },
 {
   "Title": "燕龍機車行",
   "Tel": "06-2590274",
   "Address": "臺南市北區大港街134號1樓",
   "Brand": "三陽",
   "Lat": 23.0135879,
   "Lon": 120.1900047
 },
 {
   "Title": "鑫永興機車行",
   "Tel": "06-2919317",
   "Address": "臺南市南區尊南街28號",
   "Brand": "光陽",
   "Lat": 22.9752141,
   "Lon": 120.188621
 },
 {
   "Title": "鑫源機車行",
   "Tel": "06-2618561",
   "Address": "臺南市南區大成路二段190號1樓",
   "Brand": "三陽",
   "Lat": 22.9749967,
   "Lon": 120.1924792
 },
 {
   "Title": "信元機車行",
   "Tel": "06-2616523",
   "Address": "臺南市南區新都路471號1樓",
   "Brand": "三陽",
   "Lat": 22.9671107,
   "Lon": 120.191922
 },
 {
   "Title": "金振隆機車行",
   "Tel": "06-2625255",
   "Address": "臺南市南區明興路21號1樓",
   "Brand": "三陽",
   "Lat": 22.9604011,
   "Lon": 120.1887927
 },
 {
   "Title": "嘉陽機車行",
   "Tel": "06-2468080",
   "Address": "臺南市安南區海佃路二段387號1樓",
   "Brand": "三陽",
   "Lat": 23.0398716,
   "Lon": 120.1875083
 },
 {
   "Title": "德盈機車行",
   "Tel": "06-2376837",
   "Address": "臺南市北區開元路353號",
   "Brand": "三陽",
   "Lat": 23.0087534,
   "Lon": 120.2223858
 },
 {
   "Title": "鴻欣機車行",
   "Tel": "06-2370783",
   "Address": "臺南市北區開南街147號1樓",
   "Brand": "光陽",
   "Lat": 23.0055482,
   "Lon": 120.2258469
 },
 {
   "Title": "日升機車行",
   "Tel": "06-2359107",
   "Address": "臺南市東區裕農里東寧路478號1樓",
   "Brand": "三陽",
   "Lat": 22.9892649,
   "Lon": 120.229876
 },
 {
   "Title": "上錡車業有限公司",
   "Tel": "06-2606978",
   "Address": "臺南市東區中華東路二段125號1樓",
   "Brand": "其他",
   "Lat": 22.9855536,
   "Lon": 120.2335855
 },
 {
   "Title": "立揚車業行",
   "Tel": "06-2909598",
   "Address": "臺南市東區崇善里崇善路715號",
   "Brand": "光陽",
   "Lat": 22.969498,
   "Lon": 120.231173
 },
 {
   "Title": "萬里達機車行",
   "Tel": "06-2977056",
   "Address": "臺南市安平區華平里華平路497號1樓",
   "Brand": "山葉",
   "Lat": 22.9934134,
   "Lon": 120.1753381
 },
 {
   "Title": "福龍機車行",
   "Tel": "06-2568114",
   "Address": "臺南市安南區本原街一段114號1樓",
   "Brand": "三陽",
   "Lat": 23.051021,
   "Lon": 120.199359
 },
 {
   "Title": "騏順機車行",
   "Tel": "06-2557232",
   "Address": "臺南市安南區安中路一段701巷13號",
   "Brand": "三陽",
   "Lat": 23.0421322,
   "Lon": 120.1957866
 },
 {
   "Title": "鈺琳機車行",
   "Tel": "06-6623859",
   "Address": "臺南市後壁區菁豊里3之8號",
   "Brand": "其他",
   "Lat": 23.3793033,
   "Lon": 120.3579632
 },
 {
   "Title": "永昌機車行",
   "Tel": "06-6862607",
   "Address": "臺南市東山區青山里青山路185號1樓",
   "Brand": "三陽",
   "Lat": 23.277521,
   "Lon": 120.484692
 },
 {
   "Title": "東大阪兩輪車業有限公司龍崎營業處",
   "Tel": "06-3121281",
   "Address": "臺南市永康區小東路601號",
   "Brand": "山葉",
   "Lat": 22.998762,
   "Lon": 120.23744
 },
 {
   "Title": "寬檍機車行",
   "Tel": "06-2493846",
   "Address": "臺南市仁德區仁德里文華路三段497號1樓",
   "Brand": "光陽",
   "Lat": 22.9720186,
   "Lon": 120.2435254
 },
 {
   "Title": "俊男機車行",
   "Tel": "06-6992678",
   "Address": "臺南市六甲區中正路606號1樓",
   "Brand": "光陽",
   "Lat": 23.2325062,
   "Lon": 120.3517456
 },
 {
   "Title": "信和機車行",
   "Tel": "06-2598061",
   "Address": "臺南市北區大豐里大興街353號1樓",
   "Brand": "山葉",
   "Lat": 23.0101304,
   "Lon": 120.1856795
 },
 {
   "Title": "明弘機車行",
   "Tel": "06-2585588",
   "Address": "臺南市北區大豐里武聖路74號1樓",
   "Brand": "三陽",
   "Lat": 23.0058178,
   "Lon": 120.1916941
 },
 {
   "Title": "冠倫車業行",
   "Tel": "06-2516728",
   "Address": "臺南市北區成德里北成路480 、482號1樓",
   "Brand": "山葉",
   "Lat": 23.0186463,
   "Lon": 120.2001518
 },
 {
   "Title": "鋐安車業",
   "Tel": "06-2026683",
   "Address": "臺南市永康區中正路178號1樓",
   "Brand": "光陽",
   "Lat": 23.0309599,
   "Lon": 120.2530721
 },
 {
   "Title": "駿宏機車行",
   "Tel": "06-2938628",
   "Address": "臺南市安平區華平里平通路455號1樓",
   "Brand": "三陽",
   "Lat": 22.9931227,
   "Lon": 120.1733819
 },
 {
   "Title": "精工車業",
   "Tel": "06-2933938",
   "Address": "臺南市安平區國平里建平七街673號1樓",
   "Brand": "光陽",
   "Lat": 22.9898249,
   "Lon": 120.1698199
 },
 {
   "Title": "源興機車行",
   "Tel": "06-7227265",
   "Address": "臺南市佳里區忠孝路122號1樓",
   "Brand": "三陽",
   "Lat": 23.1684273,
   "Lon": 120.1721713
 },
 {
   "Title": "鋐昇機車行",
   "Tel": "06-3353699",
   "Address": "臺南市東區崇成里崇道路108號1樓",
   "Brand": "光陽",
   "Lat": 22.9719331,
   "Lon": 120.228862
 },
 {
   "Title": "全憶機車行",
   "Tel": "06-2681769",
   "Address": "臺南市東區虎尾里富農街一段24號1樓",
   "Brand": "光陽",
   "Lat": 22.982226,
   "Lon": 120.234141
 },
 {
   "Title": "宏輝車業行",
   "Tel": "06-2088247",
   "Address": "臺南市東區東光里東平路3號1樓",
   "Brand": "三陽",
   "Lat": 22.9958851,
   "Lon": 120.226748
 },
 {
   "Title": "明陽車業",
   "Tel": "06-2644833",
   "Address": "臺南市南區金華里健康路二段371號1樓",
   "Brand": "其他",
   "Lat": 22.9816971,
   "Lon": 120.187282
 },
 {
   "Title": "聖昌機車行",
   "Tel": "06-2631247",
   "Address": "臺南市南區南華里金華路一段37號1樓",
   "Brand": "山葉",
   "Lat": 22.9620346,
   "Lon": 120.1891567
 },
 {
   "Title": "長欣機車行",
   "Tel": "06-6622171",
   "Address": "臺南市後壁區頂長里〈長短樹〉59-12號",
   "Brand": "三陽",
   "Lat": 23.368156,
   "Lon": 120.32964
 },
 {
   "Title": "孟輝機車行",
   "Tel": "06-7942231",
   "Address": "臺南市將軍區長榮里長榮22號",
   "Brand": "光陽",
   "Lat": 23.1952248,
   "Lon": 120.1603536
 },
 {
   "Title": "全芳機車有限公司",
   "Tel": "06-6333076",
   "Address": "臺南市新營區中山路175號",
   "Brand": "三陽",
   "Lat": 23.303511,
   "Lon": 120.315592
 },
 {
   "Title": "偉成機車行",
   "Tel": "06-6323627",
   "Address": "臺南市新營區興業里中山路109之1號1樓",
   "Brand": "光陽",
   "Lat": 23.305363,
   "Lon": 120.319467
 },
 {
   "Title": "勝山車業行",
   "Tel": "06-6322912",
   "Address": "臺南市新營區中山路161之1號1樓、161之2號1樓、163號1樓",
   "Brand": "山葉",
   "Lat": 23.303826,
   "Lon": 120.31605
 },
 {
   "Title": "益豐機車行",
   "Tel": "06-2721051",
   "Address": "臺南市永康區大灣路481號1樓",
   "Brand": "山葉",
   "Lat": 23.0016461,
   "Lon": 120.2648147
 },
 {
   "Title": "健宏機車行",
   "Tel": "06-2322276",
   "Address": "臺南市永康區永大路二段913號1樓",
   "Brand": "山葉",
   "Lat": 23.023375,
   "Lon": 120.260768
 },
 {
   "Title": "進大車行",
   "Tel": "06-2321749",
   "Address": "臺南市永康區中山南路750號1、2樓",
   "Brand": "三陽",
   "Lat": 23.020496,
   "Lon": 120.245816
 },
 {
   "Title": "忠益車業有限公司",
   "Tel": "06-2711111",
   "Address": "臺南市歸仁區大廟里保大路三段219號1樓",
   "Brand": "光陽",
   "Lat": 22.9974194,
   "Lon": 120.2769404
 },
 {
   "Title": "信皇車業有限公司",
   "Tel": "06-2301325",
   "Address": "臺南市歸仁區中山路二段22號",
   "Brand": "山葉",
   "Lat": 22.9668933,
   "Lon": 120.2933517
 },
 {
   "Title": "奇益機車行",
   "Tel": "06-2304127",
   "Address": "臺南市歸仁區中山路二段169號1樓",
   "Brand": "光陽",
   "Lat": 22.9670878,
   "Lon": 120.2905004
 },
 {
   "Title": "聖展機車行",
   "Tel": "06-2712436",
   "Address": "臺南市歸仁區大廟里和順路二段370號1至2樓",
   "Brand": "光陽",
   "Lat": 22.9919147,
   "Lon": 120.2741697
 },
 {
   "Title": "大安全機車行",
   "Tel": "06-2794360",
   "Address": "臺南市仁德區中正路二段455號1樓",
   "Brand": "山葉",
   "Lat": 22.9548609,
   "Lon": 120.2523648
 },
 {
   "Title": "升麓機車行",
   "Tel": "06-2660022",
   "Address": "臺南市仁德區中正路一段716號1樓",
   "Brand": "山葉",
   "Lat": 22.9388363,
   "Lon": 120.2482617
 },
 {
   "Title": "盛利車業有限公司",
   "Tel": "06-7835818",
   "Address": "臺南市學甲區華宗路418號1樓",
   "Brand": "三陽",
   "Lat": 23.2336551,
   "Lon": 120.1825545
 },
 {
   "Title": "欣欣機車行",
   "Tel": "06-7222654",
   "Address": "臺南市佳里區延平路300號1樓",
   "Brand": "三陽",
   "Lat": 23.1610175,
   "Lon": 120.1784765
 },
 {
   "Title": "鋐昌車業行",
   "Tel": "06-7222326",
   "Address": "臺南市佳里區和平街151號1樓",
   "Brand": "山葉",
   "Lat": 23.1621308,
   "Lon": 120.1757233
 },
 {
   "Title": "孟進車業行",
   "Tel": "06-5907467",
   "Address": "臺南市新化區觀音里中山路260號1樓",
   "Brand": "山葉",
   "Lat": 23.0360569,
   "Lon": 120.3075318
 },
 {
   "Title": "太子機車行",
   "Tel": "06-5985521",
   "Address": "臺南市新化區中正路635號",
   "Brand": "三陽",
   "Lat": 23.0404237,
   "Lon": 120.3062482
 },
 {
   "Title": "上益車業",
   "Tel": "06-5991874",
   "Address": "臺南市新市區光華街128號",
   "Brand": "光陽",
   "Lat": 23.0749935,
   "Lon": 120.2965209
 },
 {
   "Title": "永裕機車行",
   "Tel": "06-5993427",
   "Address": "臺南市新市區新市里復興路70號",
   "Brand": "三陽",
   "Lat": 23.0816916,
   "Lon": 120.2954216
 },
 {
   "Title": "勝興機車行",
   "Tel": "06-6893156",
   "Address": "臺南市下營區下營里中正北路45號1樓",
   "Brand": "三陽",
   "Lat": 23.2359676,
   "Lon": 120.2624026
 },
 {
   "Title": "輝隆機車行",
   "Tel": "06-6792515",
   "Address": "臺南市下營區新興里中山路一段147號1樓",
   "Brand": "光陽",
   "Lat": 23.2356721,
   "Lon": 120.2640637
 },
 {
   "Title": "成男車業行",
   "Tel": "06-5837322",
   "Address": "臺南市善化區中正路440之1號1樓",
   "Brand": "山葉",
   "Lat": 23.1306391,
   "Lon": 120.2939979
 },
 {
   "Title": "慶濠機車行",
   "Tel": "06-5722005",
   "Address": "臺南市麻豆區中山路32號1樓",
   "Brand": "三陽",
   "Lat": 23.1838552,
   "Lon": 120.2475686
 },
 {
   "Title": "建聰機車行",
   "Tel": "06-5721536",
   "Address": "臺南市麻豆區三民路10號",
   "Brand": "光陽",
   "Lat": 23.1834351,
   "Lon": 120.2457344
 },
 {
   "Title": "政忠車業行",
   "Tel": "06-6521506",
   "Address": "臺南市鹽水區中正路101號1樓",
   "Brand": "山葉",
   "Lat": 23.3183218,
   "Lon": 120.2675589
 },
 {
   "Title": "通發車業行",
   "Tel": "06-5952411",
   "Address": "臺南市關廟區中山路二段1 號",
   "Brand": "山葉",
   "Lat": 22.9666334,
   "Lon": 120.2937473
 },
 {
   "Title": "省南機車行",
   "Tel": "06-5761324",
   "Address": "臺南市大內區大內里內庄2之7號",
   "Brand": "光陽",
   "Lat": 23.1195988,
   "Lon": 120.3622866
 },
 {
   "Title": "嘉南車業有限公司",
   "Tel": "06-2662772",
   "Address": "臺南市仁德區二行里二行一路173號",
   "Brand": "光陽",
   "Lat": 22.9196972,
   "Lon": 120.225111
 },
 {
   "Title": "星威機車行",
   "Tel": "06-2700824",
   "Address": "臺南市仁德區仁義里中山路332號",
   "Brand": "山葉",
   "Lat": 22.9709567,
   "Lon": 120.2582208
 },
 {
   "Title": "新力機車行",
   "Tel": "06-2792559",
   "Address": "臺南市仁德區新田里中正路二段452號",
   "Brand": "三陽",
   "Lat": 22.9537686,
   "Lon": 120.2519776
 },
 {
   "Title": "永豐機車行",
   "Tel": "06-2724745",
   "Address": "臺南市永康區南灣里大灣路720號1樓",
   "Brand": "山葉",
   "Lat": 23.0006963,
   "Lon": 120.2614337
 },
 {
   "Title": "建德機車行",
   "Tel": "06-2329189",
   "Address": "臺南市永康區安康里中山南路89號1樓",
   "Brand": "山葉",
   "Lat": 23.0126756,
   "Lon": 120.2281396
 },
 {
   "Title": "志成機車行",
   "Tel": "06-3132468",
   "Address": "臺南市永康區中興里中興街47號1樓",
   "Brand": "台鈴",
   "Lat": 23.006692,
   "Lon": 120.239765
 },
 {
   "Title": "宏泰車業",
   "Tel": "06-6856968",
   "Address": "臺南市白河區永安里三民路487號1樓",
   "Brand": "光陽",
   "Lat": 23.3528017,
   "Lon": 120.4114876
 },
 {
   "Title": "大德機車行",
   "Tel": "06-6876029",
   "Address": "臺南市白河區詔安里詔安厝24之3號1樓",
   "Brand": "山葉",
   "Lat": 23.3946665,
   "Lon": 120.4101793
 },
 {
   "Title": "慶隆機車行",
   "Tel": "06-5922179",
   "Address": "臺南市安定區港尾里港子尾54之2號1樓",
   "Brand": "光陽",
   "Lat": 23.105891,
   "Lon": 120.232115
 },
 {
   "Title": "久煌機車行",
   "Tel": "06-5922218",
   "Address": "臺南市安定區蘇厝里 453之2號1樓",
   "Brand": "光陽",
   "Lat": 23.1245564,
   "Lon": 120.2498305
 },
 {
   "Title": "建東機車行",
   "Tel": "06-5791249",
   "Address": "臺南市官田區隆田里中山路2段7號1樓",
   "Brand": "光陽",
   "Lat": 23.1950925,
   "Lon": 120.3047439
 },
 {
   "Title": "明華機車行",
   "Tel": "06-6223579",
   "Address": "臺南市柳營區光福里柳營路一段946號1樓",
   "Brand": "三陽",
   "Lat": 23.2682561,
   "Lon": 120.3134097
 },
 {
   "Title": "華隆機車行",
   "Tel": "06-5838246",
   "Address": "臺南市善化區光文里中山路180號1樓",
   "Brand": "光陽",
   "Lat": 23.1328309,
   "Lon": 120.300667
 },
 {
   "Title": "龍益機車行",
   "Tel": "06-5904817",
   "Address": "臺南市新化區清水里忠孝路141號",
   "Brand": "光陽",
   "Lat": 23.0377134,
   "Lon": 120.3041369
 },
 {
   "Title": "芳茂車業行",
   "Tel": "06-6521108",
   "Address": "臺南市鹽水區橋南里月津路33號1樓",
   "Brand": "三陽",
   "Lat": 23.3155083,
   "Lon": 120.2664923
 },
 {
   "Title": "慶昇機車行",
   "Tel": "06-6523362",
   "Address": "臺南市鹽水區水秀里朝琴路119號",
   "Brand": "台鈴",
   "Lat": 23.3219404,
   "Lon": 120.2703236
 },
 {
   "Title": "呈祥機車行",
   "Tel": "06-7872165",
   "Address": "臺南市七股區大埕里大埕297號1樓",
   "Brand": "光陽",
   "Lat": 23.1453614,
   "Lon": 120.144496
 },
 {
   "Title": "良興機車行",
   "Tel": "06-6893150",
   "Address": "臺南市下營區中營里中營1210號",
   "Brand": "山葉",
   "Lat": 23.219245,
   "Lon": 120.27567
 },
 {
   "Title": "慶大機車行",
   "Tel": "06-5763588",
   "Address": "臺南市大內區石城里石子瀨122之18號1樓",
   "Brand": "山葉",
   "Lat": 23.1193553,
   "Lon": 120.3507571
 },
 {
   "Title": "義成機車行",
   "Tel": "06-2709002",
   "Address": "臺南市仁德區仁義里中山路603號1樓",
   "Brand": "三陽",
   "Lat": 22.971525,
   "Lon": 120.252028
 },
 {
   "Title": "坤興機車行",
   "Tel": "06-6982647",
   "Address": "臺南市六甲區水林里中山路238號1樓",
   "Brand": "三陽",
   "Lat": 23.2320867,
   "Lon": 120.3458148
 },
 {
   "Title": "永隆機車行",
   "Tel": "06-7862435",
   "Address": "臺南市北門區永隆里北門2號1樓",
   "Brand": "三陽",
   "Lat": 23.2693849,
   "Lon": 120.1264127
 },
 {
   "Title": "金日興車業有限公司",
   "Tel": "06-2327059",
   "Address": "臺南市永康區五王里中山南路242號1樓",
   "Brand": "光陽",
   "Lat": 23.014232,
   "Lon": 120.2337475
 },
 {
   "Title": "宏昌車業行",
   "Tel": "06-2311792",
   "Address": "臺南市永康區安康里中華西街66號1樓",
   "Brand": "山葉",
   "Lat": 23.0139113,
   "Lon": 120.2270339
 },
 {
   "Title": "耀興機車行",
   "Tel": "06-2036007",
   "Address": "臺南市永康區六合里中華二路312號1樓",
   "Brand": "山葉",
   "Lat": 23.0085637,
   "Lon": 120.2322244
 },
 {
   "Title": "上雅機車行",
   "Tel": "06-2712098",
   "Address": "臺南市永康區東灣里民族路249號1樓",
   "Brand": "三陽",
   "Lat": 23.0047224,
   "Lon": 120.2698634
 },
 {
   "Title": "振富車業有限公司",
   "Tel": "06-2710842",
   "Address": "臺南市永康區西灣里民族路483號1樓",
   "Brand": "光陽",
   "Lat": 23.0085577,
   "Lon": 120.2642003
 },
 {
   "Title": "金孟偉車業有限公司",
   "Tel": "06-2326780",
   "Address": "臺南市永康區永康里永明街5號1樓",
   "Brand": "光陽",
   "Lat": 23.0262271,
   "Lon": 120.258917
 },
 {
   "Title": "星宏機車行",
   "Tel": "06-2313588",
   "Address": "臺南市永康區永康里永大路二段883號1樓",
   "Brand": "台鈴",
   "Lat": 23.022618,
   "Lon": 120.26092
 },
 {
   "Title": "千益機車行",
   "Tel": "06-2711847",
   "Address": "臺南市永康區西灣里永華路87號1樓",
   "Brand": "山葉",
   "Lat": 23.0081314,
   "Lon": 120.2593695
 },
 {
   "Title": "益晟車業行",
   "Tel": "06-2039769",
   "Address": "臺南市永康區復華里復國一路495號1樓",
   "Brand": "光陽",
   "Lat": 23.0153771,
   "Lon": 120.2444586
 },
 {
   "Title": "建發機車行",
   "Tel": "06-3126710",
   "Address": "臺南市永康區復興里復興路369號",
   "Brand": "台鈴",
   "Lat": 22.9983717,
   "Lon": 120.240688
 },
 {
   "Title": "好開機車行",
   "Tel": "06-5742533",
   "Address": "臺南市玉井區三和里三和2之8號",
   "Brand": "台鈴",
   "Lat": 23.1001615,
   "Lon": 120.4897882
 },
 {
   "Title": "永和機車行",
   "Tel": "06-6852876",
   "Address": "臺南市白河區永安里中山路207號",
   "Brand": "三陽",
   "Lat": 23.3537209,
   "Lon": 120.4181531
 },
 {
   "Title": "啟成機車行",
   "Tel": "06-6852938",
   "Address": "臺南市白河區白河里康樂路16之1號",
   "Brand": "三陽",
   "Lat": 23.347974,
   "Lon": 120.415436
 },
 {
   "Title": "安乘機車行",
   "Tel": "06-3035689",
   "Address": "臺南市永康區中華路377號1樓",
   "Brand": "光陽",
   "Lat": 23.021653,
   "Lon": 120.221117
 },
 {
   "Title": "明益機車行",
   "Tel": "06-5932958",
   "Address": "臺南市安定區港口里245之4號",
   "Brand": "山葉",
   "Lat": 23.0939111,
   "Lon": 120.2296358
 },
 {
   "Title": "萬山機車行",
   "Tel": "06-5922495",
   "Address": "臺南市安定區蘇庴里蘇厝289之7號",
   "Brand": "山葉",
   "Lat": 23.095298,
   "Lon": 120.2166519
 },
 {
   "Title": "韋泰機車行",
   "Tel": "06-7225003",
   "Address": "臺南市佳里區鎮山里仁愛路245號1樓",
   "Brand": "光陽",
   "Lat": 23.152909,
   "Lon": 120.181122
 },
 {
   "Title": "昌興機車行",
   "Tel": "06-7223085",
   "Address": "臺南市佳里區建南里光復路159號1樓",
   "Brand": "三陽",
   "Lat": 23.1591545,
   "Lon": 120.1747042
 },
 {
   "Title": "豐益機車行",
   "Tel": "06-7260696",
   "Address": "臺南市佳里區興化里佳里興498之1號1樓",
   "Brand": "光陽",
   "Lat": 23.1885513,
   "Lon": 120.1873101
 },
 {
   "Title": "大偉機車行",
   "Tel": "06-5792486",
   "Address": "臺南市官田區隆本里中山路一段298號",
   "Brand": "山葉",
   "Lat": 23.1934164,
   "Lon": 120.3112082
 },
 {
   "Title": "大光機車行",
   "Tel": "06-5791939",
   "Address": "臺南市官田區隆本里中華路二段5號",
   "Brand": "光陽",
   "Lat": 23.200207,
   "Lon": 120.3158891
 },
 {
   "Title": "新發讚車業",
   "Tel": "06-6805688",
   "Address": "臺南市東山區東中里青葉路2段1號1樓",
   "Brand": "三陽",
   "Lat": 23.3232939,
   "Lon": 120.4050993
 },
 {
   "Title": "亞洲機車行",
   "Tel": "06-6802712",
   "Address": "臺南市東山區東中里新東路一段23號",
   "Brand": "光陽",
   "Lat": 23.3224646,
   "Lon": 120.4022503
 },
 {
   "Title": "瑞泰機車行",
   "Tel": "06-5771177",
   "Address": "臺南市南化區南化里南化207之1號",
   "Brand": "光陽",
   "Lat": 23.043524,
   "Lon": 120.476989
 },
 {
   "Title": "宏安機車行",
   "Tel": "06-6881458",
   "Address": "臺南市後壁區嘉民里上茄苳143之5號",
   "Brand": "光陽",
   "Lat": 23.38833,
   "Lon": 120.377875
 },
 {
   "Title": "大弘機車行",
   "Tel": "06-6220338",
   "Address": "臺南市柳營區士林里柳營路二段229號",
   "Brand": "光陽",
   "Lat": 23.2820643,
   "Lon": 120.311805
 },
 {
   "Title": "坤山機車行",
   "Tel": "06-6231942",
   "Address": "臺南市柳營區重溪里小脚腿21之2號",
   "Brand": "三陽",
   "Lat": 23.293917,
   "Lon": 120.365977
 },
 {
   "Title": "明興機車行",
   "Tel": "06-7942094",
   "Address": "臺南市將軍區西華里西華45號",
   "Brand": "山葉",
   "Lat": 23.207694,
   "Lon": 120.100899
 },
 {
   "Title": "美美輪業商行",
   "Tel": "06-5721243",
   "Address": "臺南市麻豆區新建里中山路120號",
   "Brand": "山葉",
   "Lat": 23.1837837,
   "Lon": 120.2444186
 },
 {
   "Title": "永盟機車行",
   "Tel": "06-5724775",
   "Address": "臺南市麻豆區磚井里磚子井1之3號",
   "Brand": "台鈴",
   "Lat": 23.1703702,
   "Lon": 120.2461725
 },
 {
   "Title": "隆泰機車行",
   "Tel": "06-5838111",
   "Address": "臺南市善化區坐駕里中正路398號1樓",
   "Brand": "光陽",
   "Lat": 23.1296535,
   "Lon": 120.2939864
 },
 {
   "Title": "成浚機車行",
   "Tel": "06-5982798",
   "Address": "臺南市新化區豐榮里大智路8號1樓",
   "Brand": "山葉",
   "Lat": 23.035908,
   "Lon": 120.300542
 },
 {
   "Title": "豊榮機車行",
   "Tel": "06-5991013",
   "Address": "臺南市新市區大營里豐營134號1樓",
   "Brand": "光陽",
   "Lat": 23.0997665,
   "Lon": 120.3066482
 },
 {
   "Title": "建立機車行",
   "Tel": "06-5992981",
   "Address": "臺南市新市區新市里復興路31號1樓",
   "Brand": "山葉",
   "Lat": 23.0807165,
   "Lon": 120.2954516
 },
 {
   "Title": "福泰機車行",
   "Tel": "06-6334277",
   "Address": "臺南市新營區三仙里正義街128號",
   "Brand": "光陽",
   "Lat": 23.306083,
   "Lon": 120.3120037
 },
 {
   "Title": "聰榮機車行",
   "Tel": "06-6331033",
   "Address": "臺南市新營區興業里新進路236之1號",
   "Brand": "山葉",
   "Lat": 23.3019233,
   "Lon": 120.3178865
 },
 {
   "Title": "源力機車行",
   "Tel": "06-6560871",
   "Address": "臺南市新營區新北里民治路148之7號",
   "Brand": "三陽",
   "Lat": 23.3096484,
   "Lon": 120.3083831
 },
 {
   "Title": "冠威機車行",
   "Tel": "06-6595365",
   "Address": "臺南市新營區民生里復興路276號",
   "Brand": "三陽",
   "Lat": 23.3039981,
   "Lon": 120.3032888
 },
 {
   "Title": "升滿輪業商行",
   "Tel": "06-7832067",
   "Address": "臺南市學甲區華宗路384號",
   "Brand": "山葉",
   "Lat": 23.2327807,
   "Lon": 120.1823328
 },
 {
   "Title": "邱吉輝機車行",
   "Tel": "06-2712768",
   "Address": "臺南市歸仁區大廟里保大路三段193號1樓",
   "Brand": "三陽",
   "Lat": 22.9974194,
   "Lon": 120.2769404
 },
 {
   "Title": "三勇車業行",
   "Tel": "06-5955950",
   "Address": "臺南市關廟區香洋里仁愛路2號1樓",
   "Brand": "光陽",
   "Lat": 22.961007,
   "Lon": 120.3298546
 },
 {
   "Title": "文昌機車行",
   "Tel": "06-6523221",
   "Address": "臺南市鹽水區水正里中正路125號1樓",
   "Brand": "光陽",
   "Lat": 23.3178739,
   "Lon": 120.2673077
 },
 {
   "Title": "輝昌車業行",
   "Tel": "06-6595357",
   "Address": "臺南市新營區民治路214號",
   "Brand": "山葉",
   "Lat": 23.3082449,
   "Lon": 120.304595
 },
 {
   "Title": "捷順機車行",
   "Tel": "06-6982776",
   "Address": "臺南市六甲區六甲里中正路504號",
   "Brand": "三陽",
   "Lat": 23.2304107,
   "Lon": 120.3513946
 },
 {
   "Title": "名淇機車行",
   "Tel": "06-5720878",
   "Address": "臺南市麻豆區東角里忠孝路39-1號",
   "Brand": "光陽",
   "Lat": 23.1843387,
   "Lon": 120.2559382
 },
 {
   "Title": "上葉機車行",
   "Tel": "06-7952388",
   "Address": "臺南市西港區慶安村中山路99之3、4號 1樓",
   "Brand": "山葉",
   "Lat": 23.1257853,
   "Lon": 120.1993381
 },
 {
   "Title": "宏德機車行",
   "Tel": "06-2545920",
   "Address": "臺南市永康區鹽行里中正南路748號1樓",
   "Brand": "三陽",
   "Lat": 23.0403786,
   "Lon": 120.2364383
 },
 {
   "Title": "啟大機車有限公司",
   "Tel": "06-2792302",
   "Address": "臺南市仁德區仁義里中正路二段1114號",
   "Brand": "光陽",
   "Lat": 22.9695878,
   "Lon": 120.2521758
 },
 {
   "Title": "祥興機車行",
   "Tel": "06-3306627",
   "Address": "臺南市歸仁區南保里中山路三段166號1樓",
   "Brand": "三陽",
   "Lat": 22.9680317,
   "Lon": 120.2840786
 },
 {
   "Title": "峯春機車行",
   "Tel": "06-6326772",
   "Address": "臺南市新營區大宏里民治路3之8號",
   "Brand": "光陽",
   "Lat": 23.3108797,
   "Lon": 120.320984
 },
 {
   "Title": "旭日車業有限公司",
   "Tel": "06-7833334",
   "Address": "臺南市學甲區成功路20號",
   "Brand": "山葉",
   "Lat": 23.2323597,
   "Lon": 120.1808198
 },
 {
   "Title": "宏昇機車行",
   "Tel": "06-5742170",
   "Address": "臺南市玉井區玉田里中正路163號",
   "Brand": "光陽",
   "Lat": 23.1250427,
   "Lon": 120.4626585
 },
 {
   "Title": "華順機車行",
   "Tel": "06-5742389",
   "Address": "臺南市玉井區竹圍村中正路346號",
   "Brand": "三陽",
   "Lat": 23.133023,
   "Lon": 120.473655
 },
 {
   "Title": "新發機車行",
   "Tel": "06-6982132",
   "Address": "臺南市六甲區六甲里中正路401號1樓",
   "Brand": "山葉",
   "Lat": 23.2280424,
   "Lon": 120.3507529
 },
 {
   "Title": "奇美機車行",
   "Tel": "06-2530972",
   "Address": "臺南市永康區尚頂里南台街13巷56號1樓",
   "Brand": "光陽",
   "Lat": 23.0212101,
   "Lon": 120.222602
 },
 {
   "Title": "德旺車業行",
   "Tel": "06-2023322",
   "Address": "臺南市永康區復華里復國一路386號1樓",
   "Brand": "山葉",
   "Lat": 23.0066027,
   "Lon": 120.2452464
 },
 {
   "Title": "高達車業行",
   "Tel": "06-2531852",
   "Address": "臺南市永康區鹽洲里中正南路699號",
   "Brand": "光陽",
   "Lat": 23.038997,
   "Lon": 120.234039
 },
 {
   "Title": "富皇實業社",
   "Tel": "06-2734160",
   "Address": "臺南市永康區建國里復興路20號1樓",
   "Brand": "三陽",
   "Lat": 22.9985601,
   "Lon": 120.250269
 },
 {
   "Title": "峰光企業社",
   "Tel": "06-2023468",
   "Address": "臺南市永康區二王里忠孝路416號1樓",
   "Brand": "光陽",
   "Lat": 23.0183753,
   "Lon": 120.2436185
 },
 {
   "Title": "統宇車業有限公司台南分公司",
   "Tel": "06-2817402",
   "Address": "臺南市永康區甲頂里中正南路172號",
   "Brand": "山葉",
   "Lat": 23.02333,
   "Lon": 120.2179354
 },
 {
   "Title": "銘揚車業行",
   "Tel": "06-2323243",
   "Address": "臺南市永康區埔園里中山路262、264號1樓",
   "Brand": "光陽",
   "Lat": 23.0320041,
   "Lon": 120.2556851
 },
 {
   "Title": "六甲頂機車行",
   "Tel": "06-2828044",
   "Address": "臺南市永康區甲頂里中央路9號",
   "Brand": "山葉",
   "Lat": 23.0224461,
   "Lon": 120.215945
 },
 {
   "Title": "塩水精品機車行",
   "Tel": "06-6521221",
   "Address": "臺南市鹽水區水正里中正路121號1樓",
   "Brand": "三陽",
   "Lat": 23.3179398,
   "Lon": 120.2673563
 },
 {
   "Title": "豐田機車行",
   "Tel": "06-2533246",
   "Address": "臺南市永康區中正北路3號",
   "Brand": "摩特動力(PGO)",
   "Lat": 23.0413849,
   "Lon": 120.2373312
 },
 {
   "Title": "建安機車行",
   "Tel": "06-5742336",
   "Address": "臺南市玉井區竹圍村中正路870號1樓",
   "Brand": "三陽",
   "Lat": 23.133023,
   "Lon": 120.473655
 },
 {
   "Title": "升得機車行",
   "Tel": "06-6854301",
   "Address": "臺南市白河區玉豐里海豐厝22之7號1樓",
   "Brand": "台鈴",
   "Lat": 23.3805236,
   "Lon": 120.4163279
 },
 {
   "Title": "友順機車行",
   "Tel": "06-6851738",
   "Address": "臺南市白河區竹門里竹子門28之7號",
   "Brand": "光陽",
   "Lat": 23.3767916,
   "Lon": 120.4465882
 },
 {
   "Title": "鼎盛機車行",
   "Tel": "06-5952796",
   "Address": "臺南市關廟區香洋村中山路一段235、237號",
   "Brand": "三陽",
   "Lat": 22.9548592,
   "Lon": 120.3293793
 },
 {
   "Title": "陸勝機車行",
   "Tel": "06-2783119",
   "Address": "臺南市歸仁區大潭村中正南路三段271號1樓",
   "Brand": "山葉",
   "Lat": 22.9115974,
   "Lon": 120.2702515
 },
 {
   "Title": "寧居機車行",
   "Tel": "06-3300483",
   "Address": "臺南市歸仁區文化街三段140號",
   "Brand": "山葉",
   "Lat": 22.9706025,
   "Lon": 120.284864
 },
 {
   "Title": "協信機車行",
   "Tel": "06-2025343",
   "Address": "臺南市永康區大橋里大橋一街242號",
   "Brand": "山葉",
   "Lat": 23.0180429,
   "Lon": 120.2297071
 },
 {
   "Title": "展翔機車行",
   "Tel": "06-2422614",
   "Address": "臺南市永康區鹽洲里鹽洲二街158號",
   "Brand": "自營",
   "Lat": 23.04353,
   "Lon": 120.235574
 },
 {
   "Title": "新立達機車行",
   "Tel": "06-2024897",
   "Address": "臺南市永康區龍潭里龍安街163號1樓",
   "Brand": "三陽",
   "Lat": 23.035933,
   "Lon": 120.264444
 },
 {
   "Title": "一進機車行",
   "Tel": "06-2323476",
   "Address": "臺南市永康區正強里正強街93號之1樓",
   "Brand": "三陽",
   "Lat": 23.0289711,
   "Lon": 120.2501793
 },
 {
   "Title": "進吉機車行",
   "Tel": "06-3127258",
   "Address": "臺南市永康區華興街35號1樓",
   "Brand": "光陽",
   "Lat": 23.0006802,
   "Lon": 120.2391126
 },
 {
   "Title": "東倫機車行",
   "Tel": "06-2332446",
   "Address": "臺南市永康區五王里中華路384號1、2樓",
   "Brand": "三陽",
   "Lat": 23.0084143,
   "Lon": 120.2314117
 },
 {
   "Title": "南科機車行",
   "Tel": "06-2432232",
   "Address": "臺南市永康區尚頂里南台街75巷1之2號1樓",
   "Brand": "山葉",
   "Lat": 23.0225741,
   "Lon": 120.221738
 },
 {
   "Title": "嘉豪機車行",
   "Tel": "06-2437351",
   "Address": "臺南市永康區鹽洲里中正南路847號1樓",
   "Brand": "三陽",
   "Lat": 23.0411577,
   "Lon": 120.2367344
 },
 {
   "Title": "振成機車行",
   "Tel": "06-2391874",
   "Address": "臺南市歸仁區南保村大順街202號1、2樓",
   "Brand": "光陽",
   "Lat": 22.970264,
   "Lon": 120.286062
 },
 {
   "Title": "長弘車業行",
   "Tel": "06-2491009",
   "Address": "臺南市仁德區中清路43號1、2樓",
   "Brand": "山葉",
   "Lat": 22.9697853,
   "Lon": 120.2558816
 },
 {
   "Title": "新德昌機車行",
   "Tel": "06-5752911",
   "Address": "臺南市楠西區中興路17之1號",
   "Brand": "光陽",
   "Lat": 23.1772028,
   "Lon": 120.4836448
 },
 {
   "Title": "正仁機車行",
   "Tel": "06-5722300",
   "Address": "臺南市麻豆區穀興里中山路11之4號",
   "Brand": "山葉",
   "Lat": 23.183474,
   "Lon": 120.247725
 },
 {
   "Title": "東誠機車行",
   "Tel": "06-7234406",
   "Address": "臺南市佳里區光復路365號1樓",
   "Brand": "山葉",
   "Lat": 23.183474,
   "Lon": 120.247725
 },
 {
   "Title": "清源機車行",
   "Tel": "06-7220238",
   "Address": "臺南市佳里區光復路92之1號1樓",
   "Brand": "光陽",
   "Lat": 23.1579001,
   "Lon": 120.1750761
 },
 {
   "Title": "佐允機車行",
   "Tel": "06-6898178",
   "Address": "臺南市下營區仁里村公園路38號1樓",
   "Brand": "三陽",
   "Lat": 23.2336879,
   "Lon": 120.2605105
 },
 {
   "Title": "祥發機車行",
   "Tel": "06-6320893",
   "Address": "臺南市新營區中正路39之5號1樓",
   "Brand": "光陽",
   "Lat": 23.3140309,
   "Lon": 120.316501
 },
 {
   "Title": "國和機車行",
   "Tel": "06-6323928",
   "Address": "臺南市新營區復興路130之3號1樓",
   "Brand": "台鈴",
   "Lat": 23.3034182,
   "Lon": 120.3097774
 }
]
