[
 {
   "Title": "宏立機車事業有限公司",
   "Tel": "02-27065429",
   "Address": "台北市大安區和平東路2段141號",
   "Brand": "山葉",
   "Lat": 25.025402,
   "Lon": 121.5411107
 },
 {
   "Title": "鉅泉車業有限公司",
   "Tel": "02-25618404",
   "Address": "台北市中山區長安東路二段47之1號",
   "Brand": "三陽",
   "Lat": 25.0486044,
   "Lon": 121.5320421
 },
 {
   "Title": "群億車業商行",
   "Tel": "02-27603181",
   "Address": "台北市松山區八德路4段336號",
   "Brand": "山葉",
   "Lat": 25.0491188,
   "Lon": 121.568162
 },
 {
   "Title": "松春來車業有限公司",
   "Tel": "02-27666884",
   "Address": "台北市松山區民權東路5段30號",
   "Brand": "三陽",
   "Lat": 25.0628227,
   "Lon": 121.5643612
 },
 {
   "Title": "國盛機車行",
   "Tel": "02-27688819",
   "Address": "台北市松山區撫遠街189號",
   "Brand": "三陽",
   "Lat": 25.0595414,
   "Lon": 121.568373
 },
 {
   "Title": "光盛車業股份有限公司",
   "Tel": "02-28126711",
   "Address": "臺北市士林區重慶北路4段156號",
   "Brand": "光陽",
   "Lat": 25.0837201,
   "Lon": 121.5122466
 },
 {
   "Title": "益隆車業有限公司",
   "Tel": "02-28127500",
   "Address": "台北市士林區重慶北路四段244號",
   "Brand": "三陽",
   "Lat": 25.086543,
   "Lon": 121.511384
 },
 {
   "Title": "台益機車有限公司",
   "Tel": "02-28122405",
   "Address": "台北市士林區延平北路五段129號1樓",
   "Brand": "山葉",
   "Lat": 25.0819205,
   "Lon": 121.5102297
 },
 {
   "Title": "榮裕機車行",
   "Tel": "02-28370460",
   "Address": "台北市士林區士東路250號",
   "Brand": "三陽",
   "Lat": 25.112908,
   "Lon": 121.535628
 },
 {
   "Title": "加祥車業有限公司",
   "Tel": "02-25571818",
   "Address": "台北市大同區延平北路二段256號",
   "Brand": "光陽",
   "Lat": 25.060364,
   "Lon": 121.51128
 },
 {
   "Title": "忠億車業有限公司",
   "Tel": "02-25525232",
   "Address": "台北市大同區西寧北路17之4號",
   "Brand": "山葉",
   "Lat": 25.0525532,
   "Lon": 121.5086811
 },
 {
   "Title": "順旺車業有限公司",
   "Tel": "02-25589506",
   "Address": "臺北市大同區延平北路1段24號1樓",
   "Brand": "三陽",
   "Lat": 25.0504188,
   "Lon": 121.5118829
 },
 {
   "Title": "新協大車業有限公司",
   "Tel": "02-25924480",
   "Address": "台北市大同區延平北路三段67之1號",
   "Brand": "山葉",
   "Lat": 25.066278,
   "Lon": 121.511122
 },
 {
   "Title": "大輝車業有限公司",
   "Tel": "02-27820869",
   "Address": "台北市南港區忠孝東路七段600號",
   "Brand": "光陽",
   "Lat": 25.0529169,
   "Lon": 121.6153755
 },
 {
   "Title": "新三和機車行",
   "Tel": "02-27970959",
   "Address": "台北市內湖區文德路22巷1號",
   "Brand": "三陽",
   "Lat": 25.0782047,
   "Lon": 121.5794135
 },
 {
   "Title": "日盛車業有限公司",
   "Tel": "02-27934893",
   "Address": "台北市內湖區成功路三段73號",
   "Brand": "山葉",
   "Lat": 25.077904,
   "Lon": 121.59011
 },
 {
   "Title": "世群車業有限公司",
   "Tel": "02-23077077",
   "Address": "臺北市萬華區西園路2段235號1樓",
   "Brand": "摩特",
   "Lat": 25.0266097,
   "Lon": 121.4936526
 },
 {
   "Title": "東龍旺車業有限公司",
   "Tel": "02-23320264",
   "Address": "台北市萬華區東園街133號",
   "Brand": "光陽",
   "Lat": 25.0249008,
   "Lon": 121.4970655
 },
 {
   "Title": "得山車業有限公司",
   "Tel": "02-23313426",
   "Address": "臺北市萬華區康定路114號",
   "Brand": "山葉",
   "Lat": 25.0410039,
   "Lon": 121.5020302
 },
 {
   "Title": "健立車業有限公司",
   "Tel": "02-23082460",
   "Address": "台北市萬華區桂林路206號",
   "Brand": "山葉",
   "Lat": 25.038443,
   "Lon": 121.496866
 },
 {
   "Title": "永振億實業有限公司",
   "Tel": "02-23044111",
   "Address": "台北市萬華區南寧路62-64號",
   "Brand": "三陽",
   "Lat": 25.035223,
   "Lon": 121.503926
 },
 {
   "Title": "運輪機車行",
   "Tel": "02-27215371",
   "Address": "台北市中山區八德路2段88巷20號",
   "Brand": "山葉",
   "Lat": 25.045022,
   "Lon": 121.535965
 },
 {
   "Title": "弘展機車有限公司",
   "Tel": "02-25565871",
   "Address": "臺北市大同區西寧北路93號",
   "Brand": "光陽",
   "Lat": 25.0566321,
   "Lon": 121.5091453
 },
 {
   "Title": "聯葉車業有限公司",
   "Tel": "02-27116472",
   "Address": "台北市中山區遼寧街8號",
   "Brand": "山葉",
   "Lat": 25.04749,
   "Lon": 121.542024
 },
 {
   "Title": "高旺企業股份有限公司",
   "Tel": "02-29312289",
   "Address": "台北市文山區羅斯福路5段182號",
   "Brand": "光陽",
   "Lat": 25.0040268,
   "Lon": 121.5384505
 },
 {
   "Title": "福盛全有限公司",
   "Tel": "02-28920313",
   "Address": "臺北市北投區中央南路1段210號",
   "Brand": "光陽",
   "Lat": 25.128318,
   "Lon": 121.5010483
 },
 {
   "Title": "汶吉車業行",
   "Tel": "02-28929174",
   "Address": "台北市北投區大業路560號",
   "Brand": "台鈴",
   "Lat": 25.129542,
   "Lon": 121.500921
 },
 {
   "Title": "聯螢車業有限公司",
   "Tel": "02-28955695",
   "Address": "臺北市北投區中央南路1段156號",
   "Brand": "山葉",
   "Lat": 25.044458,
   "Lon": 121.569252
 },
 {
   "Title": "大仁車業有限公司",
   "Tel": "02-27606918",
   "Address": "臺北市信義區松隆路80號1樓",
   "Brand": "山葉",
   "Lat": 25.0256972,
   "Lon": 121.5565731
 },
 {
   "Title": "勝鎰車業有限公司",
   "Tel": "02-27389229",
   "Address": "臺北市信義區嘉興街219巷4號",
   "Brand": "山葉",
   "Lat": 25.13536,
   "Lon": 121.496972
 },
 {
   "Title": "松宏車業有限公司",
   "Tel": "02-27668065",
   "Address": "臺北市信義區忠孝東路5段205號",
   "Brand": "山葉",
   "Lat": 25.041209,
   "Lon": 121.56979
 },
 {
   "Title": "四維通車業有限公司",
   "Tel": "02-27923672",
   "Address": "臺北市內湖區民權東路6段128號",
   "Brand": "光陽",
   "Lat": 25.068847,
   "Lon": 121.587541
 },
 {
   "Title": "展嘉輪業有限公司",
   "Tel": "02-29352235",
   "Address": "臺北市文山區羅斯福路5段48號",
   "Brand": "山葉",
   "Lat": 25.0086729,
   "Lon": 121.537582
 },
 {
   "Title": "鋒權輪有限公司",
   "Tel": "02-29318529",
   "Address": "臺北市文山區興隆路2段241號",
   "Brand": "三陽",
   "Lat": 25.0018888,
   "Lon": 121.5513779
 },
 {
   "Title": "盛昌機車行",
   "Tel": "02-23656459",
   "Address": "臺北市大安區辛亥路1段58號",
   "Brand": "山葉",
   "Lat": 25.0201966,
   "Lon": 121.5307127
 },
 {
   "Title": "進山車業有限公司",
   "Tel": "02-28271123",
   "Address": "臺北市北投區石牌路一段24號",
   "Brand": "三陽",
   "Lat": 25.1128204,
   "Lon": 121.5100976
 },
 {
   "Title": "良江企業有限公司",
   "Tel": "02-23049911",
   "Address": "臺北市萬華區中華路2段98號",
   "Brand": "山葉",
   "Lat": 25.0314118,
   "Lon": 121.5040636
 },
 {
   "Title": "大旺車行",
   "Tel": "02-23015555",
   "Address": "臺北市萬華區萬大路214號",
   "Brand": "三陽",
   "Lat": 25.0271406,
   "Lon": 121.5003549
 },
 {
   "Title": "后里車業有限公司",
   "Tel": "02-23417010",
   "Address": "臺北市中正區牯嶺街47號",
   "Brand": "光陽",
   "Lat": 25.0299018,
   "Lon": 121.5166651
 },
 {
   "Title": "松大車業有限公司",
   "Tel": "02-23222090",
   "Address": "臺北市中正區牯嶺街 61-3號",
   "Brand": "山葉",
   "Lat": 25.0293289,
   "Lon": 121.5171374
 },
 {
   "Title": "隆大車業行",
   "Tel": "02-28214471",
   "Address": "臺北市北投區承德路7段344巷15號",
   "Brand": "山葉",
   "Lat": 25.1179871,
   "Lon": 121.504569
 },
 {
   "Title": "鉍勝車業有限公司",
   "Tel": "02-23670321",
   "Address": "臺北市中正區師大路146號",
   "Brand": "山葉",
   "Lat": 25.021035,
   "Lon": 121.526579
 },
 {
   "Title": "忠豪車業有限公司",
   "Tel": "02-23223646",
   "Address": "臺北市中正區忠孝東路2段31號",
   "Brand": "山葉",
   "Lat": 25.043892,
   "Lon": 121.527898
 },
 {
   "Title": "磬葉企業有限公司",
   "Tel": "02-25532553",
   "Address": "臺北市大同區錦西街56號",
   "Brand": "山葉",
   "Lat": 25.0601986,
   "Lon": 121.5196988
 },
 {
   "Title": "良星車業有限公司",
   "Tel": "02-25550191",
   "Address": "臺北市大同區重慶北路2段39號",
   "Brand": "三陽",
   "Lat": 25.0550974,
   "Lon": 121.5143858
 },
 {
   "Title": "大華車業有限公司",
   "Tel": "02-25550831",
   "Address": "臺北市大同區承德路1段47號",
   "Brand": "三陽",
   "Lat": 25.0514328,
   "Lon": 121.5174185
 },
 {
   "Title": "中盛機車有限公司",
   "Tel": "02-27826661",
   "Address": "臺北市南港區東新街4號",
   "Brand": "三陽",
   "Lat": 25.0509748,
   "Lon": 121.5826124
 },
 {
   "Title": "富偉機車行",
   "Tel": "02-28341376",
   "Address": "臺北市士林區文林路679號",
   "Brand": "三陽",
   "Lat": 25.100987,
   "Lon": 121.5220959
 },
 {
   "Title": "力泰車業有限公司",
   "Tel": "02-28126365",
   "Address": "臺北市士林區延平北路5段220號",
   "Brand": "台鈴",
   "Lat": 25.0840232,
   "Lon": 121.5100454
 },
 {
   "Title": "永生車業有限公司",
   "Tel": "02-28832628",
   "Address": "臺北市士林區華齡街71號",
   "Brand": "山葉",
   "Lat": 25.0847879,
   "Lon": 121.5192934
 },
 {
   "Title": "長豐車業行",
   "Tel": "02-25910280",
   "Address": "臺北市大同區承德路3段160號",
   "Brand": "偉士牌",
   "Lat": 25.0688205,
   "Lon": 121.5181762
 },
 {
   "Title": "弘達車業有限公司",
   "Tel": "02-25927617",
   "Address": "臺北市大同區承德路3段162號",
   "Brand": "三陽",
   "Lat": 25.0687755,
   "Lon": 121.5182034
 },
 {
   "Title": "金理車業有限公司",
   "Tel": "02-27112950",
   "Address": "臺北市大安區八德路2段35號",
   "Brand": "光陽",
   "Lat": 25.0448146,
   "Lon": 121.5340167
 },
 {
   "Title": "宏興車業有限公司",
   "Tel": "02-27371201",
   "Address": "臺北市大安區和平東路3段127號",
   "Brand": "三陽",
   "Lat": 25.0245849,
   "Lon": 121.5518418
 },
 {
   "Title": "車王二輪社",
   "Tel": "02-27783310",
   "Address": "臺北市大安區延吉街64-1號",
   "Brand": "台鈴",
   "Lat": 25.043398,
   "Lon": 121.5538743
 },
 {
   "Title": "鎰揚企業有限公司",
   "Tel": "02-23653488",
   "Address": "臺北市大安區羅斯福路3段93號",
   "Brand": "光陽",
   "Lat": 25.022601,
   "Lon": 121.526352
 },
 {
   "Title": "農安機車有限公司",
   "Tel": "02-25032002",
   "Address": "臺北市中山區龍江路375號",
   "Brand": "三陽",
   "Lat": 25.0646805,
   "Lon": 121.541072
 },
 {
   "Title": "大昌機車有限公司",
   "Tel": "02-25325325",
   "Address": "臺北市中山區北安路458巷3號",
   "Brand": "光陽",
   "Lat": 25.0793452,
   "Lon": 121.5446486
 },
 {
   "Title": "展欣豪車業有限公司",
   "Tel": "02-25215751",
   "Address": "臺北市中山區民權東路2段126號",
   "Brand": "光陽",
   "Lat": 25.0623251,
   "Lon": 121.5327045
 },
 {
   "Title": "裕國機車行",
   "Tel": "02-25082626",
   "Address": "臺北市中山區長安東路2段72號",
   "Brand": "偉士牌",
   "Lat": 25.0483232,
   "Lon": 121.5336666
 },
 {
   "Title": "易昌機車行",
   "Tel": "02-27818035",
   "Address": "臺北市中山區八德路2段329號",
   "Brand": "台鈴",
   "Lat": 25.047509,
   "Lon": 121.543199
 },
 {
   "Title": "達誠車業有限公司",
   "Tel": "02-25615203",
   "Address": "臺北市中山區吉林路12-3號",
   "Brand": "光陽",
   "Lat": 25.0502909,
   "Lon": 121.529926
 },
 {
   "Title": "名佳車業行",
   "Tel": "02-25052840",
   "Address": "臺北市中山區錦州街310號",
   "Brand": "光陽",
   "Lat": 25.0601963,
   "Lon": 121.5375517
 },
 {
   "Title": "慶發車業有限公司",
   "Tel": "02-23013749",
   "Address": "臺北市中正區汀州路1段182號",
   "Brand": "山葉",
   "Lat": 25.0282925,
   "Lon": 121.5089975
 },
 {
   "Title": "隆發車業有限公司",
   "Tel": "02-23688822",
   "Address": "臺北市中正區重慶南路3段135號",
   "Brand": "光陽",
   "Lat": 25.0237441,
   "Lon": 121.5170577
 },
 {
   "Title": "春琳國際車業有限公司",
   "Tel": "02-26574081",
   "Address": "臺北市內湖區江南街28號",
   "Brand": "山葉",
   "Lat": 25.0776602,
   "Lon": 121.5776773
 },
 {
   "Title": "鳳翔車業行",
   "Tel": "02-22362673",
   "Address": "臺北市文山區木柵路1段57-6號",
   "Brand": "光陽",
   "Lat": 24.9868713,
   "Lon": 121.5456884
 },
 {
   "Title": "元土車行",
   "Tel": "02-29363029",
   "Address": "台北市文山區木柵路1段212號",
   "Brand": "三陽",
   "Lat": 24.987756,
   "Lon": 121.553258
 },
 {
   "Title": "光輝機車行",
   "Tel": "02-29375440",
   "Address": "臺北市文山區木柵路1段286號",
   "Brand": "山葉",
   "Lat": 24.987987,
   "Lon": 121.555021
 },
 {
   "Title": "順成發機車行",
   "Tel": "02-29393837",
   "Address": "臺北市文山區木新路2段224號",
   "Brand": "山葉",
   "Lat": 24.983558,
   "Lon": 121.567183
 },
 {
   "Title": "順利機車行",
   "Tel": "02-29390679",
   "Address": "臺北市文山區木新路2段285號",
   "Brand": "三陽",
   "Lat": 24.9827782,
   "Lon": 121.5657334
 },
 {
   "Title": "拓源機車行",
   "Tel": "02-29360058",
   "Address": "臺北市文山區木新路3段73號",
   "Brand": "山葉",
   "Lat": 24.9821822,
   "Lon": 121.5634739
 },
 {
   "Title": "東和機車行",
   "Tel": "02-29391769",
   "Address": "臺北市文山區指南路1段4號",
   "Brand": "三陽",
   "Lat": 24.987556,
   "Lon": 121.568863
 },
 {
   "Title": "祥騰機車行",
   "Tel": "02-29321453",
   "Address": "臺北市文山區景華街64號",
   "Brand": "台鈴",
   "Lat": 24.997458,
   "Lon": 121.544521
 },
 {
   "Title": "威烝車業行",
   "Tel": "02-29336070",
   "Address": "臺北市文山區景興路28-1號",
   "Brand": "山葉",
   "Lat": 24.9986219,
   "Lon": 121.5454949
 },
 {
   "Title": "騰暉車業行",
   "Tel": "02-29355119",
   "Address": "臺北市文山區興隆路2段18號",
   "Brand": "山葉",
   "Lat": 24.9950492,
   "Lon": 121.544519
 },
 {
   "Title": "弘偉車業有限公司",
   "Tel": "02-29345719",
   "Address": "臺北市文山區羅斯福路6段317號",
   "Brand": "三陽",
   "Lat": 24.993891,
   "Lon": 121.541398
 },
 {
   "Title": "雄大車業行",
   "Tel": "02-28950910",
   "Address": "臺北市北投區中和街453-11號",
   "Brand": "山葉",
   "Lat": 25.1446275,
   "Lon": 121.4967661
 },
 {
   "Title": "聯誠機車行",
   "Tel": "02-28223776",
   "Address": "臺北市北投區東華街2段14號",
   "Brand": "三陽",
   "Lat": 25.1162464,
   "Lon": 121.5147059
 },
 {
   "Title": "和峯車業有限公司",
   "Tel": "02-28279551",
   "Address": "臺北市北投區致遠一路1段92號",
   "Brand": "山葉",
   "Lat": 25.1094746,
   "Lon": 121.5153188
 },
 {
   "Title": "重輪車業有限公司",
   "Tel": "02-28918687",
   "Address": "臺北市北投區崇仁路一段21號",
   "Brand": "台鈴",
   "Lat": 25.1277127,
   "Lon": 121.5013745
 },
 {
   "Title": "裕民機車行",
   "Tel": "02-28271038",
   "Address": "臺北市北投區西安街2段185號",
   "Brand": "山葉",
   "Lat": 25.1193953,
   "Lon": 121.5114437
 },
 {
   "Title": "日星車業行",
   "Tel": "02-25780643",
   "Address": "臺北市松山區八德路3段198號",
   "Brand": "光陽",
   "Lat": 25.047957,
   "Lon": 121.5563366
 },
 {
   "Title": "亞帝車業有限公司",
   "Tel": "02-27852274",
   "Address": "臺北市南港區中坡南路43號",
   "Brand": "光陽",
   "Lat": 25.0429328,
   "Lon": 121.5835004
 },
 {
   "Title": "尚益車業有限公司",
   "Tel": "02-27129855",
   "Address": "臺北市松山區五常街281-2號",
   "Brand": "三陽",
   "Lat": 25.0647398,
   "Lon": 121.5453088
 },
 {
   "Title": "新光機車行",
   "Tel": "02-27612708",
   "Address": "臺北市松山區民生東路5段57號",
   "Brand": "光陽",
   "Lat": 25.058616,
   "Lon": 121.557864
 },
 {
   "Title": "千翔車業行",
   "Tel": "02-27693225",
   "Address": "臺北市松山區光復北路109號",
   "Brand": "山葉",
   "Lat": 25.0512045,
   "Lon": 121.5579924
 },
 {
   "Title": "佳昇機車行",
   "Tel": "02-87707177",
   "Address": "臺北市松山區健康路44號",
   "Brand": "山葉",
   "Lat": 25.053212,
   "Lon": 121.552811
 },
 {
   "Title": "吉安運動器材有限公司",
   "Tel": "02-27265996",
   "Address": "臺北市信義區中坡南路287號",
   "Brand": "山葉",
   "Lat": 25.0385993,
   "Lon": 121.5841918
 },
 {
   "Title": "春崇車業行",
   "Tel": "02-27591500",
   "Address": "臺北市信義區福德街268巷1號",
   "Brand": "山葉",
   "Lat": 25.0391579,
   "Lon": 121.5858494
 },
 {
   "Title": "儀弘機車行",
   "Tel": "02-27881023",
   "Address": "臺北市南港區研究院路1段185號",
   "Brand": "光陽",
   "Lat": 25.049564,
   "Lon": 121.6159498
 },
 {
   "Title": "高陞機車行",
   "Tel": "02-27821361",
   "Address": "臺北市南港區研究院路2段72號",
   "Brand": "三陽",
   "Lat": 25.0455857,
   "Lon": 121.6150897
 },
 {
   "Title": "瑞明機車行",
   "Tel": "02-25595038",
   "Address": "臺北市大同區長安西路199號",
   "Brand": "光陽",
   "Lat": 25.0519387,
   "Lon": 121.5129916
 },
 {
   "Title": "三育機車有限公司",
   "Tel": "02-29315966",
   "Address": "臺北市文山區景隆街54號",
   "Brand": "光陽",
   "Lat": 24.998439,
   "Lon": 121.544269
 },
 {
   "Title": "欣利機車有限公司",
   "Tel": "02-23094206",
   "Address": "臺北市萬華區西園路2段288之1號",
   "Brand": "山葉",
   "Lat": 25.0272835,
   "Lon": 121.4939372
 },
 {
   "Title": "東園車業有限公司",
   "Tel": "02-23035374",
   "Address": "臺北市萬華區東園街105號",
   "Brand": "台鈴",
   "Lat": 25.0253621,
   "Lon": 121.4968396
 },
 {
   "Title": "葉山車行",
   "Tel": "02-23062832",
   "Address": "臺北市萬華區桂林路30號30-1號",
   "Brand": "光陽",
   "Lat": 25.0377039,
   "Lon": 121.5048698
 },
 {
   "Title": "尚億車業有限公司",
   "Tel": "02-23016258",
   "Address": "臺北市萬華區萬大路500號",
   "Brand": "光陽",
   "Lat": 25.0194216,
   "Lon": 121.4971292
 },
 {
   "Title": "盟業車業行",
   "Tel": "02-28864407",
   "Address": "臺北市士林區通河街169號",
   "Brand": "三陽",
   "Lat": 25.0814436,
   "Lon": 121.5198676
 },
 {
   "Title": "坤鴻機車行",
   "Tel": "02-28328781",
   "Address": "臺北市士林區德行東路100號1樓",
   "Brand": "三陽",
   "Lat": 25.1075203,
   "Lon": 121.5281576
 },
 {
   "Title": "新天母機車行",
   "Tel": "02-28768286",
   "Address": "臺北市士林區中山北路6段405巷83號1樓",
   "Brand": "三陽",
   "Lat": 25.1171862,
   "Lon": 121.5260073
 },
 {
   "Title": "銘豐機車行",
   "Tel": "02-28819070",
   "Address": "臺北市士林區文林路314號",
   "Brand": "山葉",
   "Lat": 25.0922054,
   "Lon": 121.5262029
 },
 {
   "Title": "小緯機車行",
   "Tel": "02-25572788",
   "Address": "臺北市大同區承德路2段149號",
   "Brand": "商會",
   "Lat": 25.057998,
   "Lon": 121.51838
 },
 {
   "Title": "旭宏車業行",
   "Tel": "02-27385828",
   "Address": "臺北市信義區和平東路3段285號",
   "Brand": "山葉",
   "Lat": 25.022119,
   "Lon": 121.5552825
 },
 {
   "Title": "東貿機車有限公司",
   "Tel": "02-27351212",
   "Address": "臺北市大安區基隆路2段233號",
   "Brand": "哈特佛",
   "Lat": 25.0225592,
   "Lon": 121.5508122
 },
 {
   "Title": "德剛車行有限公司",
   "Tel": "02-25318292",
   "Address": "臺北市中山區天津街25號1樓",
   "Brand": "光陽",
   "Lat": 25.0485519,
   "Lon": 121.5226817
 },
 {
   "Title": "偉恆有限公司",
   "Tel": "02-25950909",
   "Address": "臺北市中山區吉林路486號",
   "Brand": "商會",
   "Lat": 25.0680387,
   "Lon": 121.5302526
 },
 {
   "Title": "世輪機車行",
   "Tel": "02-23680029",
   "Address": "臺北市中正區汀州路2段76號",
   "Brand": "光陽",
   "Lat": 25.0250661,
   "Lon": 121.5186904
 },
 {
   "Title": "巨豐機車行",
   "Tel": "02-26321200",
   "Address": "臺北市內湖區康寧路3段16巷115號",
   "Brand": "光陽",
   "Lat": 25.071124,
   "Lon": 121.609543
 },
 {
   "Title": "宏淞車業有限公司",
   "Tel": "02-27902769",
   "Address": "臺北市內湖區金龍路87號",
   "Brand": "三陽",
   "Lat": 25.0853254,
   "Lon": 121.5915662
 },
 {
   "Title": "正倫車業行",
   "Tel": "02-26331673",
   "Address": "臺北市內湖區康樂街69號1樓",
   "Brand": "山葉",
   "Lat": 25.068766,
   "Lon": 121.618525
 },
 {
   "Title": "金展機車行",
   "Tel": "02-28232068",
   "Address": "臺北市北投區自強街62號",
   "Brand": "光陽",
   "Lat": 25.1103811,
   "Lon": 121.5139389
 },
 {
   "Title": "聯耀機車行",
   "Tel": "02-23617187",
   "Address": "臺北市萬華區環河南路1段21號",
   "Brand": "山葉",
   "Lat": 25.0468997,
   "Lon": 121.5042552
 },
 {
   "Title": "唭哩岸機車行",
   "Tel": "02-28226981",
   "Address": "臺北市北投區致遠2路89號",
   "Brand": "三陽",
   "Lat": 25.1162192,
   "Lon": 121.5116437
 },
 {
   "Title": "昇輪機車行",
   "Tel": "02-27282084",
   "Address": "臺北市信義區信義路6段47號",
   "Brand": "三陽",
   "Lat": 25.035077,
   "Lon": 121.576308
 },
 {
   "Title": "友順機車行",
   "Tel": "02-23391766",
   "Address": "臺北市萬華區萬大路423巷26號",
   "Brand": "三陽",
   "Lat": 25.0212313,
   "Lon": 121.4995363
 },
 {
   "Title": "上盛車業行",
   "Tel": "02-27293277",
   "Address": "臺北市信義區松仁路208號1樓",
   "Brand": "山葉",
   "Lat": 25.0270819,
   "Lon": 121.5682455
 },
 {
   "Title": "巨揚機車行",
   "Tel": "02-28131959",
   "Address": "臺北市士林區中正路605號",
   "Brand": "光陽",
   "Lat": 25.0865434,
   "Lon": 121.5097561
 },
 {
   "Title": "信全車業有限公司",
   "Tel": "02-27389789",
   "Address": "臺北市大安區通化街168號",
   "Brand": "三陽",
   "Lat": 25.0283178,
   "Lon": 121.5535997
 },
 {
   "Title": "立豐機車行",
   "Tel": "02-23072575",
   "Address": "臺北市中正區重慶南路3段32號",
   "Brand": "山葉",
   "Lat": 25.028686,
   "Lon": 121.515401
 },
 {
   "Title": "國祥機車行",
   "Tel": "02-26333510",
   "Address": "臺北市內湖區康樂街32號1樓",
   "Brand": "光陽",
   "Lat": 25.068836,
   "Lon": 121.618322
 },
 {
   "Title": "葉陽車業行",
   "Tel": "02-26345556",
   "Address": "臺北市內湖區民權東路6段320號",
   "Brand": "光陽",
   "Lat": 25.0729138,
   "Lon": 121.6060173
 },
 {
   "Title": "通龍車業行",
   "Tel": "02-27996478",
   "Address": "臺北市內湖區港墘路34號1樓",
   "Brand": "三陽",
   "Lat": 25.0825039,
   "Lon": 121.5780008
 },
 {
   "Title": "大發車業",
   "Tel": "02-28955121",
   "Address": "臺北市北投區中央北路2段167號",
   "Brand": "三陽",
   "Lat": 25.1376049,
   "Lon": 121.493342
 },
 {
   "Title": "崑宏機車行",
   "Tel": "02-27476668",
   "Address": "臺北市松山區撫遠街362號1樓",
   "Brand": "光陽",
   "Lat": 25.0630505,
   "Lon": 121.5658869
 },
 {
   "Title": "大慶機車材料行",
   "Tel": "02-27224533",
   "Address": "臺北市信義區莊敬路325巷33號",
   "Brand": "山葉",
   "Lat": 25.0287707,
   "Lon": 121.5643926
 },
 {
   "Title": "東勝機車行",
   "Tel": "02-27291027",
   "Address": "臺北市信義區松仁路167號",
   "Brand": "山葉",
   "Lat": 25.0282269,
   "Lon": 121.56849
 },
 {
   "Title": "明正車業行",
   "Tel": "02-27652715",
   "Address": "臺北市信義區忠孝東路5段147號",
   "Brand": "光陽",
   "Lat": 25.0412741,
   "Lon": 121.5681818
 },
 {
   "Title": "益群車業有限公司",
   "Tel": "02-26511998",
   "Address": "臺北市南港區東新街69號",
   "Brand": "山葉",
   "Lat": 25.0467163,
   "Lon": 121.5881347
 },
 {
   "Title": "民豐機車行",
   "Tel": "02-27858389",
   "Address": "臺北市南港區成福路137號1樓",
   "Brand": "三陽",
   "Lat": 25.0418246,
   "Lon": 121.5876602
 },
 {
   "Title": "政賢機車行",
   "Tel": "02-27834062",
   "Address": "臺北市南港區忠孝東路7段564號",
   "Brand": "三陽",
   "Lat": 25.052604,
   "Lon": 121.613301
 },
 {
   "Title": "揚明車業行",
   "Tel": "02-27863608",
   "Address": "臺北市南港區研究院路2段184-2號1樓",
   "Brand": "三陽",
   "Lat": 25.037172,
   "Lon": 121.6172525
 },
 {
   "Title": "億林機車行",
   "Tel": "02-23025528",
   "Address": "臺北市萬華區艋舺大道416號1樓",
   "Brand": "山葉",
   "Lat": 25.0293809,
   "Lon": 121.4924029
 },
 {
   "Title": "一成機車有限公司",
   "Tel": "02-23215118",
   "Address": "臺北市中正區新生南路1段134-1號",
   "Brand": "三陽",
   "Lat": 25.0366337,
   "Lon": 121.5325183
 },
 {
   "Title": "紘益機車行",
   "Tel": "02-23968808",
   "Address": "臺北市中正區牯嶺街77號",
   "Brand": "三陽",
   "Lat": 25.0282127,
   "Lon": 121.5180137
 },
 {
   "Title": "皇信機車行",
   "Tel": "02-27520622",
   "Address": "臺北市大安區濟南路3段68號",
   "Brand": "商會",
   "Lat": 25.0401075,
   "Lon": 121.53721
 },
 {
   "Title": "興陽機車行",
   "Tel": "02-26323772",
   "Address": "臺北市內湖區五分街39號",
   "Brand": "光陽",
   "Lat": 25.0676162,
   "Lon": 121.6136336
 },
 {
   "Title": "誠鎰車業行",
   "Tel": "02-28362220",
   "Address": "臺北市士林區德行東路23號",
   "Brand": "山葉",
   "Lat": 25.1069358,
   "Lon": 121.525865
 },
 {
   "Title": "晴華機械輪業有限公司",
   "Tel": "02-28823552",
   "Address": "臺北市士林區承德路4段364號",
   "Brand": "商會",
   "Lat": 25.0902536,
   "Lon": 121.5168136
 },
 {
   "Title": "翊翔機車行",
   "Tel": "02-25536665",
   "Address": "臺北市大同區錦西街53巷2號",
   "Brand": "三陽",
   "Lat": 25.0600812,
   "Lon": 121.5158706
 },
 {
   "Title": "欣民機車行",
   "Tel": "02-28727544",
   "Address": "臺北市北投區行義路21號",
   "Brand": "山葉",
   "Lat": 25.1250025,
   "Lon": 121.5264233
 },
 {
   "Title": "裕進車業行",
   "Tel": "02-27321673",
   "Address": "臺北市信義區富陽街63號1樓",
   "Brand": "三陽",
   "Lat": 25.0220004,
   "Lon": 121.5565297
 },
 {
   "Title": "小林機車行",
   "Tel": "02-27087471",
   "Address": "臺北市大安區建國南路2段79巷3號",
   "Brand": "商會",
   "Lat": 25.0309503,
   "Lon": 121.5383165
 },
 {
   "Title": "信旺機車材料有限公司",
   "Tel": "02-25090503",
   "Address": "臺北市中山區龍江路389-1號",
   "Brand": "商會",
   "Lat": 25.065227,
   "Lon": 121.5411066
 },
 {
   "Title": "協合機車行",
   "Tel": "02-23752251",
   "Address": "臺北市萬華區和平西路2段147號",
   "Brand": "摩特",
   "Lat": 25.0335682,
   "Lon": 121.5052394
 },
 {
   "Title": "鎧詮機車行",
   "Tel": "02-27992419",
   "Address": "臺北市內湖區內湖路一段31號",
   "Brand": "三陽",
   "Lat": 25.0851795,
   "Lon": 121.5587262
 },
 {
   "Title": "萬聯車業行",
   "Tel": "02-27727739",
   "Address": "臺北市大安區市民大道4段22號1樓",
   "Brand": "商會",
   "Lat": 25.0447032,
   "Lon": 121.5448174
 },
 {
   "Title": "致盛機車行",
   "Tel": "02-23943990",
   "Address": "臺北市大安區金華街118-4號1樓",
   "Brand": "商會",
   "Lat": 25.0300699,
   "Lon": 121.526885
 },
 {
   "Title": "成功車業行",
   "Tel": "02-27961751",
   "Address": "臺北市內湖區金龍路9號",
   "Brand": "三陽",
   "Lat": 25.0845422,
   "Lon": 121.5949769
 },
 {
   "Title": "優購愛馬機車行",
   "Tel": "02-29317227",
   "Address": "臺北市文山區興隆路2段177號",
   "Brand": "商會",
   "Lat": 25.0006819,
   "Lon": 121.5491197
 },
 {
   "Title": "阿國機車行",
   "Tel": "02-28917092",
   "Address": "臺北市北投區大業路663號",
   "Brand": "商會",
   "Lat": 25.137165,
   "Lon": 121.499079
 },
 {
   "Title": "嘉盛車業行",
   "Tel": "02-28126456",
   "Address": "臺北市士林區延平北路6段139號",
   "Brand": "光陽",
   "Lat": 25.0890683,
   "Lon": 121.5077322
 },
 {
   "Title": "永承車業行",
   "Tel": "02-27618169",
   "Address": "臺北市松山區健康路230號",
   "Brand": "山葉",
   "Lat": 25.0538489,
   "Lon": 121.5613839
 },
 {
   "Title": "德龍車業行",
   "Tel": "02-28882256",
   "Address": "臺北市士林區故宮路41巷1號1樓",
   "Brand": "光陽",
   "Lat": 25.096635,
   "Lon": 121.547422
 },
 {
   "Title": "俊明機車行",
   "Tel": "02-27294238",
   "Address": "臺北市信義區吳興街469號",
   "Brand": "山葉",
   "Lat": 25.0238174,
   "Lon": 121.5692102
 },
 {
   "Title": "勵瑩車業有限公司",
   "Tel": "02-27682775",
   "Address": "臺北市信義區松山路348號1樓",
   "Brand": "自營",
   "Lat": 25.0411699,
   "Lon": 121.5776174
 },
 {
   "Title": "順達機車行",
   "Tel": "02-28273761",
   "Address": "臺北市北投區立農街2段206號1樓",
   "Brand": "光陽",
   "Lat": 25.1188104,
   "Lon": 121.5143625
 },
 {
   "Title": "車強機車行",
   "Tel": "02-23067553",
   "Address": "臺北市萬華區環河南路2段105號",
   "Brand": "山葉",
   "Lat": 25.0348884,
   "Lon": 121.4941732
 },
 {
   "Title": "季祥車業行",
   "Tel": "02-27883297",
   "Address": "臺北市南港區研究院路1段45號",
   "Brand": "山葉",
   "Lat": 25.053425,
   "Lon": 121.61653
 },
 {
   "Title": "祥和機車行",
   "Tel": "02-23088967",
   "Address": "臺北市萬華區環河南路2段117號",
   "Brand": "三陽",
   "Lat": 25.0346021,
   "Lon": 121.4939527
 },
 {
   "Title": "車皇機車有限公司",
   "Tel": "02-25961888",
   "Address": "臺北市大同區哈密街63巷1號",
   "Brand": "山葉",
   "Lat": 25.0741838,
   "Lon": 121.5153033
 },
 {
   "Title": "三沅行車業股份有限公司",
   "Tel": "02-87851899",
   "Address": "臺北市信義區忠孝東路5段713號",
   "Brand": "山葉",
   "Lat": 25.04268,
   "Lon": 121.58036
 },
 {
   "Title": "吉財機車行",
   "Tel": "02-25980489",
   "Address": "臺北市大同區哈密街83號1樓",
   "Brand": "三陽",
   "Lat": 25.0730328,
   "Lon": 121.5147955
 },
 {
   "Title": "國裕機車行",
   "Tel": "02-23414867",
   "Address": "臺北市中正區濟南路2段73號",
   "Brand": "三陽",
   "Lat": 25.040405,
   "Lon": 121.532517
 },
 {
   "Title": "玟樺機車行",
   "Tel": "02-27997488",
   "Address": "臺北市內湖區內湖路1段91巷7號",
   "Brand": "光陽",
   "Lat": 25.0847078,
   "Lon": 121.5610964
 },
 {
   "Title": "典輪機車行",
   "Tel": "02-27072733",
   "Address": "臺北市大安區建國南路2段161號",
   "Brand": "商會",
   "Lat": 25.0284567,
   "Lon": 121.5381161
 },
 {
   "Title": "偉翔機車行",
   "Tel": "02-25119195",
   "Address": "臺北市中山區長安東路1段45號",
   "Brand": "山葉",
   "Lat": 25.049034,
   "Lon": 121.525655
 },
 {
   "Title": "展悅機車行",
   "Tel": "02-28949129",
   "Address": "臺北市北投區公館路146號",
   "Brand": "光陽",
   "Lat": 25.1300169,
   "Lon": 121.5296535
 },
 {
   "Title": "僑王機車行",
   "Tel": "02-28205708",
   "Address": "臺北市北投區致遠2路116號",
   "Brand": "光陽",
   "Lat": 25.1172618,
   "Lon": 121.5129581
 },
 {
   "Title": "鴻吉機車行",
   "Tel": "02-22308318",
   "Address": "臺北市文山區興隆路3段117號",
   "Brand": "光陽",
   "Lat": 24.9990486,
   "Lon": 121.558128
 },
 {
   "Title": "慧昌機車行",
   "Tel": "02-86611049",
   "Address": "臺北市文山區木柵路3段102巷7號",
   "Brand": "三陽",
   "Lat": 24.9882779,
   "Lon": 121.567662
 },
 {
   "Title": "駿輝機車行",
   "Tel": "02-28881771",
   "Address": "臺北市士林區大南路295號",
   "Brand": "自營",
   "Lat": 25.0887628,
   "Lon": 121.5187398
 },
 {
   "Title": "福元機車有限公司",
   "Tel": "02-88114500",
   "Address": "臺北市士林區重慶北路4段232號",
   "Brand": "光陽",
   "Lat": 25.0863364,
   "Lon": 121.5112744
 },
 {
   "Title": "賢旻車業有限公司",
   "Tel": "02-27423399",
   "Address": "臺北市松山區八德路4段303號",
   "Brand": "摩特",
   "Lat": 25.0492253,
   "Lon": 121.5665864
 },
 {
   "Title": "新鎰昌機車行",
   "Tel": "02-28313711",
   "Address": "臺北市士林區至誠路1段2-6號",
   "Brand": "三陽",
   "Lat": 25.1012161,
   "Lon": 121.5370693
 },
 {
   "Title": "朝日車業行",
   "Tel": "02-25066372",
   "Address": "臺北市中山區民權東路2段133號",
   "Brand": "三陽",
   "Lat": 25.0627026,
   "Lon": 121.5348817
 },
 {
   "Title": "聯盈機車材料行",
   "Tel": "02-28920623",
   "Address": "臺北市北投區中央北路4段545號1樓",
   "Brand": "商會",
   "Lat": 25.1276954,
   "Lon": 121.4676476
 },
 {
   "Title": "坤達機車行",
   "Tel": "02-26578305",
   "Address": "臺北市內湖區文湖街75號",
   "Brand": "光陽",
   "Lat": 25.0866183,
   "Lon": 121.5636062
 },
 {
   "Title": "峻東機車行",
   "Tel": "02-26337968",
   "Address": "臺北市內湖區東湖路119巷49弄30號",
   "Brand": "三陽",
   "Lat": 25.0701178,
   "Lon": 121.6163648
 },
 {
   "Title": "承鋒車業行",
   "Tel": "02-23080669",
   "Address": "臺北市萬華區西園路2段67之2號",
   "Brand": "三陽",
   "Lat": 25.0308703,
   "Lon": 121.496959
 },
 {
   "Title": "建維機車行",
   "Tel": "02-23410243",
   "Address": "臺北市大安區潮州街86號",
   "Brand": "山葉",
   "Lat": 25.029095,
   "Lon": 121.5246436
 },
 {
   "Title": "力鼎機車行",
   "Tel": "02-27855522",
   "Address": "臺北市南港區永吉路548號",
   "Brand": "光陽",
   "Lat": 25.0451369,
   "Lon": 121.581663
 },
 {
   "Title": "原益車業行",
   "Tel": "02-28128212",
   "Address": "臺北市士林區延平北路5段14號",
   "Brand": "光陽",
   "Lat": 25.0795003,
   "Lon": 121.5113021
 },
 {
   "Title": "卉茂實業有限公司",
   "Tel": "02-28319416",
   "Address": "臺北市士林區文林路764號",
   "Brand": "商會",
   "Lat": 25.103607,
   "Lon": 121.51972
 },
 {
   "Title": "百鉅機車行",
   "Tel": "02-27920086",
   "Address": "臺北市內湖區成功路2段314號",
   "Brand": "商會",
   "Lat": 25.0672691,
   "Lon": 121.5905121
 },
 {
   "Title": "豪信機車行",
   "Tel": "02-27602773",
   "Address": "臺北市信義區松隆路217號",
   "Brand": "商會",
   "Lat": 25.048426,
   "Lon": 121.57665
 },
 {
   "Title": "泓原彰車業行",
   "Tel": "02-25410110",
   "Address": "臺北市中山區中原街23號",
   "Brand": "光陽",
   "Lat": 25.0562611,
   "Lon": 121.5289542
 },
 {
   "Title": "誠鴻機車行",
   "Tel": "02-27939829",
   "Address": "臺北市內湖區民權東路6段60號",
   "Brand": "商會",
   "Lat": 25.0686302,
   "Lon": 121.5848108
 },
 {
   "Title": "大利車業行",
   "Tel": "02-28954867",
   "Address": "臺北市北投區中央北路1段203號",
   "Brand": "商會",
   "Lat": 25.1359069,
   "Lon": 121.497288
 },
 {
   "Title": "樺新車業行",
   "Tel": "02-27212062",
   "Address": "臺北市大安區市民大道4段64號",
   "Brand": "商會",
   "Lat": 25.044845,
   "Lon": 121.546832
 },
 {
   "Title": "永全機車行",
   "Tel": "02-25114713",
   "Address": "臺北市中山區中山北路2段137巷36-2號",
   "Brand": "光陽",
   "Lat": 25.0616082,
   "Lon": 121.5253198
 },
 {
   "Title": "浩成機車行",
   "Tel": "02-28982710",
   "Address": "臺北市北投區崇仁路1段40號",
   "Brand": "商會",
   "Lat": 25.1272558,
   "Lon": 121.5012966
 },
 {
   "Title": "飛皇車業行",
   "Tel": "02-27993707",
   "Address": "臺北市內湖區內湖路2段9號",
   "Brand": "山葉",
   "Lat": 25.0788495,
   "Lon": 121.5792767
 },
 {
   "Title": "豪成機車行",
   "Tel": "02-23085576",
   "Address": "臺北市萬華區和平西路2段190巷5號1樓",
   "Brand": "光陽",
   "Lat": 25.0335475,
   "Lon": 121.5046644
 },
 {
   "Title": "日輝車業有限公司",
   "Tel": "02-28119912",
   "Address": "臺北市士林區延平北路5段41號1樓",
   "Brand": "三陽",
   "Lat": 25.0799134,
   "Lon": 121.5108202
 },
 {
   "Title": "元信機車行有限公司",
   "Tel": "02-29395976",
   "Address": "臺北市文山區木柵路2段125號",
   "Brand": "商會",
   "Lat": 24.9890126,
   "Lon": 121.5620601
 },
 {
   "Title": "益昇機車行",
   "Tel": "02-27208285",
   "Address": "臺北市信義區莊敬路214號",
   "Brand": "光陽",
   "Lat": 25.0301376,
   "Lon": 121.5616141
 },
 {
   "Title": "老羅機車行",
   "Tel": "02-27611373",
   "Address": "臺北市松山區塔悠路206號",
   "Brand": "光陽",
   "Lat": 25.0574373,
   "Lon": 121.5690479
 },
 {
   "Title": "展欣重車開發有限公司",
   "Tel": "02-25231310",
   "Address": "臺北市中山區長春路131-1號",
   "Brand": "光陽",
   "Lat": 25.0549702,
   "Lon": 121.5308208
 }
]