[
 {
   "Title": "順風機車行",
   "Tel": "089-781129",
   "Address": "台東縣太麻里鄉太麻里街451號",
   "Brand": "三陽",
   "Lat": 22.6061512,
   "Lon": 121.0031898
 },
 {
   "Title": "公園機車行",
   "Tel": "089-325548",
   "Address": "台東縣台東市中華路一段794號",
   "Brand": "光陽",
   "Lat": 22.7475437,
   "Lon": 121.1446693
 },
 {
   "Title": "森田機車行",
   "Tel": "089-223702",
   "Address": "台東縣台東市中興路一段616號",
   "Brand": "光陽",
   "Lat": 22.7662806,
   "Lon": 121.1338769
 },
 {
   "Title": "東貫車業有限公司",
   "Tel": "089-310771",
   "Address": "台東縣台東市正氣路457號",
   "Brand": "光陽",
   "Lat": 22.7572128,
   "Lon": 121.1450459
 },
 {
   "Title": "特昇機車行",
   "Tel": "089-222197",
   "Address": "台東縣台東市更生北路58號1樓",
   "Brand": "三陽",
   "Lat": 22.7779442,
   "Lon": 121.1259371
 },
 {
   "Title": "金昌機車行",
   "Tel": "089-325450",
   "Address": "台東縣台東市更生路146號1樓",
   "Brand": "三陽",
   "Lat": 22.7586675,
   "Lon": 121.1483284
 },
 {
   "Title": "永大車業行",
   "Tel": "089-511777",
   "Address": "台東縣台東市知本路三段551號",
   "Brand": "光陽",
   "Lat": 22.7073653,
   "Lon": 121.0445722
 },
 {
   "Title": "全一車業行",
   "Tel": "089-326529",
   "Address": "台東縣台東市新生路213號",
   "Brand": "三陽",
   "Lat": 22.7559341,
   "Lon": 121.1443186
 },
 {
   "Title": "萬煌車業行",
   "Tel": "089-323352",
   "Address": "台東縣台東市新生路263號",
   "Brand": "三陽",
   "Lat": 22.7568983,
   "Lon": 121.1432879
 },
 {
   "Title": "益利車業行",
   "Tel": "089-324769",
   "Address": "台東縣台東市新生路303號",
   "Brand": "山葉",
   "Lat": 22.7575971,
   "Lon": 121.1423552
 },
 {
   "Title": "順陽車業行",
   "Tel": "089-323358",
   "Address": "台東縣台東市新生路307號",
   "Brand": "三陽",
   "Lat": 22.7576925,
   "Lon": 121.142294
 },
 {
   "Title": "陳信宏機車行",
   "Tel": "089-310796",
   "Address": "台東縣台東市新生路626號",
   "Brand": "山葉",
   "Lat": 22.7622292,
   "Lon": 121.1372599
 },
 {
   "Title": "成進機車行",
   "Tel": "089-851246",
   "Address": "台東縣成功鎮中山路52號",
   "Brand": "光陽",
   "Lat": 23.1020019,
   "Lon": 121.3790835
 },
 {
   "Title": "輝昌機車行",
   "Tel": "089-851012",
   "Address": "台東縣成功鎮中華路18號",
   "Brand": "三陽",
   "Lat": 23.0999085,
   "Lon": 121.3770541
 },
 {
   "Title": "東園機車行",
   "Tel": "089-551240",
   "Address": "台東縣鹿野鄉中華路二段159號",
   "Brand": "山葉",
   "Lat": 22.9156337,
   "Lon": 121.1372994
 },
 {
   "Title": "立大機車行",
   "Tel": "089-811312",
   "Address": "台東縣關山鎮和平路152-2號",
   "Brand": "三陽",
   "Lat": 23.0515613,
   "Lon": 121.1654584
 },
 {
   "Title": "金發機車行",
   "Tel": "089-811770",
   "Address": "台東縣關山鎮和平路96號",
   "Brand": "光陽",
   "Lat": 23.0483205,
   "Lon": 121.1643309
 },
 {
   "Title": "東豐車業行",
   "Tel": "089-792089",
   "Address": "台東縣大武鄉大武村大武街18號",
   "Brand": "三陽",
   "Lat": 22.359007,
   "Lon": 120.9064684
 },
 {
   "Title": "裕豐機車行",
   "Tel": "089-781236",
   "Address": "台東縣太麻里鄉太麻里街58號",
   "Brand": "光陽",
   "Lat": 22.6135795,
   "Lon": 121.0071714
 },
 {
   "Title": "和興機車行",
   "Tel": "089-320686",
   "Address": "台東縣台東市中正路260號",
   "Brand": "三陽",
   "Lat": 22.7558214,
   "Lon": 121.1533719
 },
 {
   "Title": "翔泰車業行",
   "Tel": "089-333196",
   "Address": "台東縣台東市中華路一段216號",
   "Brand": "台鈴",
   "Lat": 22.7569442,
   "Lon": 121.1557119
 },
 {
   "Title": "萬帥車業行",
   "Tel": "089-332533",
   "Address": "台東市中華路二段286號",
   "Brand": "三陽.比雅久",
   "Lat": 22.7433376,
   "Lon": 121.135966
 },
 {
   "Title": "佳金機車行",
   "Tel": "089-328750",
   "Address": "台東縣台東市中華路二段812號",
   "Brand": "山葉",
   "Lat": 22.7382723,
   "Lon": 121.1255721
 },
 {
   "Title": "主全機車行",
   "Tel": "089-325202",
   "Address": "台東縣台東市中華路三段220號",
   "Brand": "三陽",
   "Lat": 22.7353122,
   "Lon": 121.1195984
 },
 {
   "Title": "東德機車行",
   "Tel": "089-380511",
   "Address": "台東縣台東市中興路六段756號",
   "Brand": "三陽",
   "Lat": 22.7633579,
   "Lon": 121.0514389
 },
 {
   "Title": "浚貿車業有限公司",
   "Tel": "089-380311",
   "Address": "台東縣台東市中興路六段843號",
   "Brand": "山葉",
   "Lat": 22.762544,
   "Lon": 121.0496284
 },
 {
   "Title": "連豐機車行",
   "Tel": "089-223317",
   "Address": "台東縣台東市更生北路166號",
   "Brand": "光陽",
   "Lat": 22.7797042,
   "Lon": 121.1239347
 },
 {
   "Title": "泉川車業行",
   "Tel": "089-325168",
   "Address": "台東縣台東市精誠路206號",
   "Brand": "台鈴",
   "Lat": 22.7534884,
   "Lon": 121.1562531
 },
 {
   "Title": "祥發機車行",
   "Tel": "089-233669",
   "Address": "台東縣台東市更生路691號",
   "Brand": "山葉",
   "Lat": 22.7669371,
   "Lon": 121.1372367
 },
 {
   "Title": "常興機車行",
   "Tel": "089-281492",
   "Address": "台東縣台東市松江路一段110號",
   "Brand": "光陽",
   "Lat": 22.7940415,
   "Lon": 121.1878474
 },
 {
   "Title": "長興機車行",
   "Tel": "089-513658",
   "Address": "台東縣台東市建興路8號",
   "Brand": "三陽",
   "Lat": 22.7057364,
   "Lon": 121.0400329
 },
 {
   "Title": "樺陽車業行",
   "Tel": "089-341771",
   "Address": "台東縣台東市新生路75號",
   "Brand": "三陽",
   "Lat": 22.7517649,
   "Lon": 121.1491034
 },
 {
   "Title": "宏泰機車行",
   "Tel": "089-325534",
   "Address": "台東縣台東市廣東路273號",
   "Brand": "山葉",
   "Lat": 22.7516696,
   "Lon": 121.1531027
 },
 {
   "Title": "幸主機車行",
   "Tel": "089-850018",
   "Address": "台東縣成功鎮中山路155號",
   "Brand": "三陽",
   "Lat": 23.1049386,
   "Lon": 121.3798392
 },
 {
   "Title": "順億車業行",
   "Tel": "089-864848",
   "Address": "台東縣池上鄉中山路89號",
   "Brand": "YAMAHA",
   "Lat": 23.1217927,
   "Lon": 121.2142871
 },
 {
   "Title": "義興機車行",
   "Tel": "089-862490",
   "Address": "台東縣池上鄉福文村大同路33號",
   "Brand": "三陽",
   "Lat": 23.1266708,
   "Lon": 121.2177815
 },
 {
   "Title": "萬豐車業行",
   "Tel": "089-862458",
   "Address": "台東縣池上鄉福原村慶福路69號",
   "Brand": "三陽",
   "Lat": 23.1254187,
   "Lon": 121.2222963
 },
 {
   "Title": "天鎰機車行",
   "Tel": "089-382592",
   "Address": "台東縣卑南鄉太平村太平路362號",
   "Brand": "光陽",
   "Lat": 22.7842346,
   "Lon": 121.0842853
 },
 {
   "Title": "皇泰機車行",
   "Tel": "089-831282",
   "Address": "台東縣長濱鄉長濱村長濱路90號",
   "Brand": "三陽",
   "Lat": 23.3198099,
   "Lon": 121.4601515
 },
 {
   "Title": "振發機車行",
   "Tel": "089-551060",
   "Address": "台東縣鹿野鄉鹿野村中華路二段119號",
   "Brand": "三陽",
   "Lat": 22.9134689,
   "Lon": 121.1360626
 },
 {
   "Title": "裕成機車行",
   "Tel": "089-811158",
   "Address": "台東縣關山鎮和平路1-10號",
   "Brand": "山葉",
   "Lat": 23.0453804,
   "Lon": 121.1628714
 },
 {
   "Title": "佳欣機車行",
   "Tel": "089-871289",
   "Address": "台東縣成功鎮忠孝里成廣路43號",
   "Brand": "光陽",
   "Lat": 23.1597603,
   "Lon": 121.4016982
 },
 {
   "Title": "永豐機車行",
   "Tel": "089-326328",
   "Address": "台東市新生路88號",
   "Brand": "光陽",
   "Lat": 22.7517888,
   "Lon": 121.1491307
 },
 {
   "Title": "三聖機車行",
   "Tel": "089-515880",
   "Address": "台東縣台東市知本路二段157號1樓",
   "Brand": "三陽",
   "Lat": 22.7135701,
   "Lon": 121.0756738
 },
 {
   "Title": "全新機車行",
   "Tel": "089-381593",
   "Address": "台東市中興路四段344號",
   "Brand": "三陽",
   "Lat": 22.774272,
   "Lon": 121.0961227
 },
 {
   "Title": "名群機車行",
   "Tel": "089-224205",
   "Address": "台東縣台東市南王里更生北路646號",
   "Brand": "山葉",
   "Lat": 22.7861722,
   "Lon": 121.1147412
 },
 {
   "Title": "東山機車行",
   "Tel": "089-811442",
   "Address": "台東縣關山鎮月眉里中和路83號",
   "Brand": "山葉",
   "Lat": 23.0072938,
   "Lon": 121.1538564
 },
 {
   "Title": "進億機車行",
   "Tel": "089-223575",
   "Address": "台東市更生北路446號1樓",
   "Brand": "光陽",
   "Lat": 22.7833818,
   "Lon": 121.1185696
 },
 {
   "Title": "東聖車業行",
   "Tel": "089-862797",
   "Address": "台東縣池上鄉慶福路47之2號1樓",
   "Brand": "光陽",
   "Lat": 23.125733,
   "Lon": 121.2215284
 },
 {
   "Title": "新東輪車業行",
   "Tel": "089-891151",
   "Address": "台東縣東河鄉北源村1鄰柑桔林12號",
   "Brand": "三陽",
   "Lat": 23.0020103,
   "Lon": 121.2880574
 },
 {
   "Title": "盛順機車行",
   "Tel": "089-551899",
   "Address": "臺東縣鹿野鄉龍田村9鄰光榮路492號",
   "Brand": "三陽",
   "Lat": 22.9041702,
   "Lon": 121.1161369
 }
]