[
 {
   "Title": "茂聖輪業有限公司",
   "Tel": "03-3322731",
   "Address": "桃園市桃園區永安路133號",
   "Brand": "三陽",
   "Lat": 24.996916,
   "Lon": 121.305975
 },
 {
   "Title": "易昇車業有限公司",
   "Tel": "03-3330296",
   "Address": "桃園市桃園區永安路243號",
   "Brand": "光陽",
   "Lat": 24.9984739,
   "Lon": 121.303083
 },
 {
   "Title": "均冠機車行",
   "Tel": "03-3253652",
   "Address": "桃園市桃園區大興里春日路768號1樓",
   "Brand": "光陽",
   "Lat": 25.0129689,
   "Lon": 121.3097928
 },
 {
   "Title": "政大輪業有限公司",
   "Tel": "03-3256666",
   "Address": "桃園市桃園區慈文路117號",
   "Brand": "光陽",
   "Lat": 25.009194,
   "Lon": 121.304607
 },
 {
   "Title": "合興機車行",
   "Tel": "03-3697557",
   "Address": "桃園市桃園區上海路99號",
   "Brand": "台鈴",
   "Lat": 24.9911156,
   "Lon": 121.282605
 },
 {
   "Title": "富國機業有限公司",
   "Tel": "03-3375666",
   "Address": "桃園市桃園區民生路399號",
   "Brand": "三陽",
   "Lat": 25.0002606,
   "Lon": 121.3103531
 },
 {
   "Title": "松輪機車有限公司",
   "Tel": "03-3614966",
   "Address": "桃園市桃園區介壽路479號",
   "Brand": "三陽",
   "Lat": 24.9775929,
   "Lon": 121.303642
 },
 {
   "Title": "進興輪業有限公司",
   "Tel": "03-3356566",
   "Address": "桃園市桃園區中山路410號",
   "Brand": "山葉",
   "Lat": 24.992058,
   "Lon": 121.3032529
 },
 {
   "Title": "勝輇車業行",
   "Tel": "03-3166029",
   "Address": "桃園市桃園區大業路一段413號",
   "Brand": "三陽",
   "Lat": 25.014543,
   "Lon": 121.311501
 },
 {
   "Title": "正昇機車行",
   "Tel": "03-3252247",
   "Address": "桃園市桃園區經國路260號",
   "Brand": "山葉",
   "Lat": 25.021118,
   "Lon": 121.303873
 },
 {
   "Title": "名源輪業有限公司",
   "Tel": "03-3622387",
   "Address": "桃園市桃園區三民路三段563號",
   "Brand": "山葉",
   "Lat": 24.9840869,
   "Lon": 121.307632
 },
 {
   "Title": "千輪車業有限公司",
   "Tel": "03-4514059",
   "Address": "桃園市中壢區中華路一段893號",
   "Brand": "三陽",
   "Lat": 24.9668819,
   "Lon": 121.24467
 },
 {
   "Title": "宏聯車業有限公司",
   "Tel": "03-4336361",
   "Address": "桃園市中壢區永福路971號",
   "Brand": "光陽",
   "Lat": 24.9634051,
   "Lon": 121.2529847
 },
 {
   "Title": "摩都實業有限公司",
   "Tel": "03-4256866",
   "Address": "桃園市中壢區延平路469號",
   "Brand": "光陽",
   "Lat": 24.957803,
   "Lon": 121.2240731
 },
 {
   "Title": "慶東機車行",
   "Tel": "03-4578688",
   "Address": "桃園市中壢區東興里龍岡路一段121號1樓",
   "Brand": "台鈴",
   "Lat": 24.9495752,
   "Lon": 121.2239969
 },
 {
   "Title": "正興車業有限公司",
   "Tel": "03-4937297",
   "Address": "桃園市中壢區志廣路48號",
   "Brand": "台鈴",
   "Lat": 24.9607429,
   "Lon": 121.2084629
 },
 {
   "Title": "玉光輪業有限公司",
   "Tel": "03-4561125",
   "Address": "桃園市中壢區中山東路二段63號",
   "Brand": "光陽",
   "Lat": 24.9539313,
   "Lon": 121.2381152
 },
 {
   "Title": "源豐車業行",
   "Tel": "03-3613556",
   "Address": "桃園市八德區介壽路一段683號",
   "Brand": "山葉",
   "Lat": 24.965451,
   "Lon": 121.300923
 },
 {
   "Title": "昭暘車業行",
   "Tel": "03-3666370",
   "Address": "桃園市八德區和平路50號",
   "Brand": "三陽",
   "Lat": 24.9573029,
   "Lon": 121.300462
 },
 {
   "Title": "輇興輪業有限公司",
   "Tel": "03-3615992",
   "Address": "桃園市八德區介壽路一段750號",
   "Brand": "山葉",
   "Lat": 24.9639811,
   "Lon": 121.3001742
 },
 {
   "Title": "僑陽車業有限公司",
   "Tel": "02-82092121",
   "Address": "桃園市龜山區萬壽路一段237號",
   "Brand": "三陽",
   "Lat": 25.0177818,
   "Lon": 121.4049008
 },
 {
   "Title": "國廣車店",
   "Tel": "03-3504035",
   "Address": "桃園市龜山區萬壽路二段36號",
   "Brand": "光陽",
   "Lat": 25.0020769,
   "Lon": 121.3630336
 },
 {
   "Title": "宏信機車行",
   "Tel": "03-3201262",
   "Address": "桃園市龜山區萬壽路二段890號",
   "Brand": "三陽",
   "Lat": 24.9959403,
   "Lon": 121.3393517
 },
 {
   "Title": "政馨車業有限公司",
   "Tel": "03-3203000",
   "Address": "桃園市龜山區萬壽路二段906號",
   "Brand": "山葉",
   "Lat": 24.9957569,
   "Lon": 121.3390219
 },
 {
   "Title": "正龍車業有限公司",
   "Tel": "03-3803885",
   "Address": "桃園市大溪區介壽路1241號",
   "Brand": "光陽",
   "Lat": 24.8985852,
   "Lon": 121.2846794
 },
 {
   "Title": "昌達車業有限公司",
   "Tel": "03-3224257",
   "Address": "桃園市蘆竹區中正路349號",
   "Brand": "光陽",
   "Lat": 25.0487262,
   "Lon": 121.2911938
 },
 {
   "Title": "固輪車業行",
   "Tel": "03-3862837",
   "Address": "桃園市大園區中正東路46號",
   "Brand": "三陽",
   "Lat": 25.0634224,
   "Lon": 121.1987285
 },
 {
   "Title": "輝迎車業有限公司",
   "Tel": "03-3837776",
   "Address": "桃園市大園區竹圍街47之50號",
   "Brand": "光陽",
   "Lat": 25.1062846,
   "Lon": 121.2430652
 },
 {
   "Title": "富揚車業有限公司",
   "Tel": "03-3862347",
   "Address": "桃園市大園區華興路5號",
   "Brand": "光陽",
   "Lat": 25.0649185,
   "Lon": 121.1931882
 },
 {
   "Title": "宏政展業有限公司",
   "Tel": "03-4782019",
   "Address": "桃園市楊梅區秀才路8、10號",
   "Brand": "光陽",
   "Lat": 24.9060563,
   "Lon": 121.143508
 },
 {
   "Title": "楙錩車業有限公司",
   "Tel": "03-4823233",
   "Address": "桃園市楊梅區文化街15號",
   "Brand": "山葉",
   "Lat": 24.9161091,
   "Lon": 121.1851975
 },
 {
   "Title": "富聖車業行",
   "Tel": "03-4782872",
   "Address": "桃園市楊梅區中山路115號",
   "Brand": "三陽",
   "Lat": 24.9069422,
   "Lon": 121.1459937
 },
 {
   "Title": "日展輪業有限公司",
   "Tel": "03-4820168",
   "Address": "桃園市楊梅區永美路358號",
   "Brand": "三陽",
   "Lat": 24.9169998,
   "Lon": 121.1814691
 },
 {
   "Title": "慶璋輪業有限公司",
   "Tel": "03-4782558",
   "Address": "桃園市楊梅區梅新里中山路66號1樓",
   "Brand": "山葉",
   "Lat": 24.9073695,
   "Lon": 121.1470747
 },
 {
   "Title": "首席車業有限公司",
   "Tel": "03-4792979",
   "Address": "桃園市龍潭區中興路258號",
   "Brand": "三陽",
   "Lat": 24.8743774,
   "Lon": 121.2346159
 },
 {
   "Title": "億龍輪業行",
   "Tel": "03-4792956",
   "Address": "桃園市龍潭區北龍路208號",
   "Brand": "山葉",
   "Lat": 24.8669676,
   "Lon": 121.2158795
 },
 {
   "Title": "聖龍車業有限公司",
   "Tel": "03-4792796",
   "Address": "桃園市龍潭區中正路126號",
   "Brand": "三陽",
   "Lat": 24.8667547,
   "Lon": 121.2163417
 },
 {
   "Title": "泉烽車業有限公司",
   "Tel": "03-4935418",
   "Address": "桃園市平鎮區義民路196號",
   "Brand": "三陽",
   "Lat": 24.9515653,
   "Lon": 121.213943
 },
 {
   "Title": "中平車業有限公司",
   "Tel": "03-4927173",
   "Address": "桃園市平鎮區中豐路32之1號",
   "Brand": "三陽",
   "Lat": 24.9497596,
   "Lon": 121.2176401
 },
 {
   "Title": "永業機車行",
   "Tel": "03-4773661",
   "Address": "桃園市新屋區中華路419號",
   "Brand": "三陽",
   "Lat": 24.9768837,
   "Lon": 121.1063034
 },
 {
   "Title": "旭億車業有限公司",
   "Tel": "03-4772179",
   "Address": "桃園市新屋區中山路247號",
   "Brand": "光陽",
   "Lat": 24.9727199,
   "Lon": 121.106237
 },
 {
   "Title": "順通機車行",
   "Tel": "03-3862709",
   "Address": "桃園市大園區中山南路183號",
   "Brand": "台鈴",
   "Lat": 25.0606202,
   "Lon": 121.1988052
 },
 {
   "Title": "榮大車業行",
   "Tel": "03-4981366",
   "Address": "桃園市觀音區中山路二段588號",
   "Brand": "三陽",
   "Lat": 25.0134603,
   "Lon": 121.1346417
 },
 {
   "Title": "益輪車業行",
   "Tel": "03-3611667",
   "Address": "桃園市八德區介壽路一段975號",
   "Brand": "台鈴",
   "Lat": 24.9589427,
   "Lon": 121.2997819
 },
 {
   "Title": "昇旺輪業有限公司",
   "Tel": "03-3615391",
   "Address": "桃園市八德區介壽路一段685號",
   "Brand": "三陽",
   "Lat": 24.9654328,
   "Lon": 121.3007947
 },
 {
   "Title": "福欣車業有限公司",
   "Tel": "03-3681717",
   "Address": "桃園市八德區建國路9號",
   "Brand": "三陽",
   "Lat": 24.9309819,
   "Lon": 121.2845946
 },
 {
   "Title": "日誠車業有限公司",
   "Tel": "03-3862048",
   "Address": "桃園市大園區中正東路27號",
   "Brand": "山葉",
   "Lat": 25.064164,
   "Lon": 121.198349
 },
 {
   "Title": "金連盈車業有限公司",
   "Tel": "03-3861531",
   "Address": "桃園市大園區中山北路176號",
   "Brand": "光陽",
   "Lat": 25.0681152,
   "Lon": 121.1954881
 },
 {
   "Title": "銓鑫車業行",
   "Tel": "03-3851885",
   "Address": "桃園市大園區和平西路2號",
   "Brand": "三陽",
   "Lat": 25.0599895,
   "Lon": 121.1988977
 },
 {
   "Title": "聯成車業有限公司",
   "Tel": "03-4225952",
   "Address": "桃園市中壢區延平路290號",
   "Brand": "三陽",
   "Lat": 24.9611497,
   "Lon": 121.2261651
 },
 {
   "Title": "明進機車行",
   "Tel": "03-4561305",
   "Address": "桃園市中壢區中山東路四段49號",
   "Brand": "三陽",
   "Lat": 24.9363656,
   "Lon": 121.2558469
 },
 {
   "Title": "常新車業有限公司",
   "Tel": "03-4922099",
   "Address": "桃園市中壢區民權路二段18號",
   "Brand": "三陽",
   "Lat": 24.9652528,
   "Lon": 121.2169095
 },
 {
   "Title": "龍楠實業有限公司",
   "Tel": "03-4625850",
   "Address": "桃園市中壢區延平路150號",
   "Brand": "光陽",
   "Lat": 24.962971,
   "Lon": 121.229052
 },
 {
   "Title": "欣楠輪業有限公司",
   "Tel": "03-4525470",
   "Address": "桃園市中壢區延平路154號",
   "Brand": "三陽",
   "Lat": 24.96292,
   "Lon": 121.228964
 },
 {
   "Title": "捷揚車業股份有限公司",
   "Tel": "03-4518558",
   "Address": "桃園市中壢區莊敬路112號",
   "Brand": "三陽",
   "Lat": 24.9696385,
   "Lon": 121.2572329
 },
 {
   "Title": "鈞隆車業行",
   "Tel": "03-4554651",
   "Address": "桃園市中壢區忠孝路226號",
   "Brand": "三陽",
   "Lat": 24.9777465,
   "Lon": 121.2546929
 },
 {
   "Title": "胤興車業行",
   "Tel": "03-4565984",
   "Address": "桃園市中壢區中北路54號",
   "Brand": "山葉",
   "Lat": 24.9558669,
   "Lon": 121.237047
 },
 {
   "Title": "吉星機車行",
   "Tel": "03-4573945",
   "Address": "桃園市中壢區健行路212號",
   "Brand": "三陽",
   "Lat": 24.9476557,
   "Lon": 121.2279324
 },
 {
   "Title": "本鈿機車行",
   "Tel": "03-4228270",
   "Address": "桃園市中壢區興南里大同路6號1樓",
   "Brand": "三陽",
   "Lat": 24.959065,
   "Lon": 121.224095
 },
 {
   "Title": "今豪車業有限公司",
   "Tel": "03-4920813",
   "Address": "桃園市中壢區新明路13號",
   "Brand": "三陽",
   "Lat": 24.9575062,
   "Lon": 121.2144786
 },
 {
   "Title": "俊勝機車行",
   "Tel": "03-4580785",
   "Address": "桃園市中壢區龍岡路三段7號",
   "Brand": "山葉",
   "Lat": 24.9389489,
   "Lon": 121.23151
 },
 {
   "Title": "和昇機車行",
   "Tel": "03-4581191",
   "Address": "桃園市平鎮區金陵路240號",
   "Brand": "三陽",
   "Lat": 24.9448569,
   "Lon": 121.221839
 },
 {
   "Title": "偉豐機車行",
   "Tel": "03-4690163",
   "Address": "桃園市平鎮區南豐路177號",
   "Brand": "三陽",
   "Lat": 24.8998272,
   "Lon": 121.2064877
 },
 {
   "Title": "通台輪業有限公司",
   "Tel": "03-3381739",
   "Address": "桃園市桃園區中山路207號",
   "Brand": "山葉",
   "Lat": 24.9928831,
   "Lon": 121.3082442
 },
 {
   "Title": "億豐機車有限公司",
   "Tel": "03-3263636",
   "Address": "桃園市桃園區永安路608號",
   "Brand": "三陽",
   "Lat": 25.0033901,
   "Lon": 121.297219
 },
 {
   "Title": "豐田輪業行",
   "Tel": "03-4901339",
   "Address": "桃園市新屋區民族路六段7號",
   "Brand": "光陽",
   "Lat": 24.9581762,
   "Lon": 121.1657223
 },
 {
   "Title": "三江機車行",
   "Tel": "03-4828112",
   "Address": "桃園市楊梅區中山北路二段453號",
   "Brand": "三陽",
   "Lat": 24.91306,
   "Lon": 121.1769723
 },
 {
   "Title": "泓泰機車行",
   "Tel": "03-4783675",
   "Address": "桃園市楊梅區中山路111號",
   "Brand": "光陽",
   "Lat": 24.9069847,
   "Lon": 121.1461228
 },
 {
   "Title": "運達車業有限公司",
   "Tel": "03-4902609",
   "Address": "桃園市楊梅區民族路五段17號",
   "Brand": "三陽",
   "Lat": 24.959111,
   "Lon": 121.176441
 },
 {
   "Title": "忠旺車業有限公司",
   "Tel": "03-4783539",
   "Address": "桃園市楊梅區光復街11號",
   "Brand": "三陽",
   "Lat": 24.912058,
   "Lon": 121.1454432
 },
 {
   "Title": "榮春機車行",
   "Tel": "03-4792582",
   "Address": "桃園市龍潭區中興路537號",
   "Brand": "台鈴",
   "Lat": 24.871232,
   "Lon": 121.225597
 },
 {
   "Title": "德鎮車業有限公司",
   "Tel": "02-82006485",
   "Address": "桃園市龜山區萬壽路一段127號",
   "Brand": "光陽",
   "Lat": 25.0184489,
   "Lon": 121.4083609
 },
 {
   "Title": "今一機車行",
   "Tel": "02-82092307",
   "Address": "桃園市龜山區萬壽路一段349號",
   "Brand": "山葉",
   "Lat": 25.0170999,
   "Lon": 121.4016642
 },
 {
   "Title": "宏聯車業行",
   "Tel": "03-3683093",
   "Address": "桃園市八德區中山路129號",
   "Brand": "光陽",
   "Lat": 24.9276492,
   "Lon": 121.2845347
 },
 {
   "Title": "源章車業行",
   "Tel": "03-3669221",
   "Address": "桃園市八德區介壽路二段8號",
   "Brand": "山葉",
   "Lat": 24.9574861,
   "Lon": 121.2990077
 },
 {
   "Title": "振發機車行",
   "Tel": "03-3682536",
   "Address": "桃園市八德區介壽路二段1151號",
   "Brand": "三陽",
   "Lat": 24.9321266,
   "Lon": 121.2974898
 },
 {
   "Title": "正野車業行",
   "Tel": "03-3752336",
   "Address": "桃園市八德區義勇街103號",
   "Brand": "台鈴",
   "Lat": 24.9637423,
   "Lon": 121.3039397
 },
 {
   "Title": "詮興輪業有限公司",
   "Tel": "03-3610508",
   "Address": "桃園市八德區廣福路200號1樓",
   "Brand": "山葉",
   "Lat": 24.9597021,
   "Lon": 121.2946484
 },
 {
   "Title": "長信機車行",
   "Tel": "03-3686762",
   "Address": "桃園市八德區興豐路304之2號",
   "Brand": "山葉",
   "Lat": 24.9291649,
   "Lon": 121.2862
 },
 {
   "Title": "千承車業行",
   "Tel": "03-3654222",
   "Address": "桃園市八德區興豐路844號",
   "Brand": "三陽",
   "Lat": 24.933003,
   "Lon": 121.300326
 },
 {
   "Title": "大興機車行",
   "Tel": "03-3862827",
   "Address": "桃園市大園區新興路75號",
   "Brand": "三陽",
   "Lat": 25.0629771,
   "Lon": 121.1949008
 },
 {
   "Title": "三禾機車行",
   "Tel": "03-3830181",
   "Address": "桃園市大園區菓林里菓林路146號",
   "Brand": "三陽",
   "Lat": 25.078111,
   "Lon": 121.2575796
 },
 {
   "Title": "新達機車行",
   "Tel": "03-3837083",
   "Address": "桃園市大園區三民路一段39號",
   "Brand": "三陽",
   "Lat": 25.1062388,
   "Lon": 121.2455092
 },
 {
   "Title": "正山車業有限公司",
   "Tel": "03-3801937",
   "Address": "桃園市大溪區仁和路一段308號",
   "Brand": "光陽",
   "Lat": 24.9021856,
   "Lon": 121.2737548
 },
 {
   "Title": "達新機車行",
   "Tel": "03-3807898",
   "Address": "桃園市大溪區介壽路959號",
   "Brand": "光陽",
   "Lat": 24.9048339,
   "Lon": 121.285063
 },
 {
   "Title": "健生車業行",
   "Tel": "03-3807779",
   "Address": "桃園市大溪區介壽路1195號",
   "Brand": "三陽",
   "Lat": 24.899846,
   "Lon": 121.284073
 },
 {
   "Title": "勝大機車行",
   "Tel": "03-3807432",
   "Address": "桃園市大溪區員林路二段325號",
   "Brand": "山葉",
   "Lat": 24.8847489,
   "Lon": 121.26923
 },
 {
   "Title": "權益車業行",
   "Tel": "03-4254569",
   "Address": "桃園市中壢區中山路60號",
   "Brand": "山葉",
   "Lat": 24.955404,
   "Lon": 121.22688
 },
 {
   "Title": "合豐車業行",
   "Tel": "03-4925950",
   "Address": "桃園市中壢區中山路576號",
   "Brand": "山葉",
   "Lat": 24.9577779,
   "Lon": 121.2135273
 },
 {
   "Title": "華林機車行",
   "Tel": "03-4368379",
   "Address": "桃園市中壢區中北路42號",
   "Brand": "光陽",
   "Lat": 24.955783,
   "Lon": 121.236753
 },
 {
   "Title": "明升車業有限公司",
   "Tel": "03-4010899",
   "Address": "桃園市中壢區中正路624號",
   "Brand": "光陽",
   "Lat": 24.9597355,
   "Lon": 121.2108507
 },
 {
   "Title": "坤祥機車行",
   "Tel": "03-4562229",
   "Address": "桃園市中壢區中山東路三段232號",
   "Brand": "山葉",
   "Lat": 24.9420625,
   "Lon": 121.2502838
 },
 {
   "Title": "旭昇輪業行",
   "Tel": "03-4625053",
   "Address": "桃園市中壢區延平路148號",
   "Brand": "台鈴",
   "Lat": 24.96307,
   "Lon": 121.229004
 },
 {
   "Title": "尚達車業有限公司",
   "Tel": "03-4223832",
   "Address": "桃園市中壢區中豐路77號",
   "Brand": "摩特",
   "Lat": 24.962869,
   "Lon": 121.220167
 },
 {
   "Title": "鍵興機車行",
   "Tel": "03-4556879",
   "Address": "桃園市中壢區文化路130巷35號",
   "Brand": "三陽",
   "Lat": 24.9750857,
   "Lon": 121.2552584
 },
 {
   "Title": "聯合機車行",
   "Tel": "03-4661297",
   "Address": "桃園市中壢區莒光路97號",
   "Brand": "三陽",
   "Lat": 24.9516283,
   "Lon": 121.2363762
 },
 {
   "Title": "盛達機車行",
   "Tel": "03-4566372",
   "Address": "桃園市中壢區華勛街268號",
   "Brand": "三陽",
   "Lat": 24.9483557,
   "Lon": 121.2603334
 },
 {
   "Title": "億昌機車行",
   "Tel": "03-4358100",
   "Address": "桃園市中壢區永福路957號",
   "Brand": "光陽",
   "Lat": 24.9629339,
   "Lon": 121.2533052
 },
 {
   "Title": "三帝車業有限公司",
   "Tel": "03-4220180",
   "Address": "桃園市中壢區新生路193號",
   "Brand": "三陽",
   "Lat": 24.961685,
   "Lon": 121.222678
 },
 {
   "Title": "昇輝機車行",
   "Tel": "03-4532920",
   "Address": "桃園市中壢區興和里新生路二段377號",
   "Brand": "三陽",
   "Lat": 24.9841637,
   "Lon": 121.2224127
 },
 {
   "Title": "星銘機車行",
   "Tel": "03-4926910",
   "Address": "桃園市中壢區新明路52號",
   "Brand": "山葉",
   "Lat": 24.95828,
   "Lon": 121.214999
 },
 {
   "Title": "志揚機車行",
   "Tel": "03-4554953",
   "Address": "桃園市中壢區榮民路155號",
   "Brand": "光陽",
   "Lat": 24.9669994,
   "Lon": 121.260829
 },
 {
   "Title": "晟峰車業行",
   "Tel": "03-4528239",
   "Address": "桃園市中壢區福州二街479號",
   "Brand": "光陽",
   "Lat": 24.9684426,
   "Lon": 121.2337533
 },
 {
   "Title": "侑昇機車行",
   "Tel": "03-4557318",
   "Address": "桃園市中壢區興仁路二段703號",
   "Brand": "山葉",
   "Lat": 24.9562389,
   "Lon": 121.264843
 },
 {
   "Title": "亨威機車行",
   "Tel": "03-4581300",
   "Address": "桃園市中壢區龍岡路二段101號",
   "Brand": "光陽",
   "Lat": 24.9458063,
   "Lon": 121.2291855
 },
 {
   "Title": "裕成機車行",
   "Tel": "03-4584215",
   "Address": "桃園市中壢區龍岡路三段126號",
   "Brand": "摩特",
   "Lat": 24.936613,
   "Lon": 121.232844
 },
 {
   "Title": "天王星機車行",
   "Tel": "03-4690642",
   "Address": "桃園市平鎮區湧光里中豐路山頂段232號1樓",
   "Brand": "光陽",
   "Lat": 24.8987212,
   "Lon": 121.2108406
 },
 {
   "Title": "源大車業",
   "Tel": "03-4030059",
   "Address": "桃園市平鎮區中豐路南勢一段161號",
   "Brand": "摩特",
   "Lat": 24.9204617,
   "Lon": 121.2114165
 },
 {
   "Title": "聖昌車業行",
   "Tel": "03-4392681",
   "Address": "桃園市平鎮區中豐路南勢二段264號",
   "Brand": "三陽",
   "Lat": 24.9121019,
   "Lon": 121.210794
 },
 {
   "Title": "國珍機車行",
   "Tel": "03-4692792",
   "Address": "桃園市平鎮區中豐路莊敬段47號",
   "Brand": "台鈴",
   "Lat": 24.9058491,
   "Lon": 121.2119703
 },
 {
   "Title": "聖協車業行",
   "Tel": "03-4010530",
   "Address": "桃園市平鎮區文化街196號",
   "Brand": "光陽",
   "Lat": 24.9523214,
   "Lon": 121.2031577
 },
 {
   "Title": "欣泰機車行",
   "Tel": "03-4508193",
   "Address": "桃園市平鎮區平東路510號",
   "Brand": "三陽",
   "Lat": 24.9130771,
   "Lon": 121.244115
 },
 {
   "Title": "台品機車行",
   "Tel": "03-4688128",
   "Address": "桃園市平鎮區金陵路244號",
   "Brand": "山葉",
   "Lat": 24.944747,
   "Lon": 121.2218386
 },
 {
   "Title": "錦宏機車行",
   "Tel": "03-4585066",
   "Address": "桃園市平鎮區金陵路二段370號",
   "Brand": "光陽",
   "Lat": 24.9347029,
   "Lon": 121.224968
 },
 {
   "Title": "富晟機車行",
   "Tel": "03-4398936",
   "Address": "桃園市平鎮區安平里南平路125號1樓",
   "Brand": "光陽",
   "Lat": 24.9296022,
   "Lon": 121.2053963
 },
 {
   "Title": "維興機車行",
   "Tel": "03-4642335",
   "Address": "桃園市平鎮區陸橋南路113號",
   "Brand": "三陽",
   "Lat": 24.923726,
   "Lon": 121.1880103
 },
 {
   "Title": "協旺機車行",
   "Tel": "03-4501693",
   "Address": "桃園市平鎮區龍南路15號",
   "Brand": "山葉",
   "Lat": 24.924892,
   "Lon": 121.2447818
 },
 {
   "Title": "勝光機車材料行",
   "Tel": "03-4506165",
   "Address": "桃園市平鎮區龍南路245號",
   "Brand": "山葉",
   "Lat": 24.9214234,
   "Lon": 121.2519264
 },
 {
   "Title": "弘順機車行",
   "Tel": "03-3787293",
   "Address": "桃園市桃園區中山路770號",
   "Brand": "三陽",
   "Lat": 24.99127,
   "Lon": 121.29192
 },
 {
   "Title": "正漢機車行",
   "Tel": "03-3629643",
   "Address": "桃園市桃園區介壽路53號",
   "Brand": "山葉",
   "Lat": 24.98497,
   "Lon": 121.310675
 },
 {
   "Title": "翔富車業有限公司",
   "Tel": "03-3325786",
   "Address": "桃園市桃園區民生路418號",
   "Brand": "摩特",
   "Lat": 24.9985669,
   "Lon": 121.3115651
 },
 {
   "Title": "建榮機車行",
   "Tel": "03-3014988",
   "Address": "桃園市桃園區中成里永安路607號1樓",
   "Brand": "三陽",
   "Lat": 25.0057088,
   "Lon": 121.2945807
 },
 {
   "Title": "錫興車行",
   "Tel": "03-3349430",
   "Address": "桃園市桃園區自強路226號",
   "Brand": "光陽",
   "Lat": 25.0010128,
   "Lon": 121.3171545
 },
 {
   "Title": "宏興機車行",
   "Tel": "03-3261973",
   "Address": "桃園市桃園區春日路820號",
   "Brand": "三陽",
   "Lat": 25.0140858,
   "Lon": 121.3096539
 },
 {
   "Title": "新順發車業有限公司",
   "Tel": "03-3628940",
   "Address": "桃園市桃園區桃鶯路153號",
   "Brand": "光陽",
   "Lat": 24.9859238,
   "Lon": 121.3181317
 },
 {
   "Title": "政輪機車行",
   "Tel": "03-3619235",
   "Address": "桃園市桃園區桃鶯路361之3號",
   "Brand": "三陽",
   "Lat": 24.9806042,
   "Lon": 121.3198471
 },
 {
   "Title": "鑫興車業行",
   "Tel": "03-3357453",
   "Address": "桃園市桃園區廈門街17號",
   "Brand": "三陽",
   "Lat": 24.994592,
   "Lon": 121.299638
 },
 {
   "Title": "億鑫機車行",
   "Tel": "03-3793249",
   "Address": "桃園市桃園區國豐七街189號",
   "Brand": "台鈴",
   "Lat": 24.9917469,
   "Lon": 121.2760776
 },
 {
   "Title": "建信機車行",
   "Tel": "03-4772908",
   "Address": "桃園市新屋區中山西路一段565號",
   "Brand": "三陽",
   "Lat": 24.9764042,
   "Lon": 121.0831744
 },
 {
   "Title": "福泰輪業有限公司",
   "Tel": "03-4772075",
   "Address": "桃園市新屋區中山路254號",
   "Brand": "光陽",
   "Lat": 24.9727837,
   "Lon": 121.1076197
 },
 {
   "Title": "中興機車行",
   "Tel": "03-4774956",
   "Address": "桃園市新屋區中興路59號",
   "Brand": "光陽",
   "Lat": 24.971421,
   "Lon": 121.102816
 },
 {
   "Title": "宇晨車業行",
   "Tel": "03-4905272",
   "Address": "桃園市楊梅區民族路五段185號",
   "Brand": "光陽",
   "Lat": 24.9585894,
   "Lon": 121.1726123
 },
 {
   "Title": "裕豐輪業行",
   "Tel": "03-4822558",
   "Address": "桃園市楊梅區永美路155號",
   "Brand": "光陽",
   "Lat": 24.920343,
   "Lon": 121.1850906
 },
 {
   "Title": "長盛車業行",
   "Tel": "03-4723265",
   "Address": "桃園市楊梅區信義街40號",
   "Brand": "光陽",
   "Lat": 24.9354593,
   "Lon": 121.0841122
 },
 {
   "Title": "崇富機車行",
   "Tel": "03-4727987",
   "Address": "桃園市楊梅區信義街157號",
   "Brand": "三陽",
   "Lat": 24.9360987,
   "Lon": 121.0830844
 },
 {
   "Title": "宇翔車業",
   "Tel": "03-4783841",
   "Address": "桃園市楊梅區楊新北路277號",
   "Brand": "台鈴",
   "Lat": 24.912557,
   "Lon": 121.1530076
 },
 {
   "Title": "暐寬機車行",
   "Tel": "03-4799542",
   "Address": "桃園市龍潭區北龍路105號",
   "Brand": "三陽",
   "Lat": 24.8660102,
   "Lon": 121.2134561
 },
 {
   "Title": "富光機車行",
   "Tel": "03-4791751",
   "Address": "桃園市龍潭區東龍路150號",
   "Brand": "光陽",
   "Lat": 24.8628854,
   "Lon": 121.214954
 },
 {
   "Title": "吉如機車行",
   "Tel": "03-4795623",
   "Address": "桃園市龍潭區東龍路289號",
   "Brand": "三陽",
   "Lat": 24.8663237,
   "Lon": 121.2134474
 },
 {
   "Title": "福隆機車行",
   "Tel": "03-4798348",
   "Address": "桃園市龍潭區中正路184號",
   "Brand": "三陽",
   "Lat": 24.8653614,
   "Lon": 121.2167809
 },
 {
   "Title": "天吉機車行",
   "Tel": "03-3208613",
   "Address": "桃園市龜山區萬壽路二段1307號",
   "Brand": "光陽",
   "Lat": 24.9927562,
   "Lon": 121.3274005
 },
 {
   "Title": "慶聯車業行",
   "Tel": "03-3200115",
   "Address": "桃園市龜山區山鶯路150號",
   "Brand": "三陽",
   "Lat": 24.9886319,
   "Lon": 121.324402
 },
 {
   "Title": "慶鑫車業有限公司",
   "Tel": "03-3277477",
   "Address": "桃園市龜山區文化一路78號",
   "Brand": "台鈴",
   "Lat": 25.0554221,
   "Lon": 121.3754333
 },
 {
   "Title": "德昇機車行",
   "Tel": "03-3293520",
   "Address": "桃園市龜山區萬壽路二段650號",
   "Brand": "光陽",
   "Lat": 24.9993886,
   "Lon": 121.3460238
 },
 {
   "Title": "協進機車行",
   "Tel": "03-3243530",
   "Address": "桃園市蘆竹區南山路二段456號",
   "Brand": "光陽",
   "Lat": 25.0719044,
   "Lon": 121.2855485
 },
 {
   "Title": "南山機車行",
   "Tel": "03-3243488",
   "Address": "桃園市蘆竹區南山路三段256號",
   "Brand": "三陽",
   "Lat": 25.084156,
   "Lon": 121.286125
 },
 {
   "Title": "安吉車業行",
   "Tel": "03-3527279",
   "Address": "桃園市蘆竹區南昌路22號",
   "Brand": "山葉",
   "Lat": 25.041965,
   "Lon": 121.287619
 },
 {
   "Title": "瑞鑫機車行",
   "Tel": "03-3412427",
   "Address": "桃園市蘆竹區新興里大竹路27號1樓",
   "Brand": "三陽",
   "Lat": 25.012443,
   "Lon": 121.273712
 },
 {
   "Title": "國昌車業行",
   "Tel": "03-4981686",
   "Address": "桃園市觀音區中山路二段947號",
   "Brand": "三陽",
   "Lat": 25.0094518,
   "Lon": 121.1416462
 },
 {
   "Title": "新佳明輪業行",
   "Tel": "03-4984633",
   "Address": "桃園市觀音區忠愛路一段330號",
   "Brand": "光陽",
   "Lat": 24.9963961,
   "Lon": 121.1628617
 },
 {
   "Title": "建鑫輪業行",
   "Tel": "03-4837330",
   "Address": "桃園市觀音區成功路二段835號",
   "Brand": "光陽",
   "Lat": 25.036645,
   "Lon": 121.1030581
 },
 {
   "Title": "順程機車行",
   "Tel": "03-3207268",
   "Address": "桃園市龜山區山鶯路19號",
   "Brand": "光陽",
   "Lat": 24.991428,
   "Lon": 121.323252
 },
 {
   "Title": "復興機車行",
   "Tel": "03-3822014",
   "Address": "桃園市復興區中正路275之4號",
   "Brand": "光陽",
   "Lat": 24.8241642,
   "Lon": 121.3543923
 },
 {
   "Title": "偉譽車業有限公司",
   "Tel": "03-4627095",
   "Address": "桃園市中壢區延平路247號",
   "Brand": "山葉",
   "Lat": 24.9615198,
   "Lon": 121.227098
 },
 {
   "Title": "世茂車業有限公司",
   "Tel": "03-4924010",
   "Address": "桃園市平鎮區中豐路2、4號",
   "Brand": "光陽",
   "Lat": 24.950527,
   "Lon": 121.218001
 },
 {
   "Title": "誌茂車業行",
   "Tel": "03-4952126",
   "Address": "桃園市平鎮區廣達里育達路236號1樓",
   "Brand": "山葉",
   "Lat": 24.9517229,
   "Lon": 121.207355
 },
 {
   "Title": "勝星車業有限公司",
   "Tel": "03-4222529",
   "Address": "桃園市中壢區新生路124之1號",
   "Brand": "山葉",
   "Lat": 24.95997,
   "Lon": 121.223365
 },
 {
   "Title": "東洋機車行",
   "Tel": "03-3028716",
   "Address": "桃園市桃園區永安路517號",
   "Brand": "光陽",
   "Lat": 25.0040236,
   "Lon": 121.2961669
 },
 {
   "Title": "義昌機車行",
   "Tel": "03-3877773",
   "Address": "桃園市大溪區康莊路69號",
   "Brand": "光陽",
   "Lat": 24.8829299,
   "Lon": 121.2885227
 },
 {
   "Title": "任泰商行",
   "Tel": "03-3346073",
   "Address": "桃園市桃園區中山北路62號",
   "Brand": "台鈴",
   "Lat": 24.993661,
   "Lon": 121.303469
 },
 {
   "Title": "駿泓車業行",
   "Tel": "03-3759111",
   "Address": "桃園市桃園區桃鶯路435號",
   "Brand": "光陽",
   "Lat": 24.979429,
   "Lon": 121.321033
 },
 {
   "Title": "昱郎機車行",
   "Tel": "03-3874256",
   "Address": "桃園市大溪區中華路50號",
   "Brand": "光陽",
   "Lat": 24.8842738,
   "Lon": 121.2938257
 },
 {
   "Title": "尚興機車行",
   "Tel": "03-3117727",
   "Address": "桃園市蘆竹區南崁路一段30號",
   "Brand": "光陽",
   "Lat": 25.0510533,
   "Lon": 121.2896473
 },
 {
   "Title": "正昌車業行",
   "Tel": "03-3136122",
   "Address": "桃園市蘆竹區大竹路483之2號",
   "Brand": "山葉",
   "Lat": 25.022076,
   "Lon": 121.261813
 },
 {
   "Title": "松展機車行",
   "Tel": "03-3370225",
   "Address": "桃園市桃園區自強路4號",
   "Brand": "光陽",
   "Lat": 24.99743,
   "Lon": 121.318649
 },
 {
   "Title": "朝鑫機車行",
   "Tel": "03-3698947",
   "Address": "桃園市桃園區龍山里龍壽街125號",
   "Brand": "台鈴",
   "Lat": 24.9816929,
   "Lon": 121.267967
 },
 {
   "Title": "大鑫機車行",
   "Tel": "03-3579616",
   "Address": "桃園市桃園區大興路169號1樓",
   "Brand": "光陽",
   "Lat": 25.015512,
   "Lon": 121.311241
 },
 {
   "Title": "宏彬機車行",
   "Tel": "03-3023245",
   "Address": "桃園市桃園區寶慶里大興西路二段182號",
   "Brand": "山葉",
   "Lat": 25.0095605,
   "Lon": 121.2956437
 },
 {
   "Title": "中順機車行",
   "Tel": "03-3349487",
   "Address": "桃園市桃園區永安路448號",
   "Brand": "光陽",
   "Lat": 25.0002848,
   "Lon": 121.2996676
 },
 {
   "Title": "新金輪機車行",
   "Tel": "03-3325378",
   "Address": "桃園市桃園區春日路297號1樓",
   "Brand": "光陽",
   "Lat": 25.0000066,
   "Lon": 121.3144508
 },
 {
   "Title": "上愛機車行",
   "Tel": "03-4026382",
   "Address": "桃園市平鎮區環南路212號1樓",
   "Brand": "台鈴",
   "Lat": 24.9519997,
   "Lon": 121.2064903
 },
 {
   "Title": "聯誠車業行",
   "Tel": "03-3223958",
   "Address": "桃園市蘆竹區營福里中山路148號1樓",
   "Brand": "山葉",
   "Lat": 25.0784359,
   "Lon": 121.2969674
 },
 {
   "Title": "裕益機車行",
   "Tel": "03-3622122",
   "Address": "桃園市八德區介壽路一段930號1樓",
   "Brand": "光陽",
   "Lat": 24.959076,
   "Lon": 121.299175
 },
 {
   "Title": "宗益機車行",
   "Tel": "03-3661665",
   "Address": "桃園市八德區介壽路二段198號1樓",
   "Brand": "三陽",
   "Lat": 24.9524177,
   "Lon": 121.2980641
 },
 {
   "Title": "全隆機車行",
   "Tel": "03-3664130",
   "Address": "桃園市八德區介壽路二段350號",
   "Brand": "山葉",
   "Lat": 24.948419,
   "Lon": 121.297471
 },
 {
   "Title": "今盛車業有限公司",
   "Tel": "03-3226103",
   "Address": "桃園市蘆竹區南興里南竹路二段123號",
   "Brand": "山葉",
   "Lat": 25.0410678,
   "Lon": 121.2844013
 },
 {
   "Title": "永兆車業有限公司",
   "Tel": "03-4792598",
   "Address": "桃園市龍潭區東龍路293號",
   "Brand": "三陽",
   "Lat": 24.8664099,
   "Lon": 121.2134424
 },
 {
   "Title": "伍強機車行",
   "Tel": "03-4911061",
   "Address": "桃園市平鎮區延平路二段159號",
   "Brand": "光陽",
   "Lat": 24.9478683,
   "Lon": 121.2111377
 },
 {
   "Title": "萬立機車行",
   "Tel": "03-4933496",
   "Address": "桃園市平鎮區延平路三段122號",
   "Brand": "光陽",
   "Lat": 24.9403069,
   "Lon": 121.20398
 },
 {
   "Title": "新象機車行",
   "Tel": "03-4570730",
   "Address": "桃園市平鎮區新富二街32號",
   "Brand": "光陽",
   "Lat": 24.9416567,
   "Lon": 121.2149443
 },
 {
   "Title": "健良機車行",
   "Tel": "03-4791251",
   "Address": "桃園市龍潭區中豐路736號",
   "Brand": "三陽",
   "Lat": 24.889648,
   "Lon": 121.21313
 },
 {
   "Title": "名鴻機車行",
   "Tel": "03-4575339",
   "Address": "桃園市平鎮區大智街154號",
   "Brand": "光陽",
   "Lat": 24.9280129,
   "Lon": 121.223683
 },
 {
   "Title": "照來車業行",
   "Tel": "03-3602122",
   "Address": "桃園市桃園區延壽街86號",
   "Brand": "光陽",
   "Lat": 24.9933549,
   "Lon": 121.292184
 },
 {
   "Title": "易峰車行",
   "Tel": "03-3580881",
   "Address": "桃園市桃園區新埔里同安街392號1樓",
   "Brand": "光陽",
   "Lat": 25.0181517,
   "Lon": 121.3020879
 },
 {
   "Title": "大馨機車行",
   "Tel": "03-4830986",
   "Address": "桃園市觀音區大觀路一段586號",
   "Brand": "三陽",
   "Lat": 25.0487619,
   "Lon": 121.144155
 },
 {
   "Title": "東凌車業有限公司",
   "Tel": "03-3183311",
   "Address": "桃園市龜山區文化三路92號",
   "Brand": "光陽",
   "Lat": 25.0580646,
   "Lon": 121.3632241
 },
 {
   "Title": "風火輪機車行",
   "Tel": "03-4732233",
   "Address": "桃園市觀音區中山路一段901號",
   "Brand": "摩特",
   "Lat": 25.030985,
   "Lon": 121.104339
 },
 {
   "Title": "興中機車行",
   "Tel": "03-3232882",
   "Address": "桃園市蘆竹區大竹路532號",
   "Brand": "山葉",
   "Lat": 25.024005,
   "Lon": 121.2595909
 },
 {
   "Title": "全埕機車行",
   "Tel": "03-4394065",
   "Address": "桃園市平鎮區中豐路南勢二段359號",
   "Brand": "光陽",
   "Lat": 24.9100459,
   "Lon": 121.211582
 },
 {
   "Title": "榮發車業",
   "Tel": "03-3759113",
   "Address": "桃園市桃園區桃鶯路115號1樓",
   "Brand": "三陽",
   "Lat": 24.9869374,
   "Lon": 121.3180469
 },
 {
   "Title": "慶昌機車行",
   "Tel": "03-4922105",
   "Address": "桃園市平鎮區延平路二段163號",
   "Brand": "光陽",
   "Lat": 24.9478065,
   "Lon": 121.2110958
 },
 {
   "Title": "永慕機車行",
   "Tel": "03-3295027",
   "Address": "桃園市龜山區大同路296號",
   "Brand": "山葉",
   "Lat": 24.9888999,
   "Lon": 121.345755
 },
 {
   "Title": "冠鼎機車行",
   "Tel": "03-3692910",
   "Address": "桃園市桃園區龍壽街188號",
   "Brand": "三陽",
   "Lat": 24.9840239,
   "Lon": 121.268384
 },
 {
   "Title": "玉成機車行",
   "Tel": "03-2208918",
   "Address": "桃園市桃園區宏昌六街122號",
   "Brand": "山葉",
   "Lat": 24.9876679,
   "Lon": 121.294508
 },
 {
   "Title": "陸福機車行",
   "Tel": "03-3212461",
   "Address": "桃園市蘆竹區六福路183號",
   "Brand": "無",
   "Lat": 25.0605117,
   "Lon": 121.2977171
 },
 {
   "Title": "宏泰車業行",
   "Tel": "03-3886080",
   "Address": "桃園市大溪區信義路86號",
   "Brand": "光陽",
   "Lat": 24.8847395,
   "Lon": 121.2913883
 },
 {
   "Title": "明揚車業行",
   "Tel": "03-3204323",
   "Address": "桃園市龜山區明興街197號",
   "Brand": "光陽",
   "Lat": 24.9833882,
   "Lon": 121.3333761
 },
 {
   "Title": "山鶯機車行",
   "Tel": "03-3208206",
   "Address": "桃園市龜山區山鶯路400號",
   "Brand": "光陽",
   "Lat": 24.9802125,
   "Lon": 121.330649
 },
 {
   "Title": "楊湖機車行",
   "Tel": "03-4787133",
   "Address": "桃園市楊梅區楊湖路一段790號",
   "Brand": "三陽",
   "Lat": 24.9124801,
   "Lon": 121.1233298
 },
 {
   "Title": "文進車業行",
   "Tel": "03-3494677",
   "Address": "桃園市龜山區明興街57號",
   "Brand": "三陽",
   "Lat": 24.9859607,
   "Lon": 121.3311911
 },
 {
   "Title": "釧盛機車行",
   "Tel": "03-3667959",
   "Address": "桃園市八德區大福里介壽路一段12號1樓",
   "Brand": "光陽",
   "Lat": 24.978168,
   "Lon": 121.303541
 },
 {
   "Title": "勝宇車業行",
   "Tel": "03-4986277",
   "Address": "桃園市中壢區內厝里中正路三段10號",
   "Brand": "山葉",
   "Lat": 24.9839992,
   "Lon": 121.1880913
 },
 {
   "Title": "全益機車行",
   "Tel": "03-4983633",
   "Address": "桃園市中壢區內厝里中正路四段103號1樓",
   "Brand": "三陽",
   "Lat": 24.9888453,
   "Lon": 121.1801354
 },
 {
   "Title": "興園機車行",
   "Tel": "03-4356856",
   "Address": "桃園市中壢區興仁里興仁路二段124號1樓",
   "Brand": "山葉",
   "Lat": 24.9660374,
   "Lon": 121.2628029
 },
 {
   "Title": "正光車業行",
   "Tel": "03-4564241",
   "Address": "桃園市中壢區華愛里華勛街11號",
   "Brand": "山葉",
   "Lat": 24.9506562,
   "Lon": 121.2573784
 },
 {
   "Title": "新宏昌機車行",
   "Tel": "03-4830910",
   "Address": "桃園市觀音區草漯里大觀路二段190號",
   "Brand": "光陽",
   "Lat": 25.046089,
   "Lon": 121.1412743
 },
 {
   "Title": "樹茂車行",
   "Tel": "03-4192646",
   "Address": "桃園市平鎮區山峰里中豐路山頂段493號1樓",
   "Brand": "山葉",
   "Lat": 24.8936579,
   "Lon": 121.211824
 },
 {
   "Title": "協隆機車行",
   "Tel": "03-3842054",
   "Address": "桃園市大園區北港里大觀路546之1號1樓",
   "Brand": "山葉",
   "Lat": 25.0646778,
   "Lon": 121.1813744
 },
 {
   "Title": "進旺車業有限公司",
   "Tel": "03-2227022",
   "Address": "桃園市蘆竹區南興里南竹路2段29號",
   "Brand": "山葉",
   "Lat": 25.043054,
   "Lon": 121.2870173
 },
 {
   "Title": "常虹車業行",
   "Tel": "03-4656669",
   "Address": "桃園市中壢區後寮一路126號1樓",
   "Brand": "山葉",
   "Lat": 24.9413502,
   "Lon": 121.2451635
 },
 {
   "Title": "永琦車業行",
   "Tel": "03-4621632",
   "Address": "桃園市中壢區中園路二段137號1樓",
   "Brand": "光陽",
   "Lat": 24.9923394,
   "Lon": 121.2339802
 },
 {
   "Title": "立順車業",
   "Tel": "03-4620600",
   "Address": "桃園市中壢區新中北路393號1樓",
   "Brand": "台鈴",
   "Lat": 24.959072,
   "Lon": 121.243432
 },
 {
   "Title": "宏億機車行",
   "Tel": "03-3801846",
   "Address": "桃園市大溪區瑞安路1段271號",
   "Brand": "光陽",
   "Lat": 24.8859015,
   "Lon": 121.2797552
 },
 {
   "Title": "千輪車業行",
   "Tel": "03-4688346",
   "Address": "桃園市平鎮區金陵路二段476號1樓",
   "Brand": "三陽",
   "Lat": 24.932007,
   "Lon": 121.225846
 },
 {
   "Title": "聯捷輪業行",
   "Tel": "03-4635434",
   "Address": "桃園市中壢區中山里永福路776號1樓",
   "Brand": "山葉",
   "Lat": 24.9613193,
   "Lon": 121.2557363
 },
 {
   "Title": "和慶機車行",
   "Tel": "03-4505825",
   "Address": "桃園市中壢區龍岡里龍岡路三段598號",
   "Brand": "三陽",
   "Lat": 24.9288178,
   "Lon": 121.2412496
 }
]
