[
 {
   "Title": "東易車業行",
   "Tel": "05-7991578",
   "Address": "雲林縣口湖鄉崙東村中山路3之39號",
   "Brand": "三陽",
   "Lat": 23.6159321,
   "Lon": 120.1640509
 },
 {
   "Title": "新正興機車行",
   "Tel": "05-6621862",
   "Address": "雲林縣土庫鎮中央路23號",
   "Brand": "光陽",
   "Lat": 23.6722402,
   "Lon": 120.3879322
 },
 {
   "Title": "述衡車業行",
   "Tel": "05-5322555",
   "Address": "雲林縣斗六市四維里中山路21號1樓",
   "Brand": "三陽",
   "Lat": 23.709973,
   "Lon": 120.5419841
 },
 {
   "Title": "佺益車業有限公司",
   "Tel": "05-5324098",
   "Address": "雲林縣斗六市鎮東里文化路55號1樓",
   "Brand": "光陽",
   "Lat": 23.711159,
   "Lon": 120.547675
 },
 {
   "Title": "東晉車業行",
   "Tel": "05-5325445",
   "Address": "雲林縣斗六市鎮東里文化路170號1樓",
   "Brand": "三陽",
   "Lat": 23.7110039,
   "Lon": 120.5497498
 },
 {
   "Title": "永裕車業行",
   "Tel": "05-5325452",
   "Address": "雲林縣斗六市雲林路一段164號1樓",
   "Brand": "光陽",
   "Lat": 23.707561,
   "Lon": 120.5378439
 },
 {
   "Title": "聯全機車業有限公司",
   "Tel": "05-5331717",
   "Address": "雲林縣斗六市雲林路一段202號",
   "Brand": "山葉",
   "Lat": 23.7066159,
   "Lon": 120.5362917
 },
 {
   "Title": "春興機車行",
   "Tel": "05-5573029",
   "Address": "雲林縣斗六市榴中里19鄰石榴路222號之18",
   "Brand": "光陽",
   "Lat": 23.726398,
   "Lon": 120.58806
 },
 {
   "Title": "慶池機車行",
   "Tel": "05-5972787",
   "Address": "雲林縣斗南鎮西歧里延平路二段160號1樓",
   "Brand": "三陽",
   "Lat": 23.6806642,
   "Lon": 120.4808919
 },
 {
   "Title": "聯成機車行",
   "Tel": "05-5973062",
   "Address": "雲林縣斗南鎮西歧里延平路二段323號",
   "Brand": "山葉",
   "Lat": 23.676603,
   "Lon": 120.4762952
 },
 {
   "Title": "凱發車行",
   "Tel": "05-5975022",
   "Address": "雲林縣斗南鎮南昌里南昌路212號",
   "Brand": "光陽",
   "Lat": 23.6731756,
   "Lon": 120.4770742
 },
 {
   "Title": "群益機車行",
   "Tel": "05-5970156",
   "Address": "雲林縣斗南鎮南昌里南昌路86號1樓",
   "Brand": "三陽",
   "Lat": 23.6734741,
   "Lon": 120.479888
 },
 {
   "Title": "含光行",
   "Tel": "05-7852729",
   "Address": "雲林縣水林鄉水北村水林路276號",
   "Brand": "光陽",
   "Lat": 23.5718237,
   "Lon": 120.2420042
 },
 {
   "Title": "百豐車行",
   "Tel": "05-7833585",
   "Address": "雲林縣北港鎮大同里中正路82號",
   "Brand": "摩特",
   "Lat": 23.5694922,
   "Lon": 120.3023004
 },
 {
   "Title": "佑泉機車行",
   "Tel": "05-7820960",
   "Address": "雲林縣北港鎮華勝里民樂路146號1樓",
   "Brand": "三陽",
   "Lat": 23.5766046,
   "Lon": 120.2961299
 },
 {
   "Title": "國良機車行",
   "Tel": "05-5821344",
   "Address": "雲林縣古坑鄉朝陽村中山路132號",
   "Brand": "山葉",
   "Lat": 23.644834,
   "Lon": 120.5620597
 },
 {
   "Title": "明家機車行",
   "Tel": "05-5824122",
   "Address": "雲林縣古坑鄉朝陽村中山路256之1號",
   "Brand": "三陽",
   "Lat": 23.6489903,
   "Lon": 120.5607224
 },
 {
   "Title": "旭全企業行",
   "Tel": "05-7871140",
   "Address": "雲林縣四湖鄉四湖村中正路387號1樓",
   "Brand": "光陽",
   "Lat": 23.635385,
   "Lon": 120.2253794
 },
 {
   "Title": "安全車行",
   "Tel": "05-5862350",
   "Address": "雲林縣西螺鎮廣福里大同路147號",
   "Brand": "光陽",
   "Lat": 23.799846,
   "Lon": 120.465107
 },
 {
   "Title": "新舜成機車行",
   "Tel": "05-5862577",
   "Address": "雲林縣西螺鎮大園里大同路24之11號1樓",
   "Brand": "三陽",
   "Lat": 23.7980185,
   "Lon": 120.4664861
 },
 {
   "Title": "雅順車業行",
   "Tel": "05-5862779",
   "Address": "雲林縣西螺鎮大園里大同路50號1樓",
   "Brand": "山葉",
   "Lat": 23.7989487,
   "Lon": 120.4660087
 },
 {
   "Title": "金龍機車行",
   "Tel": "05-5892639",
   "Address": "雲林縣林內鄉林南村中正路37號",
   "Brand": "光陽",
   "Lat": 23.7612071,
   "Lon": 120.61976
 },
 {
   "Title": "連正機車行",
   "Tel": "05-5892450",
   "Address": "雲林縣林內鄉重興村重興路94號",
   "Brand": "山葉",
   "Lat": 23.7672844,
   "Lon": 120.5773107
 },
 {
   "Title": "長發機車行",
   "Tel": "05-6339057",
   "Address": "雲林縣虎尾鎮西安里中正路348號1樓",
   "Brand": "三陽",
   "Lat": 23.7035171,
   "Lon": 120.4288679
 },
 {
   "Title": "大泰企業行",
   "Tel": "05-6322843",
   "Address": "雲林縣虎尾鎮東仁里光復路250號1樓",
   "Brand": "光陽",
   "Lat": 23.7100282,
   "Lon": 120.4404247
 },
 {
   "Title": "永發機車行",
   "Tel": "05-6327365",
   "Address": "雲林縣虎尾鎮公安里林森路一段362號",
   "Brand": "三陽",
   "Lat": 23.7118373,
   "Lon": 120.4360818
 },
 {
   "Title": "道一機車行",
   "Tel": "05-6323735",
   "Address": "雲林縣虎尾鎮立仁里林森路二段94號1樓",
   "Brand": "山葉",
   "Lat": 23.7058871,
   "Lon": 120.429415
 },
 {
   "Title": "興隆機車行",
   "Tel": "05-6325808",
   "Address": "雲林縣虎尾鎮公安里博愛路160號1樓",
   "Brand": "光陽",
   "Lat": 23.7171114,
   "Lon": 120.4364272
 },
 {
   "Title": "新寶興機車行",
   "Tel": "05-6962856",
   "Address": "雲林縣崙背鄉南陽村中山路134號",
   "Brand": "光陽",
   "Lat": 23.7601916,
   "Lon": 120.3577891
 },
 {
   "Title": "進東機車行",
   "Tel": "05-6969186",
   "Address": "雲林縣崙背鄉南陽村中山路143號1樓",
   "Brand": "山葉",
   "Lat": 23.7598404,
   "Lon": 120.3576849
 },
 {
   "Title": "億山機車行",
   "Tel": "05-6963930",
   "Address": "雲林縣崙背鄉南陽村正義路151號1樓",
   "Brand": "三陽",
   "Lat": 23.7610673,
   "Lon": 120.3579163
 },
 {
   "Title": "良井機車行",
   "Tel": "05-6932669",
   "Address": "雲林縣麥寮鄉麥豐村中山路168號",
   "Brand": "山葉",
   "Lat": 23.7486332,
   "Lon": 120.2569448
 },
 {
   "Title": "龍鵬車行",
   "Tel": "05-6932360",
   "Address": "雲林縣麥寮鄉麥津村中正路104號",
   "Brand": "三陽",
   "Lat": 23.748968,
   "Lon": 120.253373
 },
 {
   "Title": "世明車業行",
   "Tel": "05-6932472",
   "Address": "雲林縣麥寮鄉麥豐村表福路61號1樓",
   "Brand": "台鈴",
   "Lat": 23.7477136,
   "Lon": 120.2543887
 },
 {
   "Title": "盈利輪業行",
   "Tel": "05-5842151",
   "Address": "雲林縣莿桐鄉莿桐村中山路99號1樓",
   "Brand": "三陽",
   "Lat": 23.7569487,
   "Lon": 120.4998136
 },
 {
   "Title": "鈴哲機車行",
   "Tel": "05-5983315",
   "Address": "雲林縣二崙鄉油車村文化路97號",
   "Brand": "三陽",
   "Lat": 23.7953094,
   "Lon": 120.3879718
 },
 {
   "Title": "豐連機車行",
   "Tel": "05-5982639",
   "Address": "雲林縣二崙鄉油車村文化路226號",
   "Brand": "山葉",
   "Lat": 23.7952629,
   "Lon": 120.3852911
 },
 {
   "Title": "金標機車行",
   "Tel": "05-7906076",
   "Address": "雲林縣口湖鄉梧南村光明路3-16號",
   "Brand": "山葉",
   "Lat": 23.5484536,
   "Lon": 120.1942824
 },
 {
   "Title": "和發機車行",
   "Tel": "05-6653418",
   "Address": "雲林縣土庫鎮西平里馬光路176號",
   "Brand": "三陽",
   "Lat": 23.7047012,
   "Lon": 120.3502825
 },
 {
   "Title": "輝祥機車行",
   "Tel": "05-5917025",
   "Address": "雲林縣大埤鄉南和村中正路68號",
   "Brand": "光陽",
   "Lat": 23.6453008,
   "Lon": 120.4285912
 },
 {
   "Title": "聯進機車行",
   "Tel": "05-5912336",
   "Address": "雲林縣大埤鄉南和村自由街21號",
   "Brand": "三陽",
   "Lat": 23.6457177,
   "Lon": 120.4270492
 },
 {
   "Title": "正寅機車行",
   "Tel": "05-5325942",
   "Address": "雲林縣斗六市社口里中山路389號",
   "Brand": "光陽",
   "Lat": 23.6995165,
   "Lon": 120.5382936
 },
 {
   "Title": "玉山機車行",
   "Tel": "05-5330418",
   "Address": "雲林縣斗六市崙峰里仁義路5-4號",
   "Brand": "其他",
   "Lat": 23.690682,
   "Lon": 120.538609
 },
 {
   "Title": "宏茂機車行",
   "Tel": "05-5222109",
   "Address": "雲林縣斗六市崙峰里仁義路20號1樓",
   "Brand": "光陽",
   "Lat": 23.681342,
   "Lon": 120.5384875
 },
 {
   "Title": "全翔機車行",
   "Tel": "05-5338956",
   "Address": "雲林縣斗六市成功里成功路319號1樓",
   "Brand": "三陽",
   "Lat": 23.7066766,
   "Lon": 120.5493244
 },
 {
   "Title": "全裕機車行",
   "Tel": "05-5326273",
   "Address": "雲林縣斗六市公誠里鎮北路213號1樓",
   "Brand": "光陽",
   "Lat": 23.7167545,
   "Lon": 120.5427993
 },
 {
   "Title": "快馬機車行",
   "Tel": "05-5974055",
   "Address": "雲林縣斗南鎮西歧里大同路1號",
   "Brand": "三陽",
   "Lat": 23.6936211,
   "Lon": 120.464219
 },
 {
   "Title": "裕益機車行",
   "Tel": "05-5972477",
   "Address": "雲林縣斗南鎮南昌里延平路2段389號",
   "Brand": "光陽",
   "Lat": 23.6743458,
   "Lon": 120.4764738
 },
 {
   "Title": "鴻吉機車行",
   "Tel": "05-7853232",
   "Address": "雲林縣水林鄉水南村水林路353號",
   "Brand": "山葉",
   "Lat": 23.5718154,
   "Lon": 120.2415003
 },
 {
   "Title": "新弘車業有限公司",
   "Tel": "05-7833054",
   "Address": "雲林縣北港鎮光復里永生街7號1樓",
   "Brand": "光陽",
   "Lat": 23.5725925,
   "Lon": 120.2973194
 },
 {
   "Title": "順陽機車行",
   "Tel": "05-7833365",
   "Address": "雲林縣北港鎮西勢里義民路47號1樓",
   "Brand": "三陽",
   "Lat": 23.5679249,
   "Lon": 120.302176
 },
 {
   "Title": "東欣機車行",
   "Tel": "05-7838511",
   "Address": "雲林縣北港鎮華勝里公園路173號1樓",
   "Brand": "三陽",
   "Lat": 23.5779959,
   "Lon": 120.3010598
 },
 {
   "Title": "達陽機車行",
   "Tel": "05-7839511",
   "Address": "雲林縣北港鎮華勝路83-2號1樓",
   "Brand": "台鈴",
   "Lat": 23.574855,
   "Lon": 120.298866
 },
 {
   "Title": "明生機車行",
   "Tel": "05-5822437",
   "Address": "雲林縣古坑鄉水碓路59號",
   "Brand": "光陽",
   "Lat": 23.657065,
   "Lon": 120.5598162
 },
 {
   "Title": "銘洋機車行",
   "Tel": "05-5263737",
   "Address": "雲林縣古坑鄉東和村文化路69號1樓",
   "Brand": "三陽",
   "Lat": 23.6828343,
   "Lon": 120.5698766
 },
 {
   "Title": "九成機車行",
   "Tel": "05-5260169",
   "Address": "雲林縣古坑鄉新庄村新庄路85之1號1、2樓",
   "Brand": "光陽",
   "Lat": 23.692065,
   "Lon": 120.584559
 },
 {
   "Title": "鴻興機車行",
   "Tel": "05-7872820",
   "Address": "雲林縣四湖鄉施湖村中山西路197巷17、18號",
   "Brand": "山葉",
   "Lat": 23.6373704,
   "Lon": 120.221127
 },
 {
   "Title": "明瑞機車行",
   "Tel": "05-5863013",
   "Address": "雲林縣西螺鎮漢光里西興南路118號1樓",
   "Brand": "山葉",
   "Lat": 23.7966365,
   "Lon": 120.4557491
 },
 {
   "Title": "新永發車行",
   "Tel": "05-5862850",
   "Address": "雲林縣西螺鎮中興里延平路529號1樓",
   "Brand": "台鈴",
   "Lat": 23.7995043,
   "Lon": 120.4481868
 },
 {
   "Title": "吉馬機車行",
   "Tel": "05-5863773",
   "Address": "雲林縣西螺鎮漢光里新興路177號1樓",
   "Brand": "光陽",
   "Lat": 23.7950744,
   "Lon": 120.4525338
 },
 {
   "Title": "安輪機車行",
   "Tel": "05-6991337",
   "Address": "雲林縣東勢鄉東北村康安路113號1樓",
   "Brand": "三陽",
   "Lat": 23.6775052,
   "Lon": 120.2555645
 },
 {
   "Title": "煌光機車行",
   "Tel": "05-6991449",
   "Address": "雲林縣東勢鄉嘉隆村東榮路53號",
   "Brand": "光陽",
   "Lat": 23.6734994,
   "Lon": 120.2553579
 },
 {
   "Title": "安栓機車行",
   "Tel": "05-5893603",
   "Address": "雲林縣林內鄉林北村中正東路115號",
   "Brand": "三陽",
   "Lat": 23.7635403,
   "Lon": 120.6215753
 },
 {
   "Title": "旺來機車行",
   "Tel": "05-6339099",
   "Address": "雲林縣虎尾鎮立仁里復興路176號1樓",
   "Brand": "光陽",
   "Lat": 23.706485,
   "Lon": 120.426151
 },
 {
   "Title": "鴻輝機車行",
   "Tel": "05-6322658",
   "Address": "雲林縣虎尾鎮西安里林森路2段193號1樓",
   "Brand": "光陽",
   "Lat": 23.704318,
   "Lon": 120.4285625
 },
 {
   "Title": "詠豐機車行",
   "Tel": "05-6321068",
   "Address": "雲林縣虎尾鎮新吉里工專一街120、122號1樓",
   "Brand": "三陽",
   "Lat": 23.7011477,
   "Lon": 120.4219871
 },
 {
   "Title": "進盛機車行",
   "Tel": "05-6932193",
   "Address": "雲林縣麥寮鄉麥津村中山路426號1樓",
   "Brand": "光陽",
   "Lat": 23.750573,
   "Lon": 120.250539
 },
 {
   "Title": "連全機車行",
   "Tel": "05-5842603",
   "Address": "雲林縣莿桐鄉莿桐村中正路206-6號1樓",
   "Brand": "台鈴",
   "Lat": 23.7577105,
   "Lon": 120.4975815
 },
 {
   "Title": "崑輪機車行",
   "Tel": "05-6972132",
   "Address": "雲林縣褒忠鄉中民村中正路185號1樓",
   "Brand": "三陽",
   "Lat": 23.6947654,
   "Lon": 120.3120711
 },
 {
   "Title": "鴻揚車業行",
   "Tel": "05-6974676",
   "Address": "雲林縣褒忠鄉中民村中正路327巷9號1樓",
   "Brand": "光陽",
   "Lat": 23.6929924,
   "Lon": 120.3081339
 },
 {
   "Title": "詠裕機車行",
   "Tel": "05-6975846",
   "Address": "雲林縣褒忠鄉中勝村新湖路19號1樓",
   "Brand": "光陽",
   "Lat": 23.6967985,
   "Lon": 120.3085439
 },
 {
   "Title": "九和機車站",
   "Tel": "05-5822428",
   "Address": "雲林縣古坑鄉永昌村永興路72號",
   "Brand": "光陽",
   "Lat": 23.6254872,
   "Lon": 120.5513701
 },
 {
   "Title": "啟昌機車行",
   "Tel": "05-7889091",
   "Address": "雲林縣元長鄉長南村中山路25-2號",
   "Brand": "三陽",
   "Lat": 23.6486395,
   "Lon": 120.3132569
 },
 {
   "Title": "祥輪機車行",
   "Tel": "05-5572842",
   "Address": "雲林縣斗六市榴中里石榴路107號",
   "Brand": "三陽",
   "Lat": 23.7236763,
   "Lon": 120.584488
 },
 {
   "Title": "昶達機車行",
   "Tel": "05-5843199",
   "Address": "雲林縣莿桐鄉埔子村中正路40號1樓",
   "Brand": "光陽",
   "Lat": 23.7564567,
   "Lon": 120.503688
 },
 {
   "Title": "盛輪機車行",
   "Tel": "05-5980223",
   "Address": "雲林縣二崙鄉崙西村中山路117號",
   "Brand": "三陽",
   "Lat": 23.7731233,
   "Lon": 120.4172052
 },
 {
   "Title": "啟利機車行",
   "Tel": "05-6911516",
   "Address": "雲林縣麥寮鄉橋頭村橋頭162-10號1樓",
   "Brand": "三陽",
   "Lat": 23.793268,
   "Lon": 120.271933
 },
 {
   "Title": "福進機車行",
   "Tel": "05-6222936",
   "Address": "雲林縣虎尾鎮中溪里中興11鄰106之4號1樓",
   "Brand": "光陽",
   "Lat": 23.7215095,
   "Lon": 120.461686
 },
 {
   "Title": "振宇機車行",
   "Tel": "05-6981128",
   "Address": "雲林縣台西鄉海口村中山路427-9號",
   "Brand": "光陽",
   "Lat": 23.7006091,
   "Lon": 120.1953828
 },
 {
   "Title": "進和機車行",
   "Tel": "05-5327629",
   "Address": "雲林縣斗六市雲林路二段364號",
   "Brand": "三陽",
   "Lat": 23.6972263,
   "Lon": 120.522967
 },
 {
   "Title": "上輪機車行",
   "Tel": "05-5327808",
   "Address": "雲林縣斗六市三平里南京路1號",
   "Brand": "光陽",
   "Lat": 23.7118781,
   "Lon": 120.535825
 },
 {
   "Title": "欣欣機車行",
   "Tel": "05-7823097",
   "Address": "雲林縣北港鎮光復里大同路333號1樓",
   "Brand": "三陽",
   "Lat": 23.572715,
   "Lon": 120.297685
 },
 {
   "Title": "采勝機車店",
   "Tel": "05-5351598",
   "Address": "雲林縣斗六市鎮南里中山路615號1樓",
   "Brand": "光陽",
   "Lat": 23.6936499,
   "Lon": 120.5382341
 },
 {
   "Title": "元成機車行",
   "Tel": "05-5322395",
   "Address": "雲林縣斗六市鎮西里雲林路二段105、107號",
   "Brand": "三陽",
   "Lat": 23.7048201,
   "Lon": 120.5341897
 },
 {
   "Title": "吉勝機車行",
   "Tel": "05-5860758",
   "Address": "雲林縣西螺鎮廣興里8鄰廣興路95-1號1樓",
   "Brand": "光陽",
   "Lat": 23.767745,
   "Lon": 120.4615126
 },
 {
   "Title": "聯順機車行",
   "Tel": "05-6621960",
   "Address": "雲林縣土庫鎮順天里中央路33號1樓",
   "Brand": "山葉",
   "Lat": 23.6717699,
   "Lon": 120.3873627
 },
 {
   "Title": "金輪機車行",
   "Tel": "05-7724513",
   "Address": "雲林縣四湖鄉林厝村中華路18號1樓",
   "Brand": "三陽",
   "Lat": 23.6707602,
   "Lon": 120.1782878
 },
 {
   "Title": "山裕機車行",
   "Tel": "05-7841477",
   "Address": "雲林縣水林鄉松中村蔦松路102之1號1樓",
   "Brand": "山葉",
   "Lat": 23.5161479,
   "Lon": 120.2306053
 },
 {
   "Title": "德生機車行",
   "Tel": "05-7884856",
   "Address": "雲林縣元長鄉長南村中山路313號1樓",
   "Brand": "三葉",
   "Lat": 23.6537855,
   "Lon": 120.3129172
 },
 {
   "Title": "建立機車行",
   "Tel": "05-7894113",
   "Address": "雲林縣口湖鄉口湖村中正路1段242號1樓",
   "Brand": "光陽",
   "Lat": 23.5847509,
   "Lon": 120.1820037
 },
 {
   "Title": "合發機車行",
   "Tel": "05-6652266",
   "Address": "雲林縣土庫鎮東平里民族路55號",
   "Brand": "光陽",
   "Lat": 23.7055195,
   "Lon": 120.3585041
 },
 {
   "Title": "和興機車行",
   "Tel": "05-7873363",
   "Address": "雲林縣四湖鄉四湖村關聖路57之5號",
   "Brand": "三陽",
   "Lat": 23.6392205,
   "Lon": 120.2280553
 }
]